Time,Pitch,Yaw,Roll,Latitude,Longitude,GpsCnt,StraightDistance,IntegralDistance,Elevator,Rudder,Trim,Airspeed,Cadence,Ultsonic,Atmopress,Selector,Cadencevolt,Ultsonicvolt,servovolt
250418,1,261,4,35.294164343204834,136.25445053723934,1830,2.6705472469329834,420.7904931977391,0.0,0.0,0,0.0,0.0,155.65,674.57,0,6.6,4.09,0.0
250711,1,258,4,35.294164343204834,136.25445053723934,1830,2.6705472469329834,420.7904931977391,0.0,0.0,0,0.0,0.0,155.65,674.57,0,6.6,4.09,0.0
251001,0,260,3,35.294164343204834,136.25445053723934,1830,2.6705472469329834,420.7904931977391,0.0,0.0,0,0.48,0.0,155.65,674.57,0,6.6,4.09,0.0
251294,0,262,4,35.29416701208487,136.25444695549368,1831,2.2940359115600586,420.7904931977391,0.0,0.0,0,0.48,0.0,155.15,674.57,0,6.6,4.09,0.0
251584,1,255,4,35.29416701208487,136.25444695549368,1831,2.2940359115600586,420.7904931977391,0.0,0.0,0,0.48,0.0,155.15,674.57,0,6.6,4.09,0.0
251877,1,253,4,35.29416701208487,136.25444695549368,1831,2.2940359115600586,420.7904931977391,0.0,0.0,0,0.0,0.0,155.15,674.57,0,6.6,4.09,0.0
252167,1,253,3,35.29417096005939,136.25444114327888,1832,1.7445323467254639,420.7904931977391,0.0,0.0,0,0.0,0.0,154.65,674.57,0,6.6,4.09,0.0
252518,0,255,3,35.29417096005939,136.25444114327888,1832,1.7445323467254639,420.7904931977391,0.0,0.0,0,0.0,0.0,154.65,674.57,0,6.6,4.09,0.0
252808,1,255,4,35.29417096005939,136.25444114327888,1832,1.7445323467254639,420.7904931977391,0.0,0.0,0,0.48,0.0,154.65,674.57,0,6.6,4.09,0.0
253101,1,254,4,35.294173663611595,136.2544358869367,1833,1.326945185661316,420.7904931977391,0.0,0.0,0,0.48,0.0,155.15,674.57,0,6.6,4.09,0.0
253391,0,255,4,35.294173663611595,136.2544358869367,1833,1.326945185661316,420.7904931977391,-3.0,0.0,-1,0.48,0.0,155.15,674.57,0,6.6,4.09,0.0
253684,0,255,3,35.294173663611595,136.2544358869367,1833,1.326945185661316,420.7904931977391,-3.0,0.0,-1,0.48,0.0,155.15,674.57,0,6.6,4.09,0.0
253974,1,255,2,35.294173663611595,136.2544358869367,1833,1.326945185661316,420.7904931977391,-3.0,0.0,-1,0.0,0.0,155.15,674.57,0,6.6,4.09,0.0
254267,0,258,3,35.2941760191907,136.2544308158319,1834,1.0435476303100586,420.7904931977391,-3.0,0.0,-1,0.0,0.0,154.15,674.57,0,6.6,4.09,0.0
254615,0,253,4,35.2941760191907,136.2544308158319,1834,1.0435476303100586,420.7904931977391,-3.0,0.0,-1,0.0,0.0,154.15,674.57,0,6.6,4.09,0.0
254908,1,254,4,35.2941760191907,136.2544308158319,1834,1.0435476303100586,420.7904931977391,-3.0,0.0,-1,0.0,0.0,154.15,674.57,0,6.6,4.09,0.0
255198,0,255,4,35.29417820409381,136.25442572795896,1835,0.97132408618927,420.7904931977391,-3.0,0.0,-1,0.0,0.0,155.15,674.57,0,6.6,4.09,0.0
255491,0,253,4,35.29417820409381,136.25442572795896,1835,0.97132408618927,420.7904931977391,-3.0,0.0,-1,0.0,0.0,155.15,674.57,0,6.6,4.09,0.0
255781,0,256,4,35.29417820409381,136.25442572795896,1835,0.97132408618927,420.7904931977391,-3.0,0.0,-1,0.0,0.0,155.15,674.57,0,6.6,4.09,0.0
256074,1,252,4,35.294179965611285,136.25442075628456,1836,1.1114169359207153,420.7904931977391,-3.0,0.0,-1,0.0,0.0,155.15,674.57,0,6.6,4.09,0.0
256364,0,260,2,35.294179965611285,136.25442075628456,1836,1.1114169359207153,420.7904931977391,-6.0,0.0,-2,0.0,0.0,155.65,674.57,0,6.6,4.09,0.0
256657,0,256,3,35.294179965611285,136.25442075628456,1836,1.1114169359207153,420.7904931977391,-6.0,0.0,-2,0.0,0.0,155.65,674.57,0,6.6,4.09,0.0
257009,0,259,3,35.294179965611285,136.25442075628456,1836,1.1114169359207153,420.7904931977391,-6.0,0.0,-2,0.0,0.0,155.65,674.57,0,6.6,4.09,0.0
257298,0,256,3,35.294180596256325,136.2544192050756,1837,1.2027863264083862,420.7904931977391,-6.0,0.0,-2,0.0,0.0,155.15,674.57,0,6.6,4.09,0.0
257592,1,254,4,35.294180596256325,136.2544192050756,1837,1.2027863264083862,420.7904931977391,-6.0,0.0,-2,0.0,0.0,155.15,674.57,0,6.6,4.09,0.0
257881,0,254,5,35.294180596256325,136.2544192050756,1837,1.2027863264083862,420.7904931977391,-6.0,0.0,-2,0.0,0.0,155.15,674.57,0,6.6,4.09,0.0
258175,1,249,5,35.29418214475646,136.25441639956935,1838,1.4404942989349365,420.7904931977391,-6.0,0.0,-2,0.0,0.0,154.15,674.57,0,6.6,4.09,0.0
258464,-2,264,4,35.29418214475646,136.25441639956935,1838,1.4404942989349365,420.7904931977391,-6.0,0.0,-2,0.0,0.0,154.15,674.57,0,6.6,4.09,0.0
258816,0,258,3,35.29418214475646,136.25441639956935,1838,1.4404942989349365,420.7904931977391,-6.0,0.0,-2,0.0,0.0,154.15,674.57,0,6.6,4.09,0.0
259105,1,255,4,35.29418473542687,136.25441204849537,1839,1.8687056303024292,420.7904931977391,-6.0,0.0,-2,0.0,0.0,154.65,674.57,0,6.6,4.09,0.0
259398,0,256,4,35.29418473542687,136.25441204849537,1839,1.8687056303024292,420.7904931977391,-6.0,0.0,-2,0.0,0.0,154.65,674.57,0,6.6,4.09,0.0
259688,0,257,3,35.29418473542687,136.25441204849537,1839,1.8687056303024292,420.7904931977391,-6.0,0.0,-2,0.0,0.0,154.65,674.57,0,6.6,4.09,0.0
259981,1,249,5,35.29418473542687,136.25441204849537,1839,1.8687056303024292,420.7904931977391,-6.0,0.0,-2,0.0,0.0,154.65,674.57,0,6.6,4.09,0.0
260271,1,251,5,35.29418732464834,136.25440852348189,1840,2.279719591140747,425.38456029444933,-6.0,0.0,-2,0.0,0.0,154.65,674.57,0,6.6,4.1,0.0
260622,0,255,5,35.29418732464834,136.25440852348189,1840,2.279719591140747,425.38456029444933,-6.0,0.0,-2,0.0,0.0,154.65,674.57,0,6.6,4.1,0.0
260912,1,252,4,35.29418732464834,136.25440852348189,1840,2.279719591140747,425.38456029444933,-6.0,0.0,-2,0.48,0.0,154.65,674.57,0,6.6,4.1,0.0
261205,1,256,4,35.29418999681993,136.25440448483866,1841,2.7313497066497803,425.38456029444933,-6.0,0.0,-2,0.48,0.0,154.65,674.57,0,6.6,4.09,0.0
261495,0,254,4,35.29418999681993,136.25440448483866,1841,2.7313497066497803,425.38456029444933,-6.0,0.0,-2,0.48,0.0,154.65,674.57,0,6.6,4.09,0.0
261788,0,253,3,35.29418999681993,136.25440448483866,1841,2.7313497066497803,425.38456029444933,-6.0,0.0,-2,0.48,0.0,154.65,674.57,0,6.6,4.09,0.0
262078,1,253,4,35.294191190131585,136.25440306759032,1842,2.9142115116119385,425.38456029444933,-6.0,0.0,-2,1.72,0.0,154.65,674.57,0,6.6,4.09,0.0
262371,0,254,4,35.294191190131585,136.25440306759032,1842,2.9142115116119385,425.38456029444933,-6.0,0.0,-2,1.72,0.0,155.15,674.57,0,6.6,4.08,0.0
262719,0,256,4,35.294191190131585,136.25440306759032,1842,2.9142115116119385,425.38456029444933,-6.0,0.0,-2,1.72,0.0,155.15,674.57,0,6.6,4.08,0.0
263012,0,254,4,35.294191190131585,136.25440306759032,1842,2.9142115116119385,425.38456029444933,-6.0,0.0,-2,0.0,0.0,155.15,674.57,0,6.6,4.08,0.0
263302,2,252,4,35.294191534317214,136.25440186378148,1843,3.010441780090332,425.38456029444933,-6.0,0.0,-2,0.0,0.0,155.15,674.57,0,6.6,4.09,0.0
263595,0,255,4,35.294191534317214,136.25440186378148,1843,3.010441780090332,425.38456029444933,-6.0,0.0,-2,0.0,0.0,155.15,674.57,0,6.6,4.09,0.0
263885,0,255,4,35.294191534317214,136.25440186378148,1843,3.010441780090332,425.38456029444933,-6.0,0.0,-2,0.0,0.0,155.15,674.57,0,6.6,4.09,0.0
264178,0,257,4,35.29418948863756,136.25440436666784,1844,2.692145347595215,425.38456029444933,-6.0,0.0,-2,0.0,0.0,154.65,674.57,0,6.6,4.08,0.0
264468,0,254,4,35.29418948863756,136.25440436666784,1844,2.692145347595215,425.38456029444933,-6.0,0.0,-2,0.0,0.0,154.65,674.57,0,6.6,4.08,0.0
264819,0,254,4,35.29418948863756,136.25440436666784,1844,2.692145347595215,425.38456029444933,-6.0,0.0,-2,0.0,0.0,154.65,674.57,0,6.6,4.08,0.0
265109,0,254,4,35.29418865481082,136.25440610451506,1845,2.524690628051758,425.38456029444933,-6.0,0.0,-2,0.0,0.0,154.15,674.57,0,6.6,4.09,0.0
265402,0,259,4,35.29418865481082,136.25440610451506,1845,2.524690628051758,425.38456029444933,-6.0,0.0,-2,0.0,0.0,154.15,674.57,0,6.6,4.09,0.0
265692,0,252,4,35.29418865481082,136.25440610451506,1845,2.524690628051758,425.38456029444933,-6.0,0.0,-2,0.0,0.0,154.15,674.57,0,6.6,4.09,0.0
265985,0,257,3,35.29418865481082,136.25440610451506,1845,2.524690628051758,425.38456029444933,-6.0,0.0,-2,0.0,0.0,154.15,674.57,0,6.6,4.09,0.0
266275,0,256,4,35.29418866781192,136.25440600957577,1846,2.5308263301849365,425.38456029444933,-6.0,0.0,-2,0.0,0.0,154.15,674.57,0,6.6,4.1,0.0
266568,1,250,5,35.29418866781192,136.25440600957577,1846,2.5308263301849365,425.38456029444933,-6.0,0.0,-2,0.0,0.0,154.15,674.57,0,6.6,4.1,0.0
266858,0,253,4,35.29418866781192,136.25440600957577,1846,2.5308263301849365,425.38456029444933,-6.0,0.0,-2,0.0,0.0,154.15,674.57,0,6.6,4.1,0.0
267209,0,255,4,35.29418782481244,136.25440751531727,1847,2.3762898445129395,425.38456029444933,-6.0,0.0,-2,0.0,0.0,154.15,674.57,0,-0.0,4.1,0.0
267503,0,254,4,35.29418782481244,136.25440751531727,1847,2.3762898445129395,425.38456029444933,-6.0,0.0,-2,0.0,0.0,154.15,674.57,0,-0.0,4.1,0.0
267792,0,255,4,35.29418782481244,136.25440751531727,1847,2.3762898445129395,425.38456029444933,-6.0,0.0,-2,0.0,0.0,154.15,674.57,0,-0.0,4.1,0.0
268086,1,253,4,35.29418659670468,136.25440942291632,1848,2.167785406112671,425.38456029444933,-6.0,0.0,-2,0.0,0.0,154.15,674.57,0,-0.0,4.1,0.0
268375,0,255,3,35.29418659670468,136.25440942291632,1848,2.167785406112671,425.38456029444933,-6.0,0.0,-2,0.0,0.0,154.15,674.57,0,-0.0,4.1,0.0
268726,0,253,4,35.29418659670468,136.25440942291632,1848,2.167785406112671,425.38456029444933,-6.0,0.0,-2,0.0,0.0,154.15,674.57,0,6.6,4.1,0.0
269016,0,257,3,35.29418659670468,136.25440942291632,1848,2.167785406112671,425.38456029444933,-6.0,0.0,-2,0.0,0.0,154.15,674.57,0,6.6,4.1,0.0
269309,-2,267,2,35.29418524566511,136.25441026038246,1849,2.0003163814544678,425.38456029444933,-6.0,0.0,-2,0.0,0.0,156.15,674.57,0,6.6,4.09,0.0
269599,0,253,4,35.29418524566511,136.25441026038246,1849,2.0003163814544678,425.38456029444933,-6.0,0.0,-2,0.0,0.0,156.15,674.57,0,6.6,4.09,0.0
269893,0,256,4,35.29418524566511,136.25441026038246,1849,2.0003163814544678,425.38456029444933,-6.0,0.0,-2,0.0,0.0,156.15,674.57,0,6.6,4.09,0.0
270182,1,251,5,35.29418313802709,136.254411760523,1850,1.729771375656128,425.9345111325383,-6.0,0.0,-2,0.0,0.0,154.65,674.57,0,6.6,4.09,0.0
270475,1,253,4,35.29418313802709,136.254411760523,1850,1.729771375656128,425.9345111325383,-6.0,0.0,-2,0.0,0.0,154.65,674.57,0,6.6,4.09,0.0
270823,1,251,4,35.29418313802709,136.254411760523,1850,1.729771375656128,425.9345111325383,-6.0,0.0,-2,0.0,0.0,154.65,674.57,0,6.6,4.09,0.0
271116,0,257,4,35.294180868370965,136.2544136530316,1851,1.4249236583709717,425.9345111325383,-6.0,0.0,-2,0.0,0.0,154.65,674.57,0,0.0,4.09,0.0
271406,0,257,3,35.294180868370965,136.2544136530316,1851,1.4249236583709717,425.9345111325383,-6.0,0.0,-2,0.0,0.0,154.65,674.57,0,0.0,4.09,0.0
271699,0,254,5,35.294180868370965,136.2544136530316,1851,1.4249236583709717,425.9345111325383,-6.0,0.0,-2,0.0,0.0,154.65,674.57,0,6.6,4.09,0.0
271989,0,256,4,35.294180868370965,136.2544136530316,1851,1.4249236583709717,425.9345111325383,-6.0,0.0,-2,0.48,0.0,154.65,674.57,0,6.6,4.09,0.0
272282,0,254,4,35.294179885217375,136.25441432673128,1852,1.2999836206436157,425.9345111325383,-6.0,0.0,-2,0.48,0.0,154.65,674.57,0,6.6,4.09,0.0
272572,2,249,4,35.294179885217375,136.25441432673128,1852,1.2999836206436157,425.9345111325383,-6.0,0.0,-2,0.48,0.0,154.65,674.57,0,6.6,4.09,0.0
272923,0,253,4,35.294179885217375,136.25441432673128,1852,1.2999836206436157,425.9345111325383,-6.0,0.0,-2,0.0,0.0,154.65,674.57,0,6.6,4.09,0.0
273213,0,257,3,35.29417914711028,136.2544145089309,1853,1.222367286682129,425.9345111325383,-6.0,0.0,-2,0.0,0.0,155.15,674.57,0,6.6,4.09,0.0
273506,2,250,4,35.29417914711028,136.2544145089309,1853,1.222367286682129,425.9345111325383,-6.0,0.0,-2,0.0,0.0,155.15,674.57,0,6.6,4.09,0.0
273796,1,251,4,35.29417914711028,136.2544145089309,1853,1.222367286682129,425.9345111325383,-6.0,0.0,-2,0.0,0.0,155.15,674.57,0,6.6,4.09,0.0
274147,1,258,4,35.29417887353463,136.25441435216123,1854,1.2054603099822998,425.9345111325383,-6.0,0.0,-2,0.0,10.47,155.15,674.57,0,0.0,4.09,0.0
274379,0,254,3,35.29417887353463,136.25441435216123,1854,1.2054603099822998,425.9345111325383,-6.0,0.0,-2,0.0,10.47,155.15,674.57,0,0.0,4.09,0.0
274730,0,257,3,35.29417887353463,136.25441435216123,1854,1.2054603099822998,425.9345111325383,-6.0,0.0,-2,0.0,2.22,155.15,674.57,0,6.6,4.09,0.0
275020,-2,262,3,35.29417887353463,136.25441435216123,1854,1.2054603099822998,425.9345111325383,-6.0,0.0,-2,0.5,2.22,155.15,674.57,0,6.6,4.09,0.0
275313,-1,259,3,35.29417931450865,136.2544130009545,1855,1.318318486213684,425.9345111325383,-6.0,0.0,-2,0.5,2.22,156.15,674.57,0,6.6,4.09,0.0
275603,0,253,5,35.29417931450865,136.2544130009545,1855,1.318318486213684,425.9345111325383,-6.0,0.0,-2,0.5,0.55,156.15,674.57,0,6.6,4.09,0.0
275896,2,248,5,35.29417931450865,136.2544130009545,1855,1.318318486213684,425.9345111325383,-6.0,0.0,-2,0.5,0.55,156.15,674.57,0,6.6,4.09,0.0
276186,0,256,4,35.29417920848055,136.25441321666838,1856,1.2969393730163574,425.9345111325383,-6.0,0.0,-2,0.5,0.55,154.65,674.57,0,6.6,4.09,0.0
276537,1,251,5,35.29417920848055,136.25441321666838,1856,1.2969393730163574,425.9345111325383,-6.0,0.0,-2,0.5,0.55,154.65,674.57,0,6.6,4.09,0.0
276831,1,253,3,35.29417920848055,136.25441321666838,1856,1.2969393730163574,425.9345111325383,-6.0,0.0,-2,0.5,3.32,154.65,674.57,0,6.6,4.09,0.0
277120,0,254,3,35.29418043290731,136.25441257608892,1857,1.4403384923934937,425.9345111325383,-6.0,0.0,-2,0.59,3.32,155.15,674.57,0,6.6,4.09,0.0
277414,1,252,4,35.29418043290731,136.25441257608892,1857,1.4403384923934937,425.9345111325383,-6.0,0.0,-2,0.59,3.32,155.15,674.57,0,6.6,4.09,0.0
277703,0,257,3,35.29418043290731,136.25441257608892,1857,1.4403384923934937,425.9345111325383,-6.0,0.0,-2,0.59,3.32,155.15,674.57,0,6.6,4.09,0.0
277997,2,248,5,35.29418043290731,136.25441257608892,1857,1.4403384923934937,425.9345111325383,-6.0,0.0,-2,0.59,3.32,155.15,674.57,0,6.6,4.09,0.0
278286,5,245,5,35.29418083262879,136.2544127765191,1858,1.4657018184661865,425.9345111325383,-6.0,0.0,-2,0.59,0.0,155.15,674.57,0,-2330676.75,4.09,0.0
278637,1,251,5,35.29418083262879,136.2544127765191,1858,1.4657018184661865,425.9345111325383,-6.0,0.0,-2,0.59,0.55,155.15,674.57,0,6.6,4.09,0.0
278927,0,254,4,35.29418083262879,136.2544127765191,1858,1.4657018184661865,425.9345111325383,-6.0,0.0,-2,0.59,0.55,155.15,674.57,0,6.6,4.09,0.0
279220,-1,259,4,35.294180073658346,136.25441418163072,1859,1.3247077465057373,425.9345111325383,-6.0,0.0,-2,0.75,0.55,155.15,674.57,0,6.6,4.09,0.0
279510,0,257,4,35.294180073658346,136.25441418163072,1859,1.3247077465057373,425.9345111325383,-6.0,0.0,-2,0.75,0.55,155.15,674.57,0,6.6,4.09,0.0
279803,0,257,3,35.294180073658346,136.25441418163072,1859,1.3247077465057373,425.9345111325383,-6.0,0.0,-2,0.75,0.0,155.15,674.57,0,6.6,4.09,0.0
280093,0,258,4,35.29418094744965,136.25441317025818,1860,1.456108570098877,426.20930064469576,-6.0,0.0,-2,0.95,0.0,155.15,674.57,0,6.6,4.09,0.0
280444,-1,259,3,35.29418094744965,136.25441317025818,1860,1.456108570098877,426.20930064469576,-6.0,0.0,-2,0.95,0.0,155.15,674.57,0,6.6,4.09,0.0
280734,1,252,4,35.29418094744965,136.25441317025818,1860,1.456108570098877,426.20930064469576,-6.0,0.0,-2,0.95,0.0,155.15,674.57,0,6.6,4.09,0.0
281027,1,252,3,35.29418094744965,136.25441317025818,1860,1.456108570098877,426.20930064469576,-6.0,0.0,-2,0.73,0.0,155.15,674.57,0,6.6,4.09,0.0
281317,1,251,5,35.294181830630606,136.254412221443,1861,1.5855456590652466,426.20930064469576,-6.0,0.0,-2,0.73,0.0,156.15,674.57,0,6.6,4.09,0.0
281610,2,251,4,35.294181830630606,136.254412221443,1861,1.5855456590652466,426.20930064469576,-6.0,0.0,-2,0.73,0.0,156.15,674.57,0,6.6,4.09,0.0
281900,0,256,4,35.294181830630606,136.254412221443,1861,1.5855456590652466,426.20930064469576,-6.0,0.0,-2,0.73,0.0,156.15,674.57,0,6.6,4.09,0.0
282251,1,253,3,35.2941831366858,136.25441276824202,1862,1.6820616722106934,426.20930064469576,-6.0,0.0,-2,0.52,0.0,155.15,674.57,0,6.6,4.09,0.0
282541,0,261,1,35.2941831366858,136.25441276824202,1862,1.6820616722106934,426.20930064469576,-6.0,0.0,-2,0.52,0.0,155.15,674.57,0,6.6,4.09,0.0
282834,0,256,2,35.2941831366858,136.25441276824202,1862,1.6820616722106934,426.20930064469576,-6.0,0.0,-2,0.52,0.0,155.15,674.57,0,6.6,4.09,0.0
283124,1,252,4,35.2941841878305,136.25441419309328,1863,1.7268480062484741,426.20930064469576,-6.0,0.0,-2,0.52,0.0,156.15,674.57,0,6.6,4.09,0.0
283417,3,244,7,35.2941841878305,136.25441419309328,1863,1.7268480062484741,426.20930064469576,-6.0,0.0,-2,0.52,0.0,156.15,674.57,0,6.6,4.09,0.0
283765,0,251,5,35.2941841878305,136.25441419309328,1863,1.7268480062484741,426.20930064469576,-6.0,0.0,-2,0.52,0.0,156.15,674.57,0,6.6,4.09,0.0
284000,1,255,2,35.2941841878305,136.25441419309328,1863,1.7268480062484741,426.20930064469576,-6.0,0.0,-2,0.48,0.0,156.15,674.57,0,6.6,4.09,0.0
284348,0,254,4,35.29418673940363,136.25441288978132,1864,2.033658981323242,426.20930064469576,-6.0,0.0,-2,0.48,0.0,155.65,674.57,0,6.6,4.09,0.0
284641,0,256,3,35.29418673940363,136.25441288978132,1864,2.033658981323242,426.20930064469576,-6.0,0.0,-2,0.48,0.0,155.65,674.57,0,6.6,4.09,0.0
284931,2,249,4,35.29418673940363,136.25441288978132,1864,2.033658981323242,426.20930064469576,-6.0,0.0,-2,0.48,0.0,155.65,674.57,0,6.6,4.09,0.0
285224,1,250,5,35.29418873191969,136.25441084361643,1865,2.3127553462982178,426.20930064469576,-6.0,0.0,-2,0.48,0.0,155.65,674.57,0,0.0,4.09,0.0
285514,-1,259,4,35.29418873191969,136.25441084361643,1865,2.3127553462982178,426.20930064469576,-6.0,0.0,-2,0.48,0.0,155.65,674.57,0,0.0,4.09,0.0
285865,-1,260,2,35.29418873191969,136.25441084361643,1865,2.3127553462982178,426.20930064469576,-6.0,0.0,-2,0.48,0.0,155.65,674.57,0,6.6,4.09,0.0
286159,0,255,4,35.29419171287615,136.25440856416293,1866,2.7012338638305664,426.20930064469576,-6.0,0.0,-2,0.85,0.0,155.65,674.57,0,6.6,4.09,0.0
286448,2,250,4,35.29419171287615,136.25440856416293,1866,2.7012338638305664,426.20930064469576,-6.0,0.0,-2,0.85,0.0,155.65,674.57,0,6.6,4.09,0.0
286742,1,253,3,35.29419171287615,136.25440856416293,1866,2.7012338638305664,426.20930064469576,-6.0,0.0,-2,0.85,0.0,155.65,674.57,0,6.6,4.09,0.0
287031,0,257,2,35.29419171287615,136.25440856416293,1866,2.7012338638305664,426.20930064469576,-6.0,0.0,-2,0.48,0.0,155.65,674.57,0,6.6,4.09,0.0
287325,-1,259,2,35.294196085434365,136.25440476940068,1867,3.2912142276763916,426.20930064469576,-6.0,0.0,-2,0.48,0.0,155.65,674.57,0,6.6,4.09,0.0
287614,0,254,3,35.294196085434365,136.25440476940068,1867,3.2912142276763916,426.20930064469576,-6.0,0.0,-2,0.48,0.0,155.65,674.57,0,6.6,4.09,0.0
287965,0,259,3,35.294196085434365,136.25440476940068,1867,3.2912142276763916,426.20930064469576,-6.0,0.0,-2,0.48,0.0,155.65,674.57,0,6.6,4.09,0.0
288255,0,256,3,35.294197842954674,136.2544031045766,1868,3.5350184440612793,426.20930064469576,-6.0,0.0,-2,0.0,0.0,155.65,674.57,0,-2340044.75,4.09,0.0
288548,0,256,3,35.294197842954674,136.2544031045766,1868,3.5350184440612793,426.20930064469576,-6.0,0.0,-2,0.0,0.0,155.65,674.57,0,-2340044.75,4.09,0.0
288838,1,255,1,35.294197842954674,136.2544031045766,1868,3.5350184440612793,426.20930064469576,-6.0,0.0,-2,0.0,0.0,155.65,674.57,0,6.6,4.09,0.0
289131,0,257,3,35.29419983406937,136.25440050470795,1869,3.8443169593811035,426.20930064469576,-6.0,0.0,-2,0.0,0.0,155.15,674.57,0,6.6,4.1,0.0
289421,0,253,3,35.29419983406937,136.25440050470795,1869,3.8443169593811035,426.20930064469576,-6.0,0.0,-2,0.0,0.0,155.15,674.57,0,6.6,4.1,0.0
289772,2,251,4,35.29419983406937,136.25440050470795,1869,3.8443169593811035,426.20930064469576,-6.0,0.0,-2,0.0,0.0,155.15,674.57,0,6.6,4.1,0.0
290062,1,253,2,35.29419983406937,136.25440050470795,1869,3.8443169593811035,426.20930064469576,-6.0,0.0,-2,0.0,0.0,155.15,674.57,0,6.6,4.1,0.0
290355,1,252,3,35.294199804242076,136.25440079688835,1870,3.828009605407715,428.58491338044405,-6.0,0.0,-2,0.0,0.0,155.15,674.57,0,6.6,4.09,0.0
290645,0,256,0,35.294199804242076,136.25440079688835,1870,3.828009605407715,428.58491338044405,-6.0,0.0,-2,0.0,0.0,155.15,674.57,0,6.6,4.09,0.0
290938,1,256,2,35.294199804242076,136.25440079688835,1870,3.828009605407715,428.58491338044405,-6.0,0.0,-2,0.0,0.0,155.15,674.57,0,6.6,4.09,0.0
291286,0,260,1,35.29420159251913,136.2544000074628,1871,4.0357465744018555,428.58491338044405,-6.0,0.0,-2,0.0,0.0,155.65,674.57,0,6.6,4.09,0.0
291579,0,259,1,35.29420159251913,136.2544000074628,1871,4.0357465744018555,428.58491338044405,-6.0,0.0,-2,0.0,0.0,155.65,674.57,0,6.6,4.09,0.0
291869,0,259,1,35.29420159251913,136.2544000074628,1871,4.0357465744018555,428.58491338044405,-6.0,0.0,-2,0.0,0.0,155.65,674.57,0,6.6,4.09,0.0
292162,0,255,2,35.29420312027476,136.25439950678478,1872,4.205765724182129,428.58491338044405,-6.0,0.0,-2,0.0,0.0,155.65,674.57,0,6.6,4.09,0.0
292452,2,250,3,35.29420312027476,136.25439950678478,1872,4.205765724182129,428.58491338044405,-6.0,0.0,-2,0.0,0.0,155.65,674.57,0,6.6,4.09,0.0
292745,0,260,1,35.29420312027476,136.25439950678478,1872,4.205765724182129,428.58491338044405,-6.0,0.0,-2,0.0,0.0,155.65,674.57,0,6.6,4.09,0.0
293035,0,256,2,35.29420312027476,136.25439950678478,1872,4.205765724182129,428.58491338044405,-6.0,0.0,-2,0.0,0.0,155.65,674.57,0,6.6,4.09,0.0
293328,1,254,3,35.29420312517074,136.25440148981122,1873,4.121516704559326,428.58491338044405,-6.0,0.0,-2,0.0,0.0,157.15,674.57,0,6.6,4.09,0.0
293676,0,257,2,35.29420312517074,136.25440148981122,1873,4.121516704559326,428.58491338044405,-6.0,0.0,-2,0.0,0.55,157.15,674.57,0,6.6,4.09,0.0
293969,1,259,1,35.29420312517074,136.25440148981122,1873,4.121516704559326,428.58491338044405,-6.0,0.0,-2,0.0,0.55,157.15,674.57,0,6.6,4.09,0.0
294259,0,256,2,35.29420333397611,136.2544030603344,1874,4.079839706420898,428.58491338044405,-6.0,0.0,-2,0.0,0.55,155.15,674.57,0,6.6,4.09,0.0
294552,1,255,2,35.29420333397611,136.2544030603344,1874,4.079839706420898,428.58491338044405,-6.0,0.0,-2,0.0,0.55,155.15,674.57,0,6.6,4.09,0.0
294842,1,252,3,35.29420333397611,136.2544030603344,1874,4.079839706420898,428.58491338044405,-6.0,0.0,-2,0.0,0.0,155.15,674.57,0,6.6,4.09,0.0
295135,0,257,2,35.29420556909854,136.2544019405877,1875,4.347651481628418,428.58491338044405,-6.0,0.0,-2,0.0,0.0,156.15,674.57,0,6.6,4.09,0.0
295425,1,254,2,35.29420556909854,136.2544019405877,1875,4.347651481628418,428.58491338044405,-6.0,0.0,-2,0.0,0.0,156.15,674.57,0,6.6,4.09,0.0
295718,0,254,3,35.29420556909854,136.2544019405877,1875,4.347651481628418,428.58491338044405,-6.0,0.0,-2,0.0,0.0,156.15,674.57,0,6.6,4.09,0.0
296008,0,258,2,35.29420556909854,136.2544019405877,1875,4.347651481628418,428.58491338044405,-6.0,0.0,-2,0.0,0.0,156.15,674.57,0,6.6,4.09,0.0
296359,0,256,1,35.294204225976834,136.25440470570035,1876,4.1101837158203125,428.58491338044405,-6.0,0.0,-2,0.0,0.55,156.15,674.57,0,0.0,4.09,0.0
296653,0,259,1,35.294204225976834,136.25440470570035,1876,4.1101837158203125,428.58491338044405,-6.0,0.0,-2,0.0,0.0,156.15,674.57,0,6.6,4.09,0.0
296942,0,256,2,35.294204225976834,136.25440470570035,1876,4.1101837158203125,428.58491338044405,-6.0,0.0,-2,0.0,0.0,156.15,674.57,0,6.6,4.09,0.0
297236,0,257,2,35.29420547245334,136.25440504320463,1877,4.226977825164795,428.58491338044405,-6.0,0.0,-2,0.0,0.0,155.65,674.57,0,6.6,4.09,0.0
297583,0,255,2,35.29420547245334,136.25440504320463,1877,4.226977825164795,428.58491338044405,-6.0,0.0,-2,0.0,0.0,155.65,674.57,0,6.6,4.09,0.0
297876,0,256,2,35.29420547245334,136.25440504320463,1877,4.226977825164795,428.58491338044405,-6.0,0.0,-2,0.0,7.24,155.65,674.57,0,6.6,4.09,0.0
298166,0,255,2,35.294205394146424,136.25440797101456,1878,4.1289753913879395,428.58491338044405,-6.0,0.0,-2,0.0,7.24,155.65,674.57,0,6.6,4.09,0.0
298459,1,253,3,35.294205394146424,136.25440797101456,1878,4.1289753913879395,428.58491338044405,-6.0,0.0,-2,0.0,7.24,155.65,674.57,0,6.6,4.09,0.0
298749,1,258,2,35.294205394146424,136.25440797101456,1878,4.1289753913879395,428.58491338044405,-6.0,0.0,-2,0.0,0.0,155.65,674.57,0,6.6,4.09,0.0
299042,1,254,3,35.294205394146424,136.25440797101456,1878,4.1289753913879395,428.58491338044405,-6.0,0.0,-2,0.0,0.0,155.65,674.57,0,6.6,4.09,0.0
299332,0,259,1,35.294205827488284,136.2544093212392,1879,4.138836860656738,428.58491338044405,-6.0,0.0,-2,0.0,0.0,156.65,674.57,0,6.6,4.09,0.0
299683,0,255,3,35.294205827488284,136.2544093212392,1879,4.138836860656738,428.58491338044405,-6.0,0.0,-2,0.0,0.0,156.65,674.57,0,6.6,4.09,0.0
299973,0,258,1,35.294205827488284,136.2544093212392,1879,4.138836860656738,428.58491338044405,-6.0,0.0,-2,0.0,0.0,156.65,674.57,0,6.6,4.09,0.0
300271,0,258,2,35.29420457749774,136.25441284711735,1880,3.9255354404449463,429.8022320345044,-6.0,0.0,-2,0.0,0.0,155.15,674.57,0,6.6,4.1,0.0
300561,0,254,3,35.29420457749774,136.25441284711735,1880,3.9255354404449463,429.8022320345044,-6.0,0.0,-2,0.0,0.0,155.15,674.57,0,6.6,4.1,0.0
300854,1,255,2,35.29420457749774,136.25441284711735,1880,3.9255354404449463,429.8022320345044,-6.0,0.0,-2,0.0,0.28,155.15,674.57,0,6.6,4.1,0.0
301144,1,253,3,35.29420157178202,136.25441753744263,1881,3.526203155517578,429.8022320345044,-6.0,0.0,-2,0.0,0.28,156.15,674.57,0,6.6,4.08,0.0
301437,1,256,2,35.29420157178202,136.25441753744263,1881,3.526203155517578,429.8022320345044,-6.0,0.0,-2,0.0,0.28,156.15,674.57,0,6.6,4.08,0.0
301727,0,260,1,35.29420157178202,136.25441753744263,1881,3.526203155517578,429.8022320345044,-6.0,0.0,-2,0.0,0.0,156.15,674.57,0,6.6,4.08,0.0
302078,0,256,3,35.29420065109902,136.2544199511879,1882,3.4057185649871826,429.8022320345044,-6.0,0.0,-2,0.0,0.0,156.15,674.57,0,6.6,4.08,0.0
302368,0,255,2,35.29420065109902,136.2544199511879,1882,3.4057185649871826,429.8022320345044,-6.0,0.0,-2,0.0,0.0,155.15,674.57,0,6.6,4.09,0.0
302661,1,254,3,35.29420065109902,136.2544199511879,1882,3.4057185649871826,429.8022320345044,-6.0,0.0,-2,0.0,0.55,155.15,674.57,0,6.6,4.09,0.0
302951,0,255,3,35.29420065109902,136.2544199511879,1882,3.4057185649871826,429.8022320345044,-6.0,0.0,-2,0.0,0.55,155.15,674.57,0,6.6,4.09,0.0
303244,0,255,3,35.29420132260752,136.25442039735944,1883,3.47817325592041,429.8022320345044,-6.0,0.0,-2,0.0,0.55,155.65,674.57,0,6.6,4.09,0.0
303534,0,257,3,35.29420132260752,136.25442039735944,1883,3.47817325592041,429.8022320345044,-6.0,0.0,-2,0.0,0.55,155.65,674.57,0,6.6,4.09,0.0
303827,0,255,3,35.29420132260752,136.25442039735944,1883,3.47817325592041,429.8022320345044,-6.0,0.0,-2,0.0,0.55,155.65,674.57,0,6.6,4.09,0.0
304179,0,256,3,35.294200898806935,136.25442153701843,1884,3.428356885910034,429.8022320345044,-6.0,0.0,-2,0.0,3.32,155.65,674.57,0,0.0,4.09,0.0
304410,0,254,3,35.294200898806935,136.25442153701843,1884,3.428356885910034,429.8022320345044,-6.0,0.0,-2,0.0,3.32,155.65,674.57,0,0.0,4.09,0.0
304762,0,255,3,35.294200898806935,136.25442153701843,1884,3.428356885910034,429.8022320345044,-6.0,0.0,-2,0.0,3.32,155.65,674.57,0,0.0,4.09,0.0
305051,0,257,3,35.294200898806935,136.25442153701843,1884,3.428356885910034,429.8022320345044,-6.0,0.0,-2,0.0,0.0,155.65,674.57,0,0.0,4.09,0.0
305345,0,255,3,35.294200273641444,136.25442380389168,1885,3.362744092941284,429.8022320345044,-6.0,0.0,-2,0.0,0.0,155.65,674.57,0,0.0,4.09,0.0
305634,0,257,3,35.294200273641444,136.25442380389168,1885,3.362744092941284,429.8022320345044,-6.0,0.0,-2,0.0,0.0,155.65,674.57,0,0.0,4.09,0.0
305985,0,253,3,35.294200273641444,136.25442380389168,1885,3.362744092941284,429.8022320345044,-6.0,0.0,-2,0.0,0.0,155.65,674.57,0,0.0,4.09,0.0
306275,-1,264,2,35.29420016305057,136.25442506342253,1886,3.3580501079559326,429.8022320345044,-6.0,0.0,-2,0.0,0.0,154.65,674.57,0,0.0,4.09,0.0
306568,0,258,3,35.29420016305057,136.25442506342253,1886,3.3580501079559326,429.8022320345044,-6.0,0.0,-2,0.0,0.0,154.65,674.57,0,0.0,4.09,0.0
306858,1,254,2,35.29420016305057,136.25442506342253,1886,3.3580501079559326,429.8022320345044,-6.0,0.0,-2,0.0,0.0,154.65,674.57,0,6.6,4.09,0.0
307152,0,258,3,35.29419869528472,136.25442827334285,1887,3.234360694885254,429.8022320345044,-6.0,0.0,-2,0.0,0.0,155.15,674.57,0,6.6,4.09,0.0
307446,0,255,3,35.29419869528472,136.25442827334285,1887,3.234360694885254,429.8022320345044,-6.0,0.0,-2,0.0,0.0,155.15,674.57,0,6.6,4.09,0.0
307739,0,255,2,35.29419869528472,136.25442827334285,1887,3.234360694885254,429.8022320345044,-6.0,0.0,-2,0.0,0.0,155.15,674.57,0,6.6,4.09,0.0
308087,0,257,3,35.29419869528472,136.25442827334285,1887,3.234360694885254,429.8022320345044,-6.0,0.0,-2,0.0,0.0,155.15,674.57,0,6.6,4.09,0.0
308380,1,255,4,35.29419827933354,136.25442889256317,1888,3.19950532913208,429.8022320345044,-6.0,0.0,-2,0.0,0.0,154.65,674.57,0,6.6,4.09,0.0
308670,0,257,3,35.29419827933354,136.25442889256317,1888,3.19950532913208,429.8022320345044,-6.0,0.0,-2,0.0,0.0,154.65,674.57,0,6.6,4.09,0.0
308963,0,257,3,35.29419827933354,136.25442889256317,1888,3.19950532913208,429.8022320345044,-6.0,0.0,-2,0.0,0.0,154.65,674.57,0,6.6,4.09,0.0
309253,1,254,6,35.29419991532796,136.2544251515473,1889,3.3313419818878174,429.8022320345044,-6.0,0.0,-2,0.0,0.0,155.15,674.57,0,6.6,4.09,0.0
309546,0,255,4,35.29419991532796,136.2544251515473,1889,3.3313419818878174,429.8022320345044,-6.0,0.0,-2,0.0,0.0,155.15,674.57,0,6.6,4.09,0.0
309894,0,256,3,35.29419991532796,136.2544251515473,1889,3.3313419818878174,429.8022320345044,-6.0,0.0,-2,0.0,0.0,155.15,674.57,0,6.6,4.09,0.0
310187,0,255,4,35.294199444895625,136.254423932315,1890,3.271517515182495,430.9602289274335,-6.0,0.0,-2,0.0,0.0,155.15,674.57,0,6.6,4.09,0.0
310477,1,254,3,35.294199444895625,136.254423932315,1890,3.271517515182495,430.9602289274335,-6.0,0.0,-2,0.0,0.0,155.15,674.57,0,6.6,4.09,0.0
310770,1,254,3,35.294199444895625,136.254423932315,1890,3.271517515182495,430.9602289274335,-6.0,0.0,-2,0.0,0.0,155.15,674.57,0,6.6,4.09,0.0
311060,0,256,4,35.29419898481125,136.25442190213536,1891,3.2157604694366455,430.9602289274335,-6.0,0.0,-2,0.0,0.0,155.15,674.57,0,6.6,4.09,0.0
311353,1,255,3,35.29419898481125,136.25442190213536,1891,3.2157604694366455,430.9602289274335,-6.0,0.0,-2,0.0,0.0,155.65,674.57,0,6.6,4.09,0.0
311643,0,255,3,35.29419898481125,136.25442190213536,1891,3.2157604694366455,430.9602289274335,-6.0,0.0,-2,0.0,0.0,155.65,674.57,0,6.6,4.09,0.0
311994,1,253,5,35.29419898481125,136.25442190213536,1891,3.2157604694366455,430.9602289274335,-6.0,0.0,-2,0.0,0.0,155.65,674.57,0,6.6,4.09,0.0
312288,1,254,5,35.294197016219904,136.2544233833564,1892,2.999980926513672,430.9602289274335,-6.0,0.0,-2,0.0,0.0,155.65,674.57,0,0.0,4.09,0.0
312577,2,252,2,35.294197016219904,136.2544233833564,1892,2.999980926513672,430.9602289274335,-6.0,0.0,-2,0.0,0.0,155.65,674.57,0,0.0,4.09,0.0
312871,1,253,3,35.294197016219904,136.2544233833564,1892,2.999980926513672,430.9602289274335,-6.0,0.0,-2,0.0,0.0,155.65,674.57,0,6.6,4.09,0.0
313160,1,256,3,35.29419600239034,136.25442358522182,1893,2.8884618282318115,430.9602289274335,-6.0,0.0,-2,0.0,0.0,154.65,674.57,0,6.6,4.09,0.0
313454,0,255,3,35.29419600239034,136.25442358522182,1893,2.8884618282318115,430.9602289274335,-6.0,0.0,-2,0.0,0.0,154.65,674.57,0,6.6,4.09,0.0
313801,0,254,2,35.29419600239034,136.25442358522182,1893,2.8884618282318115,430.9602289274335,-6.0,0.0,-2,0.0,0.0,154.65,674.57,0,6.6,4.09,0.0
314037,1,255,4,35.29419600239034,136.25442358522182,1893,2.8884618282318115,430.9602289274335,-6.0,0.0,-2,0.0,0.0,154.65,674.57,0,6.6,4.09,0.0
314326,0,259,2,35.29419578791231,136.25442391896274,1894,2.866384506225586,430.9602289274335,-6.0,0.0,-2,0.0,0.0,155.15,674.57,0,6.6,4.09,0.0
314677,1,251,4,35.29419578791231,136.25442391896274,1894,2.866384506225586,430.9602289274335,-6.0,0.0,-2,0.0,0.0,155.15,674.57,0,6.6,4.09,0.0
314967,1,254,3,35.29419578791231,136.25442391896274,1894,2.866384506225586,430.9602289274335,-6.0,0.0,-2,0.0,0.0,155.15,674.57,0,6.6,4.09,0.0
315260,0,255,2,35.294194645794015,136.2544258033272,1895,2.7561497688293457,430.9602289274335,-6.0,0.0,-2,0.0,0.0,155.15,674.57,0,0.0,4.09,0.0
315550,0,258,2,35.294194645794015,136.2544258033272,1895,2.7561497688293457,430.9602289274335,-6.0,0.0,-2,0.0,0.0,155.15,674.57,0,0.0,4.09,0.0
315901,3,249,4,35.294194645794015,136.2544258033272,1895,2.7561497688293457,430.9602289274335,-6.0,0.0,-2,0.0,0.0,155.15,674.57,0,6.6,4.09,0.0
316191,0,257,1,35.29419360525954,136.25442720946086,1896,2.6614317893981934,430.9602289274335,-6.0,0.0,-2,0.0,0.0,155.65,674.57,0,6.6,4.09,0.0
316426,1,251,4,35.29419360525954,136.25442720946086,1896,2.6614317893981934,430.9602289274335,-6.0,0.0,-2,0.0,0.0,155.65,674.57,0,6.6,4.09,0.0
316774,0,258,3,35.29419360525954,136.25442720946086,1896,2.6614317893981934,430.9602289274335,-6.0,0.0,-2,0.0,0.0,155.65,674.57,0,6.6,4.09,0.0
317067,0,256,2,35.29419273498117,136.25442815993028,1897,2.5838379859924316,430.9602289274335,-6.0,0.0,-2,0.0,0.0,155.65,674.57,0,6.6,4.09,0.0
317357,2,249,3,35.29419273498117,136.25442815993028,1897,2.5838379859924316,430.9602289274335,-6.0,0.0,-2,0.0,0.0,155.65,674.57,0,6.6,4.09,0.0
317650,0,261,2,35.29419273498117,136.25442815993028,1897,2.5838379859924316,430.9602289274335,-6.0,0.0,-2,0.0,0.0,155.65,674.57,0,6.6,4.09,0.0
317998,0,254,3,35.29419273498117,136.25442815993028,1897,2.5838379859924316,430.9602289274335,-6.0,0.0,-2,0.0,0.0,155.65,674.57,0,6.6,4.09,0.0
318291,0,261,3,35.29419239853242,136.2544286214903,1898,2.556973695755005,430.9602289274335,-6.0,0.0,-2,0.0,0.0,157.15,674.57,0,6.6,4.09,0.0
318581,0,256,3,35.29419239853242,136.2544286214903,1898,2.556973695755005,430.9602289274335,-6.0,0.0,-2,0.0,0.0,157.15,674.57,0,6.6,4.09,0.0
318874,1,254,5,35.29419239853242,136.2544286214903,1898,2.556973695755005,430.9602289274335,-6.0,0.0,-2,0.0,0.55,157.15,674.57,0,6.6,4.09,0.0
319164,0,254,3,35.294192204370624,136.25442868457142,1899,2.537412405014038,430.9602289274335,-6.0,0.0,-2,0.0,0.55,155.15,674.57,0,6.6,4.09,0.0
319457,0,256,3,35.294192204370624,136.25442868457142,1899,2.537412405014038,430.9602289274335,-6.0,0.0,-2,0.0,0.55,155.15,674.57,0,6.6,4.09,0.0
319747,0,253,4,35.294192204370624,136.25442868457142,1899,2.537412405014038,430.9602289274335,-6.0,0.0,-2,0.0,0.0,155.15,674.57,0,6.6,4.09,0.0
320098,0,253,4,35.29419135006066,136.2544296637761,1900,2.4691500663757324,431.998667486012,-6.0,0.0,-2,0.0,0.0,155.65,674.57,0,6.6,4.09,0.0
320388,0,257,4,35.29419135006066,136.2544296637761,1900,2.4691500663757324,431.998667486012,-6.0,0.0,-2,0.48,0.0,155.65,674.57,0,6.6,4.09,0.0
320681,0,256,3,35.29419135006066,136.2544296637761,1900,2.4691500663757324,431.998667486012,-6.0,0.0,-2,0.48,0.0,155.65,674.57,0,6.6,4.09,0.0
320971,0,261,3,35.29419135006066,136.2544296637761,1900,2.4691500663757324,431.998667486012,-6.0,0.0,-2,0.48,0.0,155.65,674.57,0,6.6,4.09,0.0
321264,1,254,3,35.29419302841641,136.25442538465094,1901,2.573392391204834,431.998667486012,-6.0,0.0,-2,0.48,0.0,155.65,674.57,0,6.6,4.09,0.0
321554,0,256,3,35.29419302841641,136.25442538465094,1901,2.573392391204834,431.998667486012,-6.0,0.0,-2,0.48,0.0,155.65,674.57,0,6.6,4.09,0.0
321847,1,251,4,35.29419302841641,136.25442538465094,1901,2.573392391204834,431.998667486012,-6.0,0.0,-2,0.48,0.0,155.65,674.57,0,6.6,4.09,0.0
322199,0,255,3,35.29419309725087,136.2544247979257,1902,2.5751538276672363,431.998667486012,-6.0,0.0,-2,0.48,0.0,155.15,674.57,0,6.6,4.09,0.0
322488,1,255,3,35.29419309725087,136.2544247979257,1902,2.5751538276672363,431.998667486012,-6.0,0.0,-2,2.73,0.0,155.15,674.57,0,6.6,4.09,0.0
322782,0,257,3,35.29419309725087,136.2544247979257,1902,2.5751538276672363,431.998667486012,-6.0,0.0,-2,2.73,0.0,155.15,674.57,0,6.6,4.09,0.0
323071,0,255,4,35.29419187496056,136.25442546114104,1903,2.4472734928131104,431.998667486012,-6.0,0.0,-2,2.73,0.0,155.15,674.57,0,6.6,4.09,0.0
323365,2,252,4,35.29419187496056,136.25442546114104,1903,2.4472734928131104,431.998667486012,-6.0,0.0,-2,0.0,0.0,155.65,674.57,0,6.6,4.09,0.0
323654,0,257,4,35.29419187496056,136.25442546114104,1903,2.4472734928131104,431.998667486012,-6.0,0.0,-2,0.0,0.0,155.65,674.57,0,6.6,4.09,0.0
324005,0,255,4,35.29419187496056,136.25442546114104,1903,2.4472734928131104,431.998667486012,-6.0,0.0,-2,0.0,0.0,155.65,674.57,0,6.6,4.09,0.0
324295,1,255,4,35.294190526996495,136.2544257403061,1904,2.3026599884033203,431.998667486012,-6.0,0.0,-2,0.0,0.0,155.65,674.57,0,6.6,4.09,0.0
324588,0,255,4,35.294190526996495,136.2544257403061,1904,2.3026599884033203,431.998667486012,-6.0,0.0,-2,0.0,0.0,155.65,674.57,0,6.6,4.09,0.0
324878,0,256,4,35.294190526996495,136.2544257403061,1904,2.3026599884033203,431.998667486012,-6.0,0.0,-2,0.0,1.11,155.65,674.57,0,6.6,4.09,0.0
325171,0,259,4,35.294189247478414,136.25442679106177,1905,2.1794450283050537,431.998667486012,-6.0,0.0,-2,0.0,1.11,155.15,674.57,0,6.6,4.09,0.0
325461,1,252,3,35.294189247478414,136.25442679106177,1905,2.1794450283050537,431.998667486012,-6.0,0.0,-2,0.0,1.11,155.15,674.57,0,6.6,4.09,0.0
325812,0,256,4,35.294189247478414,136.25442679106177,1905,2.1794450283050537,431.998667486012,-6.0,0.0,-2,0.0,1.11,155.15,674.57,0,6.6,4.09,0.0
326102,1,253,4,35.29418944125977,136.25442697636527,1906,2.203914165496826,431.998667486012,-6.0,0.0,-2,0.0,0.0,155.15,674.57,0,0.0,4.09,0.0
326395,2,251,5,35.29418944125977,136.25442697636527,1906,2.203914165496826,431.998667486012,-6.0,0.0,-2,0.48,0.0,155.15,674.57,0,0.0,4.09,0.0
326685,2,249,4,35.29418944125977,136.25442697636527,1906,2.203914165496826,431.998667486012,-6.0,0.0,-2,0.48,0.55,155.15,674.57,0,6.6,4.09,0.0
326978,0,255,3,35.29418944125977,136.25442697636527,1906,2.203914165496826,431.998667486012,-6.0,0.0,-2,0.48,0.55,155.15,674.57,0,6.6,4.09,0.0
327268,0,254,4,35.294187818690936,136.25443001002208,1907,2.106900453567505,431.998667486012,-6.0,0.0,-2,0.48,0.55,155.15,674.57,0,6.6,4.09,0.0
327561,0,255,4,35.294187818690936,136.25443001002208,1907,2.106900453567505,431.998667486012,-6.0,0.0,-2,0.48,0.55,155.15,674.57,0,6.6,4.09,0.0
327909,1,251,4,35.294187818690936,136.25443001002208,1907,2.106900453567505,431.998667486012,-6.0,0.0,-2,0.48,0.0,155.15,674.57,0,6.6,4.09,0.0
328202,0,255,3,35.29418808561787,136.25443057474175,1908,2.1527857780456543,431.998667486012,-6.0,0.0,-2,0.48,0.0,155.15,674.57,0,6.6,4.09,0.0
328492,0,255,3,35.29418808561787,136.25443057474175,1908,2.1527857780456543,431.998667486012,-6.0,0.0,-2,0.48,0.0,155.15,674.57,0,6.6,4.09,0.0
328785,0,256,4,35.29418808561787,136.25443057474175,1908,2.1527857780456543,431.998667486012,-6.0,0.0,-2,0.48,0.55,155.15,674.57,0,6.6,4.09,0.0
329075,0,256,3,35.29419064641298,136.25442752853934,1909,2.345186710357666,431.998667486012,-6.0,0.0,-2,0.48,0.55,155.15,674.57,0,6.6,4.09,0.0
329368,0,258,3,35.29419064641298,136.25442752853934,1909,2.345186710357666,431.998667486012,-6.0,0.0,-2,0.48,0.55,156.15,674.57,0,6.6,4.09,0.0
329716,0,256,4,35.29419064641298,136.25442752853934,1909,2.345186710357666,431.998667486012,-6.0,0.0,-2,0.48,0.0,156.15,674.57,0,6.6,4.09,0.0
330009,0,255,4,35.29419064641298,136.25442752853934,1909,2.345186710357666,431.998667486012,-6.0,0.0,-2,0.48,0.0,156.15,674.57,0,6.6,4.09,0.0
330299,1,253,3,35.294192527329436,136.25442603634195,1910,2.526139259338379,432.35353127866983,-6.0,0.0,-2,0.48,0.0,155.65,674.57,0,6.6,4.09,0.0
330592,1,249,5,35.294192527329436,136.25442603634195,1910,2.526139259338379,432.35353127866983,-6.0,0.0,-2,0.0,0.0,155.65,674.57,0,6.6,4.09,0.0
330882,1,254,2,35.294192527329436,136.25442603634195,1910,2.526139259338379,432.35353127866983,-6.0,0.0,-2,0.0,0.0,155.65,674.57,0,6.6,4.09,0.0
331175,0,257,4,35.294192171880745,136.25442586003047,1911,2.4848122596740723,432.35353127866983,-6.0,0.0,-2,0.0,0.0,154.65,674.57,0,6.6,4.09,0.0
331465,2,253,4,35.294192171880745,136.25442586003047,1911,2.4848122596740723,432.35353127866983,-6.0,0.0,-2,0.0,0.0,154.65,674.57,0,6.6,4.09,0.0
331816,0,254,3,35.294192171880745,136.25442586003047,1911,2.4848122596740723,432.35353127866983,-6.0,0.0,-2,0.0,0.0,154.65,674.57,0,6.6,4.09,0.0
332110,1,254,4,35.29418960276504,136.25442895174143,1912,2.2649075984954834,432.35353127866983,-6.0,0.0,-2,0.0,0.0,155.15,674.57,0,6.6,4.1,0.0
332399,0,255,3,35.29418960276504,136.25442895174143,1912,2.2649075984954834,432.35353127866983,-6.0,0.0,-2,0.0,0.0,155.15,674.57,0,6.6,4.1,0.0
332693,0,255,3,35.29418960276504,136.25442895174143,1912,2.2649075984954834,432.35353127866983,-6.0,0.0,-2,0.0,0.0,155.15,674.57,0,6.6,4.1,0.0
332982,0,258,2,35.29418960276504,136.25442895174143,1912,2.2649075984954834,432.35353127866983,-6.0,0.0,-2,0.0,0.0,155.15,674.57,0,6.6,4.1,0.0
333276,0,256,2,35.2941900155019,136.25442842103442,1913,2.2961628437042236,432.35353127866983,-6.0,0.0,-2,0.0,0.0,155.15,674.57,0,6.6,4.09,0.0
333565,1,255,2,35.2941900155019,136.25442842103442,1913,2.2961628437042236,432.35353127866983,-6.0,0.0,-2,0.0,0.0,155.15,674.57,0,6.6,4.09,0.0
333916,1,254,3,35.2941900155019,136.25442842103442,1913,2.2961628437042236,432.35353127866983,-6.0,0.0,-2,0.0,0.0,155.15,674.57,0,6.6,4.09,0.0
334206,0,256,3,35.29418812117576,136.25443248674398,1914,2.225281238555908,432.35353127866983,-6.0,0.0,-2,0.0,0.0,155.65,674.57,0,6.6,4.08,0.0
334499,0,256,3,35.29418812117576,136.25443248674398,1914,2.225281238555908,432.35353127866983,-6.0,0.0,-2,0.48,0.0,155.65,674.57,0,6.6,4.08,0.0
334789,0,258,3,35.29418812117576,136.25443248674398,1914,2.225281238555908,432.35353127866983,-6.0,0.0,-2,0.48,0.0,155.65,674.57,0,6.6,4.08,0.0
335082,0,254,4,35.29418851936835,136.2544329111403,1915,2.2817976474761963,432.35353127866983,-6.0,0.0,-2,0.48,0.0,155.65,674.57,0,6.6,4.08,0.0
335372,0,256,3,35.29418851936835,136.2544329111403,1915,2.2817976474761963,432.35353127866983,-6.0,0.0,-2,2.39,0.0,156.15,674.57,0,6.6,4.09,0.0
335665,1,251,6,35.29418851936835,136.2544329111403,1915,2.2817976474761963,432.35353127866983,-6.0,0.0,-2,2.39,0.0,156.15,674.57,0,6.6,4.09,0.0
335955,0,257,3,35.29418851936835,136.2544329111403,1915,2.2817976474761963,432.35353127866983,-6.0,0.0,-2,2.39,0.0,156.15,674.57,0,6.6,4.09,0.0
336306,0,256,3,35.29418846426199,136.25443401925853,1916,2.3220136165618896,432.35353127866983,-6.0,0.0,-2,2.39,0.0,156.15,674.57,0,6.6,4.09,0.0
336596,0,257,4,35.29418846426199,136.25443401925853,1916,2.3220136165618896,432.35353127866983,-6.0,0.0,-2,0.0,0.0,156.15,674.57,0,6.6,4.09,0.0
336889,0,256,3,35.29418846426199,136.25443401925853,1916,2.3220136165618896,432.35353127866983,-6.0,0.0,-2,0.0,0.0,156.15,674.57,0,6.6,4.09,0.0
337179,1,260,4,35.29419009985835,136.25443166296503,1917,2.3969643115997314,432.35353127866983,-6.0,0.0,-2,0.0,0.0,155.65,674.57,0,6.6,4.09,0.0
337472,0,260,3,35.29419009985835,136.25443166296503,1917,2.3969643115997314,432.35353127866983,-6.0,0.0,-2,0.0,0.0,155.65,674.57,0,6.6,4.09,0.0
337762,0,258,3,35.29419009985835,136.25443166296503,1917,2.3969643115997314,432.35353127866983,-6.0,0.0,-2,0.0,0.0,155.65,674.57,0,6.6,4.09,0.0
338113,0,259,4,35.29419230547988,136.25442906717083,1918,2.5568315982818604,432.35353127866983,-6.0,0.0,-2,0.0,0.0,155.15,674.57,0,6.6,4.09,0.0
338403,1,251,4,35.29419230547988,136.25442906717083,1918,2.5568315982818604,432.35353127866983,-6.0,0.0,-2,0.0,0.0,155.15,674.57,0,6.6,4.09,0.0
338696,1,251,5,35.29419230547988,136.25442906717083,1918,2.5568315982818604,432.35353127866983,-6.0,0.0,-2,0.0,0.0,155.15,674.57,0,6.6,4.09,0.0
338986,0,258,3,35.29419230547988,136.25442906717083,1918,2.5568315982818604,432.35353127866983,-6.0,0.0,-2,0.0,0.0,155.15,674.57,0,6.6,4.09,0.0
339279,0,264,3,35.29419203665007,136.2544298022244,1919,2.5457983016967773,432.35353127866983,-6.0,0.0,-2,0.0,0.0,156.15,674.57,0,6.6,4.09,0.0
339569,1,255,3,35.29419203665007,136.2544298022244,1919,2.5457983016967773,432.35353127866983,-6.0,0.0,-2,0.0,0.0,156.15,674.57,0,6.6,4.09,0.0
339920,0,258,3,35.29419203665007,136.2544298022244,1919,2.5457983016967773,432.35353127866983,-6.0,0.0,-2,0.0,0.0,156.15,674.57,0,6.6,4.09,0.0
340210,0,255,3,35.294191003702736,136.25443157140143,1920,2.4876015186309814,432.8846215978265,-6.0,0.0,-2,0.0,0.0,155.65,674.57,0,6.6,4.09,0.0
340503,0,255,3,35.294191003702736,136.25443157140143,1920,2.4876015186309814,432.8846215978265,-6.0,0.0,-2,0.0,0.0,155.65,674.57,0,6.6,4.09,0.0
340793,0,260,3,35.294191003702736,136.25443157140143,1920,2.4876015186309814,432.8846215978265,-6.0,0.0,-2,0.0,0.0,155.65,674.57,0,6.6,4.09,0.0
341086,2,253,3,35.29418996673988,136.25443260266584,1921,2.41606068611145,432.8846215978265,-6.0,0.0,-2,0.0,4.98,155.65,674.57,0,0.0,4.09,0.0
341376,1,255,3,35.29418996673988,136.25443260266584,1921,2.41606068611145,432.8846215978265,-6.0,0.0,-2,0.0,4.98,155.65,674.57,0,0.0,4.09,0.0
341669,-1,263,0,35.29418996673988,136.25443260266584,1921,2.41606068611145,432.8846215978265,-6.0,0.0,-2,0.0,0.0,155.65,674.57,0,6.6,4.09,0.0
342021,1,253,5,35.29418996673988,136.25443260266584,1921,2.41606068611145,432.8846215978265,-6.0,0.0,-2,0.0,0.0,155.65,674.57,0,6.6,4.09,0.0
342310,0,257,2,35.294188988651385,136.2544340132526,1922,2.373246908187866,432.8846215978265,-6.0,0.0,-2,0.0,0.0,156.15,674.57,0,6.6,4.09,0.0
342604,0,260,3,35.294188988651385,136.2544340132526,1922,2.373246908187866,432.8846215978265,-6.0,0.0,-2,0.0,0.0,156.15,674.57,0,6.6,4.09,0.0
342893,0,258,2,35.294188988651385,136.2544340132526,1922,2.373246908187866,432.8846215978265,-6.0,0.0,-2,0.0,0.0,156.15,674.57,0,6.6,4.09,0.0
343187,0,258,3,35.29419070124903,136.25443233708648,1923,2.4817373752593994,432.8846215978265,-6.0,0.0,-2,0.0,0.0,156.15,674.57,0,6.6,4.09,0.0
343476,0,257,5,35.29419070124903,136.25443233708648,1923,2.4817373752593994,432.8846215978265,-6.0,0.0,-2,0.0,0.0,156.15,674.57,0,6.6,4.09,0.0
343770,0,260,5,35.29419070124903,136.25443233708648,1923,2.4817373752593994,432.8846215978265,-6.0,0.0,-2,0.0,0.0,156.15,674.57,0,6.6,4.09,0.0
344059,0,256,4,35.29419068548706,136.25443226820886,1924,2.477750539779663,432.8846215978265,-6.0,0.0,-2,0.0,0.0,156.15,674.57,0,6.6,4.09,0.0
344411,0,257,3,35.29419068548706,136.25443226820886,1924,2.477750539779663,432.8846215978265,-6.0,0.0,-2,0.5,0.0,155.65,674.57,0,6.6,4.1,0.0
344700,0,257,4,35.29419068548706,136.25443226820886,1924,2.477750539779663,432.8846215978265,-6.0,0.0,-2,0.5,0.0,155.65,674.57,0,6.6,4.1,0.0
344993,0,258,3,35.29419068548706,136.25443226820886,1924,2.477750539779663,432.8846215978265,-6.0,0.0,-2,0.5,0.0,155.65,674.57,0,6.6,4.1,0.0
345283,3,246,7,35.294190203492654,136.2544331745953,1925,2.461191415786743,432.8846215978265,-6.0,0.0,-2,0.5,0.0,155.65,674.57,0,6.6,4.09,0.0
345576,2,249,5,35.294190203492654,136.2544331745953,1925,2.461191415786743,432.8846215978265,-6.0,0.0,-2,0.5,0.0,155.65,674.57,0,6.6,4.09,0.0
345866,0,252,5,35.294190203492654,136.2544331745953,1925,2.461191415786743,432.8846215978265,-6.0,0.0,-2,0.5,0.0,155.65,674.57,0,6.6,4.09,0.0
346217,1,251,4,35.294189903684874,136.25443304765102,1926,2.4261314868927,432.8846215978265,-6.0,0.0,-2,0.5,0.0,155.65,674.57,0,6.6,4.09,0.0
346507,0,260,1,35.294189903684874,136.25443304765102,1926,2.4261314868927,432.8846215978265,-6.0,0.0,-2,0.0,0.0,155.65,674.57,0,6.6,4.09,0.0
346800,-1,260,3,35.294189903684874,136.25443304765102,1926,2.4261314868927,432.8846215978265,-6.0,0.0,-2,0.0,0.0,155.65,674.57,0,6.6,4.09,0.0
347095,1,252,5,35.2941884265933,136.25443369784142,1927,2.3046844005584717,432.8846215978265,-6.0,0.0,-2,0.0,0.0,155.65,674.57,0,-4.299339752579514E25,4.09,0.0
347388,0,257,4,35.2941884265933,136.25443369784142,1927,2.3046844005584717,432.8846215978265,-6.0,0.0,-2,0.0,0.0,155.65,674.57,0,-4.299339752579514E25,4.09,0.0
347678,0,253,4,35.2941884265933,136.25443369784142,1927,2.3046844005584717,432.8846215978265,-6.0,0.0,-2,0.48,0.0,155.65,674.57,0,6.6,4.09,0.0
347971,0,256,3,35.2941884265933,136.25443369784142,1927,2.3046844005584717,432.8846215978265,-6.0,0.0,-2,0.48,0.0,155.65,674.57,0,6.6,4.09,0.0
348261,2,248,5,35.294188151039215,136.2544333948943,1928,2.2648675441741943,432.8846215978265,-6.0,0.0,-2,0.48,0.0,155.65,674.57,0,6.6,4.09,0.0
348612,0,255,5,35.294188151039215,136.2544333948943,1928,2.2648675441741943,432.8846215978265,-6.0,0.0,-2,0.0,0.0,155.65,674.57,0,6.6,4.09,0.0
348902,0,254,5,35.294188151039215,136.2544333948943,1928,2.2648675441741943,432.8846215978265,-6.0,0.0,-2,0.0,0.0,155.65,674.57,0,6.6,4.09,0.0
349195,0,260,3,35.29418794121969,136.25443321922086,1929,2.2368595600128174,432.8846215978265,-6.0,0.0,-2,0.0,0.0,155.15,674.57,0,6.6,4.09,0.0
349485,0,255,5,35.29418794121969,136.25443321922086,1929,2.2368595600128174,432.8846215978265,-6.0,0.0,-2,0.48,0.0,155.15,674.57,0,6.6,4.09,0.0
349778,1,254,4,35.29418794121969,136.25443321922086,1929,2.2368595600128174,432.8846215978265,-6.0,0.0,-2,0.48,1.11,155.15,674.57,0,6.6,4.09,0.0
350130,0,254,4,35.29418965945266,136.25443213284166,1930,2.3678817749023438,433.04226199537516,-6.0,0.0,-2,0.48,1.11,155.15,674.57,0,6.6,4.09,0.0
350419,1,253,4,35.29418965945266,136.25443213284166,1930,2.3678817749023438,433.04226199537516,-6.0,0.0,-2,0.48,1.11,155.15,674.57,0,6.6,4.09,0.0
350713,-1,261,4,35.29418965945266,136.25443213284166,1930,2.3678817749023438,433.04226199537516,-6.0,0.0,-2,0.0,1.11,155.15,674.57,0,6.6,4.09,0.0
351002,1,251,5,35.29418965945266,136.25443213284166,1930,2.3678817749023438,433.04226199537516,-6.0,0.0,-2,0.0,1.11,155.15,674.57,0,6.6,4.09,0.0
351296,0,252,6,35.2941899057051,136.25443193819072,1931,2.386307954788208,433.04226199537516,-6.0,0.0,-2,0.0,1.11,155.65,674.57,0,6.6,4.09,0.0
351585,0,258,3,35.2941899057051,136.25443193819072,1931,2.386307954788208,433.04226199537516,-6.0,0.0,-2,0.48,1.11,155.65,674.57,0,6.6,4.09,0.0
351879,-2,262,4,35.2941899057051,136.25443193819072,1931,2.386307954788208,433.04226199537516,-6.0,0.0,-2,0.48,0.0,155.65,674.57,0,6.6,4.09,0.0
352226,2,250,5,35.2941884154705,136.25443310315111,1932,2.279109001159668,433.04226199537516,-6.0,0.0,-2,0.48,0.0,155.65,674.57,0,6.6,4.09,0.0
352519,0,256,5,35.2941884154705,136.25443310315111,1932,2.279109001159668,433.04226199537516,-6.0,0.0,-2,0.48,0.0,155.65,674.57,0,6.6,4.09,0.0
352809,0,251,5,35.2941884154705,136.25443310315111,1932,2.279109001159668,433.04226199537516,-6.0,0.0,-2,0.48,0.0,155.65,674.57,0,6.6,4.09,0.0
353102,1,254,4,35.29418651648747,136.25443433809406,1933,2.1487977504730225,433.04226199537516,-6.0,0.0,-2,0.48,0.0,155.65,674.57,0,6.6,4.09,0.0
353392,1,255,4,35.29418651648747,136.25443433809406,1933,2.1487977504730225,433.04226199537516,-6.0,0.0,-2,0.48,0.0,155.65,674.57,0,6.6,4.09,0.0
353685,1,250,6,35.29418651648747,136.25443433809406,1933,2.1487977504730225,433.04226199537516,-6.0,0.0,-2,0.5,0.0,155.65,674.57,0,6.6,4.09,0.0
353975,0,262,3,35.29418651648747,136.25443433809406,1933,2.1487977504730225,433.04226199537516,-6.0,0.0,-2,0.5,0.0,155.65,674.57,0,6.6,4.09,0.0
354268,3,249,5,35.294185791319194,136.25443443912675,1934,2.0855839252471924,433.04226199537516,-6.0,0.0,-2,0.5,0.0,155.65,674.57,0,6.6,4.09,0.0
354616,0,256,3,35.294185791319194,136.25443443912675,1934,2.0855839252471924,433.04226199537516,-6.0,0.0,-2,0.0,0.0,155.65,674.57,0,6.6,4.09,0.0
354909,2,250,5,35.294185791319194,136.25443443912675,1934,2.0855839252471924,433.04226199537516,-6.0,0.0,-2,0.0,0.0,155.65,674.57,0,6.6,4.09,0.0
355199,0,260,1,35.29418496409377,136.2544347308714,1935,2.024167776107788,433.04226199537516,-6.0,0.0,-2,0.0,0.0,155.15,674.57,0,6.6,4.08,0.0
355492,1,254,5,35.29418496409377,136.2544347308714,1935,2.024167776107788,433.04226199537516,-6.0,0.0,-2,0.0,0.0,155.15,674.57,0,6.6,4.08,0.0
355782,0,250,7,35.29418496409377,136.2544347308714,1935,2.024167776107788,433.04226199537516,-6.0,0.0,-2,0.0,0.0,155.15,674.57,0,6.6,4.08,0.0
356075,1,252,5,35.29418311107689,136.25443469403,1936,1.857187271118164,433.04226199537516,-6.0,0.0,-2,0.0,0.0,155.15,674.57,0,6.6,4.08,0.0
356365,1,253,3,35.29418311107689,136.25443469403,1936,1.857187271118164,433.04226199537516,-6.0,0.0,-2,0.0,0.0,155.15,674.57,0,6.6,4.09,0.0
356716,0,255,4,35.29418311107689,136.25443469403,1936,1.857187271118164,433.04226199537516,-6.0,0.0,-2,0.5,0.0,155.15,674.57,0,6.6,4.09,0.0
357006,3,246,5,35.29418311107689,136.25443469403,1936,1.857187271118164,433.04226199537516,-6.0,0.0,-2,0.5,0.0,155.15,674.57,0,6.6,4.09,0.0
357299,2,243,9,35.29418161090821,136.25443503489026,1937,1.750770926475525,433.04226199537516,-6.0,0.0,-2,0.5,0.0,154.65,674.57,0,6.6,4.09,0.0
357589,1,255,4,35.29418161090821,136.25443503489026,1937,1.750770926475525,433.04226199537516,-6.0,0.0,-2,0.0,0.0,154.65,674.57,0,6.6,4.09,0.0
357882,1,254,4,35.29418161090821,136.25443503489026,1937,1.750770926475525,433.04226199537516,-6.0,0.0,-2,0.0,0.0,154.65,674.57,0,6.6,4.09,0.0
358172,2,252,5,35.29417925230197,136.25443638355014,1938,1.6629626750946045,433.04226199537516,-6.0,0.0,-2,0.0,0.0,155.15,674.57,0,6.6,4.08,0.0
358523,-3,265,0,35.29417925230197,136.25443638355014,1938,1.6629626750946045,433.04226199537516,-6.0,0.0,-2,0.0,0.0,155.15,674.57,0,6.6,4.08,0.0
358813,0,259,1,35.29417925230197,136.25443638355014,1938,1.6629626750946045,433.04226199537516,-6.0,0.0,-2,0.0,0.0,155.15,674.57,0,6.6,4.08,0.0
359106,0,259,4,35.29417875221251,136.25443652464685,1939,1.6396230459213257,433.04226199537516,-6.0,0.0,-2,0.0,0.0,155.15,674.57,0,6.6,4.09,0.0
359396,0,254,4,35.29417875221251,136.25443652464685,1939,1.6396230459213257,433.04226199537516,-6.0,0.0,-2,0.0,0.0,155.15,674.57,0,6.6,4.09,0.0
359689,1,248,6,35.29417875221251,136.25443652464685,1939,1.6396230459213257,433.04226199537516,-6.0,0.0,-2,0.0,0.0,155.15,674.57,0,6.6,4.09,0.0
359979,0,255,3,35.29417875221251,136.25443652464685,1939,1.6396230459213257,433.04226199537516,-6.0,0.0,-2,0.0,0.0,155.15,674.57,0,6.6,4.09,0.0
360330,1,256,5,35.29418046640781,136.254435505927,1940,1.6904488801956177,434.1073423996568,-6.0,0.0,-2,0.0,0.0,155.65,674.57,0,6.6,4.08,0.0
360624,0,252,4,35.29418046640781,136.254435505927,1940,1.6904488801956177,434.1073423996568,-6.0,0.0,-2,0.5,0.0,155.65,674.57,0,6.6,4.08,0.0
360913,0,262,0,35.29418046640781,136.254435505927,1940,1.6904488801956177,434.1073423996568,-6.0,0.0,-2,0.5,0.0,155.65,674.57,0,6.6,4.08,0.0
361207,1,250,6,35.29418095702283,136.25443621201813,1941,1.7745202779769897,434.1073423996568,-6.0,0.0,-2,0.5,0.0,156.15,674.57,0,6.6,4.09,0.0
361496,1,254,4,35.29418095702283,136.25443621201813,1941,1.7745202779769897,434.1073423996568,-6.0,0.0,-2,0.5,0.0,156.15,674.57,0,6.6,4.09,0.0
361790,0,257,5,35.29418095702283,136.25443621201813,1941,1.7745202779769897,434.1073423996568,-6.0,0.0,-2,0.0,0.0,156.15,674.57,0,6.6,4.09,0.0
362079,1,251,4,35.29418300775436,136.2544358871917,1942,1.9178985357284546,434.1073423996568,-6.0,0.0,-2,0.0,0.0,156.15,674.57,0,6.6,4.09,0.0
362430,0,256,5,35.29418300775436,136.2544358871917,1942,1.9178985357284546,434.1073423996568,-6.0,0.0,-2,0.0,0.0,155.15,674.57,0,6.6,4.08,0.0
362662,1,251,4,35.29418300775436,136.2544358871917,1942,1.9178985357284546,434.1073423996568,-6.0,0.0,-2,0.0,0.55,155.15,674.57,0,6.6,4.08,0.0
363013,1,255,4,35.29418300775436,136.2544358871917,1942,1.9178985357284546,434.1073423996568,-6.0,0.0,-2,0.0,0.55,155.15,674.57,0,6.6,4.08,0.0
363303,0,253,3,35.294184979094,136.2544353104602,1943,2.0561280250549316,434.1073423996568,-6.0,0.0,-2,0.0,0.55,97.09,674.57,0,6.6,4.09,0.0
363596,0,257,4,35.294184979094,136.2544353104602,1943,2.0561280250549316,434.1073423996568,-6.0,0.0,-2,0.0,0.55,97.09,674.57,0,6.6,4.09,0.0
363886,0,257,3,35.294184979094,136.2544353104602,1943,2.0561280250549316,434.1073423996568,-6.0,0.0,-2,0.0,0.55,97.09,674.57,0,6.6,4.09,0.0
364179,2,249,6,35.29418875049441,136.25443375381116,1944,2.338942527770996,434.1073423996568,-6.0,0.0,-2,0.0,0.55,93.59,674.57,0,6.6,4.08,0.0
364527,0,255,3,35.29418875049441,136.25443375381116,1944,2.338942527770996,434.1073423996568,-6.0,0.0,-2,0.0,0.55,93.59,674.57,0,6.6,4.08,0.0
364820,0,258,4,35.29418875049441,136.25443375381116,1944,2.338942527770996,434.1073423996568,-6.0,0.0,-2,0.0,0.0,93.59,674.57,0,6.6,4.08,0.0
365110,0,257,4,35.29419105818012,136.25443258441584,1945,2.5269153118133545,434.1073423996568,-6.0,0.0,-2,0.0,0.0,155.65,674.57,0,6.6,4.09,0.0
365403,1,253,4,35.29419105818012,136.25443258441584,1945,2.5269153118133545,434.1073423996568,-6.0,0.0,-2,0.0,0.0,155.65,674.57,0,6.6,4.09,0.0
365693,0,256,4,35.29419105818012,136.25443258441584,1945,2.5269153118133545,434.1073423996568,-6.0,0.0,-2,0.0,0.0,155.65,674.57,0,6.6,4.09,0.0
365986,0,254,4,35.29419105818012,136.25443258441584,1945,2.5269153118133545,434.1073423996568,-6.0,0.0,-2,0.0,0.0,155.65,674.57,0,6.6,4.09,0.0
366334,0,253,4,35.29419385266831,136.25443107893102,1946,2.7722175121307373,434.1073423996568,-6.0,0.0,-2,0.0,0.0,98.6,674.57,0,6.6,4.08,0.0
366627,0,254,4,35.29419385266831,136.25443107893102,1946,2.7722175121307373,434.1073423996568,-6.0,0.0,-2,0.0,0.0,98.6,674.57,0,6.6,4.08,0.0
366917,0,256,3,35.29419385266831,136.25443107893102,1946,2.7722175121307373,434.1073423996568,-6.0,0.0,-2,0.0,0.0,98.6,674.57,0,6.6,4.08,0.0
367210,1,254,2,35.29419455449657,136.25443135887025,1947,2.854132890701294,434.1073423996568,-6.0,0.0,-2,0.0,3.31,98.6,674.57,0,0.0,4.08,0.0
367500,0,257,3,35.29419455449657,136.25443135887025,1947,2.854132890701294,434.1073423996568,-6.0,0.0,-2,0.0,3.31,98.6,674.57,0,0.0,4.08,0.0
367793,0,255,4,35.29419455449657,136.25443135887025,1947,2.854132890701294,434.1073423996568,-6.0,0.0,-2,0.0,3.31,98.6,674.57,0,0.0,4.08,0.0
368083,1,249,6,35.2941942096541,136.2544312075748,1948,2.813511371612549,434.1073423996568,-6.0,0.0,-2,0.0,0.0,98.6,674.57,0,0.0,4.08,0.0
368434,0,252,8,35.2941942096541,136.2544312075748,1948,2.813511371612549,434.1073423996568,-6.0,0.0,-2,0.0,0.0,98.6,674.57,0,0.0,4.08,0.0
368666,-1,262,3,35.2941942096541,136.2544312075748,1948,2.813511371612549,434.1073423996568,-6.0,0.0,-2,0.0,0.0,98.6,674.57,0,6.6,4.08,0.0
369017,0,259,4,35.2941942096541,136.2544312075748,1948,2.813511371612549,434.1073423996568,-6.0,0.0,-2,0.0,0.0,98.6,674.57,0,6.6,4.08,0.0
369307,1,253,5,35.294192665463825,136.2544318173834,1949,2.6684935092926025,434.1073423996568,-6.0,0.0,-2,0.0,0.0,96.59,674.57,0,6.6,4.08,0.0
369600,0,253,7,35.294192665463825,136.2544318173834,1949,2.6684935092926025,434.1073423996568,-6.0,0.0,-2,0.0,0.0,96.59,674.57,0,6.6,4.08,0.0
369890,1,254,3,35.294192665463825,136.2544318173834,1949,2.6684935092926025,434.1073423996568,-6.0,0.0,-2,0.0,0.0,96.59,674.57,0,6.6,4.08,0.0
370183,1,252,6,35.29419424564403,136.25443037234564,1950,2.795679807662964,435.705817617476,-6.0,0.0,-2,0.0,0.0,92.59,674.57,0,6.6,4.09,0.0
370535,0,255,5,35.29419424564403,136.25443037234564,1950,2.795679807662964,435.705817617476,-6.0,0.0,-2,0.0,0.0,92.59,674.57,0,6.6,4.09,0.0
370829,0,254,4,35.29419424564403,136.25443037234564,1950,2.795679807662964,435.705817617476,-6.0,0.0,-2,0.48,0.0,92.59,674.57,0,6.6,4.09,0.0
371122,2,250,5,35.29419529347706,136.25442907544272,1951,2.8790643215179443,435.705817617476,-6.0,0.0,-2,0.48,0.0,97.6,674.57,0,6.6,4.09,0.0
371412,0,256,6,35.29419529347706,136.25442907544272,1951,2.8790643215179443,435.705817617476,-6.0,0.0,-2,0.48,0.0,97.6,674.57,0,6.6,4.09,0.0
371710,1,254,5,35.29419529347706,136.25442907544272,1951,2.8790643215179443,435.705817617476,-6.0,0.0,-2,0.48,0.55,97.6,674.57,0,6.6,4.09,0.0
372000,0,253,4,35.29419529347706,136.25442907544272,1951,2.8790643215179443,435.705817617476,-6.0,0.0,-2,0.48,0.55,97.6,674.57,0,6.6,4.09,0.0
372293,0,256,4,35.294195509483366,136.2544290273697,1952,2.901461362838745,435.705817617476,-6.0,0.0,-2,0.48,0.55,83.58,674.57,0,6.6,4.09,0.0
372641,0,257,4,35.294195509483366,136.2544290273697,1952,2.901461362838745,435.705817617476,-6.0,0.0,-2,0.0,0.55,83.58,674.57,0,6.6,4.09,0.0
372934,0,255,5,35.294195509483366,136.2544290273697,1952,2.901461362838745,435.705817617476,-6.0,0.0,-2,0.0,0.55,83.58,674.57,0,6.6,4.09,0.0
373166,1,252,5,35.29419562284894,136.2544290134845,1953,2.913454294204712,435.705817617476,-6.0,0.0,-2,0.0,0.55,127.62,674.57,0,6.6,4.09,0.0
373459,2,251,5,35.29419562284894,136.2544290134845,1953,2.913454294204712,435.705817617476,-6.0,0.0,-2,0.0,0.55,127.62,674.57,0,6.6,4.09,0.0
373807,2,252,3,35.29419562284894,136.2544290134845,1953,2.913454294204712,435.705817617476,-6.0,0.0,-2,0.48,0.55,127.62,674.57,0,6.6,4.09,0.0
374100,0,257,5,35.294194938079045,136.2544301370387,1954,2.864068031311035,435.705817617476,-6.0,0.0,-2,0.48,0.0,127.62,674.57,0,0.0,4.09,0.0
374448,0,254,6,35.294194938079045,136.2544301370387,1954,2.864068031311035,435.705817617476,-6.0,0.0,-2,0.48,0.0,127.62,674.57,0,0.0,4.09,0.0
374741,2,251,3,35.294194938079045,136.2544301370387,1954,2.864068031311035,435.705817617476,-6.0,0.0,-2,0.48,0.0,127.62,674.57,0,6.6,4.09,0.0
375031,2,249,5,35.294194938079045,136.2544301370387,1954,2.864068031311035,435.705817617476,-6.0,0.0,-2,0.48,0.0,127.62,674.57,0,6.6,4.09,0.0
375324,0,254,6,35.29419442553949,136.254431459949,1955,2.8432490825653076,435.705817617476,-6.0,0.0,-2,0.48,0.0,156.15,674.57,0,6.6,4.09,0.0
375614,0,256,5,35.29419442553949,136.254431459949,1955,2.8432490825653076,435.705817617476,-6.0,0.0,-2,0.48,7.2,156.15,674.57,0,6.6,4.09,0.0
