timestamp,year,month,day,hour,minute,second,longitude,latitude,altitude,groundspeed,airspeed,AoA,SLIP,outside pres,outside temp,AGL,rpm,pitch,roll,yaw,fairing temp,fairing pres,fairing hum,ELV,RUD,ELVtrim,RUDtrim,voltage,current,torque,power,thrust
377,2080,1,5,5,9,22,35.024357,135.779495,56.90,0.00,0.00,0.00,-36.30,1144,17,34,0,-2.38,2.93,173.18,15,1014.78,63,90,90,90,90,7.51,0.12,0.00,0.00,0.00
377,2080,1,5,5,9,22,35.024357,135.779495,56.90,0.00,0.00,0.00,-36.30,1144,17,34,0,-2.38,2.93,173.18,15,1014.78,63,90,90,90,90,7.45,0.32,0.00,0.00,0.00
377,2080,1,5,5,9,22,35.024357,135.779495,56.90,0.00,0.00,0.00,-36.30,1144,17,34,0,-2.38,2.87,173.18,15,1014.78,63,90,90,90,90,7.51,0.15,0.00,0.00,0.00
377,2080,1,5,5,9,22,35.024357,135.779495,56.90,0.00,0.00,0.00,-36.30,1144,17,34,0,-2.38,2.87,173.18,15,1014.79,63,90,90,90,90,7.51,0.17,0.00,0.00,0.00
377,2080,1,5,5,9,22,35.024357,135.779495,56.90,0.00,0.00,0.00,-36.30,1144,17,34,0,-2.50,2.75,173.18,15,1014.78,63,90,90,90,90,7.51,0.17,0.00,0.00,0.00
377,2080,1,5,5,9,22,35.024357,135.779495,56.90,0.00,0.00,0.00,-36.30,1144,17,34,0,-2.50,2.68,173.12,15,1014.80,63,90,90,90,90,7.51,0.17,0.00,0.00,0.00
378,2080,1,5,5,9,22,35.024357,135.779495,56.90,0.00,0.00,0.00,-36.30,1144,17,34,0,-2.50,2.68,173.12,15,1014.76,63,90,90,90,90,7.51,0.17,0.00,0.00,0.00
378,2080,1,5,5,9,22,35.024357,135.779495,56.90,0.00,0.00,0.00,-36.30,1144,17,34,0,-2.50,2.75,173.18,15,1014.77,63,90,90,90,90,7.47,0.45,0.00,0.00,0.00
378,2080,1,5,5,9,22,35.024357,135.779495,56.90,0.00,0.00,0.00,-36.30,1144,17,34,0,-2.50,2.75,173.18,15,1014.77,63,90,90,90,90,7.27,0.63,0.00,0.00,0.00
378,2080,1,5,5,9,22,35.024357,135.779495,56.90,0.00,0.00,0.00,-36.30,1144,17,34,0,-2.50,2.75,173.18,15,1014.77,63,90,90,90,90,7.47,0.33,0.00,0.00,0.00
378,2080,1,5,5,9,22,35.024357,135.779495,56.90,0.00,0.00,0.00,-36.30,1144,17,34,0,-2.44,2.56,173.18,15,1014.78,63,90,90,90,90,7.48,0.28,0.00,0.00,0.00
378,2080,1,5,5,9,22,35.024357,135.779495,56.90,0.00,0.00,0.00,-36.30,1144,17,32,0,-2.50,2.43,173.18,15,1014.80,63,90,90,90,90,7.48,0.28,0.00,0.00,0.00
378,2080,1,5,5,9,22,35.024357,135.779495,56.90,0.00,0.00,0.00,-36.30,1144,17,32,0,-2.50,2.43,173.18,15,1014.77,63,90,90,90,90,7.48,0.28,0.00,0.00,0.00
378,2080,1,5,5,9,37,35.024357,135.766663,56.90,0.00,0.00,0.00,-36.30,1144,17,32,0,-2.50,2.56,173.18,15,1014.80,63,90,90,90,90,7.48,0.28,0.00,0.00,0.00
379,2080,1,5,5,9,37,35.024357,135.766663,56.90,0.00,0.00,0.00,-36.30,1144,17,34,0,-2.50,2.56,173.18,15,1014.77,63,90,90,90,90,7.48,0.28,0.00,0.00,0.00
379,2080,1,5,5,9,37,35.024357,135.766663,222.00,0.00,0.00,0.00,-36.30,1144,17,34,0,-2.50,2.75,173.18,15,1014.77,63,90,90,90,90,7.48,0.28,0.00,0.00,0.00
379,2080,1,5,5,9,37,35.024357,135.766663,222.00,0.00,0.36,0.00,-36.30,1144,17,34,0,-2.50,2.81,173.18,15,1014.77,63,90,90,90,90,7.48,0.28,0.00,0.00,0.00
379,2080,1,5,5,9,37,35.024357,135.766663,222.00,0.00,0.49,0.00,-36.30,1144,17,34,0,-2.50,2.81,173.18,15,1014.76,63,90,90,90,90,7.46,0.32,0.00,0.00,0.00
379,2080,1,5,5,9,37,35.024357,135.766663,222.00,0.00,0.00,0.00,-36.30,1144,17,34,0,-2.57,2.81,173.18,15,1014.76,63,90,90,90,90,7.46,0.32,0.00,0.00,0.00
379,2080,1,5,5,9,37,35.024357,135.766663,222.00,0.00,0.00,0.00,-36.30,1144,17,34,0,-2.57,2.81,173.18,15,1014.76,63,90,90,90,90,7.46,0.32,0.00,0.00,0.00
379,2080,1,5,5,9,37,35.024357,135.766663,222.00,0.00,0.54,0.00,-36.30,1144,17,34,0,-2.57,2.81,173.18,15,1014.78,63,90,90,90,90,7.46,0.32,0.00,0.00,0.00
379,2080,1,5,5,9,37,35.024357,135.766663,222.00,0.00,0.77,0.00,-36.30,1144,17,34,0,-2.50,2.75,173.18,15,1014.76,63,90,90,90,90,7.46,0.32,0.00,0.00,0.00
379,2080,1,5,5,9,37,35.024357,135.766663,222.00,0.00,0.33,0.00,-36.30,1144,17,34,0,-2.50,2.75,173.18,15,1014.76,63,90,90,90,90,7.46,0.32,0.00,0.00,0.00
380,2080,1,5,5,9,37,35.024357,135.766663,222.00,0.00,0.80,0.00,-36.30,1144,17,34,0,-2.50,2.75,173.18,15,1014.78,63,90,90,90,90,7.46,0.28,0.00,0.00,0.00
380,2080,1,5,5,9,37,35.024357,135.766663,222.00,0.00,0.23,0.00,-36.30,1144,17,34,0,-2.50,2.75,173.18,15,1014.78,63,90,90,90,90,7.48,0.37,0.00,0.00,0.00
380,2080,1,5,5,9,37,35.024357,135.766663,222.00,0.00,0.46,0.00,-36.30,1144,17,34,0,-2.50,2.75,173.18,15,1014.79,63,90,90,90,90,7.48,0.37,0.00,0.00,0.00
380,2080,1,5,5,9,37,35.024357,135.766663,222.00,0.00,0.36,0.00,-36.30,1144,17,34,0,-2.50,2.75,173.18,15,1014.83,63,90,90,90,90,7.48,0.37,0.00,0.00,0.00
380,2080,1,5,5,9,37,35.024357,135.766663,222.00,0.00,0.54,0.00,-36.30,1144,17,36,0,-2.50,2.75,173.18,15,1014.81,63,90,90,90,90,7.48,0.37,0.00,0.00,0.00
380,2080,1,5,5,9,37,35.024357,135.766663,222.00,0.00,0.66,0.00,-36.30,1144,17,36,0,-2.50,2.75,173.18,15,1014.80,63,90,90,90,90,7.47,0.43,0.00,0.00,0.00
380,2080,1,5,5,9,37,35.024357,135.766663,222.00,0.00,0.57,0.00,-36.30,1144,17,36,0,-2.50,2.75,173.18,15,1014.81,63,90,90,90,90,7.46,0.43,0.00,0.00,0.00
380,2080,1,5,5,9,37,35.024357,135.766663,222.00,0.00,0.57,0.00,-36.30,1144,17,36,0,-2.50,2.75,173.18,15,1014.81,63,90,90,90,90,7.46,0.35,0.00,0.00,0.00
381,2080,1,5,5,9,37,35.024357,135.766663,222.00,0.00,0.00,0.00,-36.30,1144,17,34,0,-2.50,2.75,173.18,15,1014.81,63,90,90,90,90,7.47,0.36,0.00,0.00,0.00
381,2080,1,5,5,9,37,35.024357,135.766663,222.00,0.00,0.00,0.00,-36.30,1144,17,34,0,-2.50,2.68,173.18,15,1014.83,63,90,90,90,90,7.47,0.36,0.00,0.00,0.00
381,2080,1,5,5,9,37,35.024357,135.766663,222.00,0.00,0.00,0.00,-36.30,1144,17,34,0,-2.50,2.68,173.18,15,1014.81,63,90,90,90,90,7.47,0.36,0.00,0.00,0.00
381,2080,1,5,5,9,37,35.024357,135.766663,222.00,0.00,0.00,0.00,-36.30,1144,17,34,0,-2.50,2.37,173.18,15,1014.77,63,90,90,90,90,7.47,0.36,0.00,0.00,0.00
381,2080,1,5,5,9,37,35.024357,135.766663,222.00,0.00,0.46,0.00,-36.30,1144,17,34,0,-2.50,2.37,173.18,15,1014.79,63,90,90,90,90,7.47,0.36,0.00,0.00,0.00
381,2080,1,5,5,9,37,35.024357,135.766663,222.00,0.00,0.46,0.00,-36.30,1144,17,34,0,-2.50,2.37,173.18,15,1014.75,64,90,90,90,90,7.47,0.36,0.00,0.00,0.00
381,2080,1,5,5,9,37,35.024357,135.766663,222.00,0.00,0.46,0.00,-36.30,1144,17,34,0,-2.50,2.37,173.18,15,1014.75,64,90,90,90,90,7.47,0.36,0.00,0.00,0.00
381,2080,1,5,5,9,37,35.024357,135.766663,222.00,0.00,0.46,0.00,-36.30,1144,17,34,0,-2.50,2.37,173.18,15,1014.75,64,90,90,90,90,7.47,0.34,0.00,0.00,0.00
381,2080,1,5,5,9,37,35.024357,135.766663,222.00,0.00,0.46,0.00,-36.30,1144,17,34,0,-2.50,2.37,173.18,15,1014.74,63,90,90,90,90,7.47,0.34,0.00,0.00,0.00
382,2080,1,5,5,9,37,35.024357,135.766663,222.00,0.00,0.46,0.00,-36.30,1144,17,34,0,-2.50,2.37,173.18,15,1014.78,64,90,90,90,90,7.47,0.34,0.00,0.00,0.00
382,2080,1,5,5,9,37,35.024357,135.766663,222.00,0.00,0.46,0.00,-36.30,1144,17,34,0,-2.50,2.37,173.18,15,1014.75,64,90,90,90,90,7.47,0.34,0.00,0.00,0.00
382,2080,1,5,5,9,37,35.024357,135.766663,222.00,0.00,0.46,0.00,-36.30,1144,17,34,0,-2.50,2.37,173.18,15,1014.78,63,90,90,90,90,7.47,0.34,0.00,0.00,0.00
382,2080,1,5,5,9,37,35.024357,135.766663,222.00,0.00,0.46,0.00,-36.30,1144,17,34,0,-2.50,2.37,173.18,15,1014.78,63,90,90,90,90,7.47,0.31,0.00,0.00,0.00
382,2080,1,5,5,9,37,35.024357,135.766663,222.00,0.00,0.46,0.00,-36.30,1144,17,34,0,-2.50,2.37,173.18,15,1014.78,63,90,90,90,90,7.42,0.42,0.00,0.00,0.00
382,2080,1,5,5,9,37,35.024357,135.766663,222.00,0.00,0.46,0.00,-36.30,1144,17,34,0,-2.50,2.37,173.18,15,1014.77,63,90,90,90,90,7.43,0.53,0.00,0.00,0.00
382,2080,1,5,5,9,37,35.024357,135.766663,222.00,0.00,0.46,0.00,-36.30,1144,17,34,0,-2.50,2.37,173.18,15,1014.77,63,90,90,90,90,7.43,0.53,0.00,0.00,0.00
382,2080,1,5,5,9,37,35.024357,135.766663,222.00,0.00,0.46,0.00,-36.30,1144,17,34,0,-2.50,2.37,173.18,15,1014.78,63,90,90,90,90,7.43,0.53,0.00,0.00,0.00
383,2080,1,5,5,9,37,35.024357,135.766663,222.00,0.00,0.46,0.00,-36.30,1144,17,34,0,-2.50,2.37,173.18,15,1014.77,63,90,90,90,90,7.43,0.53,0.00,0.00,0.00
383,2080,1,5,5,9,37,35.024357,135.766663,222.00,0.00,0.46,0.00,-36.30,1144,17,34,0,-2.50,2.37,173.18,15,1014.77,63,90,90,90,90,7.36,0.34,0.00,0.00,0.00
383,2080,1,5,5,9,37,35.024357,135.766663,222.00,0.00,0.46,0.00,-36.30,1144,17,34,0,-2.50,2.37,173.18,15,1014.76,63,90,90,90,90,7.43,0.57,0.00,0.00,0.00
383,2080,1,5,5,9,37,35.024357,135.766663,222.00,0.00,0.46,0.00,-36.30,1144,17,34,0,-2.50,2.37,173.18,15,1014.76,63,90,90,90,90,7.43,0.48,0.00,0.00,0.00
383,2080,1,5,5,9,37,35.024357,135.766663,222.00,0.00,0.46,0.00,-36.30,1144,17,34,0,-2.50,2.37,173.18,15,1014.78,63,90,90,90,90,7.36,0.39,0.00,0.00,0.00
383,2080,1,5,5,9,37,35.024357,135.766663,222.00,0.00,0.46,0.00,-36.30,1144,17,34,0,-2.50,2.37,173.18,15,1014.76,63,90,90,90,90,7.36,0.39,0.00,0.00,0.00
383,2080,1,5,5,9,37,35.024357,135.766663,222.00,0.00,0.46,0.00,-36.30,1144,17,34,0,-2.50,2.37,173.18,15,1014.79,63,90,90,90,90,7.36,0.39,0.00,0.00,0.00
383,2080,1,5,5,9,37,35.024357,135.766663,222.00,0.00,0.00,0.00,-36.30,1144,17,34,0,-2.50,2.37,173.18,15,1014.74,63,90,90,90,90,7.36,0.39,0.00,0.00,0.00
384,2080,1,5,5,9,37,35.024357,135.766663,222.00,0.00,0.00,0.00,-36.30,1144,17,34,0,-2.50,2.37,173.18,15,1014.76,63,90,90,90,90,7.36,0.39,0.00,0.00,0.00
384,2080,1,5,5,9,37,35.024357,135.766663,222.00,0.00,0.00,0.00,-36.30,1144,17,34,0,-2.50,2.37,173.18,15,1014.77,63,90,90,90,90,7.36,0.39,0.00,0.00,0.00
384,2080,1,5,5,9,37,35.024357,135.766663,222.00,0.00,0.00,0.00,-36.30,1144,17,34,0,-2.50,2.37,173.18,15,1014.77,63,90,90,90,90,7.40,0.58,0.00,0.00,0.00
384,2080,1,5,5,9,37,35.024357,135.766663,222.00,0.00,0.00,0.00,-36.30,1144,17,34,0,-2.50,2.37,173.18,15,1014.77,63,90,90,90,90,7.40,0.58,0.00,0.00,0.00
384,2080,1,5,5,9,37,35.024357,135.766663,222.00,0.00,0.00,0.00,-36.30,1144,17,34,0,-2.50,2.37,173.18,15,1014.76,63,90,90,90,90,7.40,0.58,0.00,0.00,0.00
384,2080,1,5,5,9,37,35.024357,135.766663,222.00,0.00,0.00,0.00,-36.30,1144,17,34,0,-2.50,2.37,173.18,15,1014.77,63,90,90,90,90,7.40,0.58,0.00,0.00,0.00
384,2080,1,5,5,9,37,35.024357,135.766663,222.00,0.00,0.00,0.00,-36.30,1144,17,34,0,-2.50,2.37,173.18,15,1014.77,63,90,90,90,90,7.40,0.58,0.00,0.00,0.00
384,2080,1,5,5,9,37,35.024357,135.766663,222.00,0.00,0.57,0.00,-36.30,1144,17,34,0,-2.50,2.37,173.18,15,1014.77,63,90,90,90,90,7.41,0.79,0.00,0.00,0.00
384,2080,1,5,5,9,37,35.024357,135.766663,222.00,0.00,0.00,0.00,-36.30,1144,17,34,0,-2.50,2.37,173.18,15,1014.78,63,90,90,90,90,7.41,0.55,0.00,0.00,0.00
385,2080,1,5,5,9,37,35.024357,135.766663,222.00,0.00,0.40,0.00,-36.30,1144,17,34,0,-2.50,2.37,173.18,15,1014.75,63,90,90,90,90,7.41,0.55,0.00,0.00,0.00
385,2080,1,5,5,9,37,35.024357,135.766663,222.00,0.00,0.40,0.00,-36.30,1144,17,34,0,-2.50,2.37,173.18,15,1014.76,63,90,90,90,90,7.41,0.55,0.00,0.00,0.00
385,2080,1,5,5,9,37,35.024357,135.766663,222.00,0.00,0.00,0.00,-36.30,1144,17,34,0,-2.50,2.31,173.18,15,1014.77,63,90,90,90,90,7.41,0.55,0.00,0.00,0.00
385,2080,1,5,5,9,37,35.024357,135.766663,222.00,0.00,0.00,0.00,-36.30,1144,17,34,0,-2.50,2.31,173.18,15,1014.76,63,90,90,90,90,7.41,0.55,0.00,0.00,0.00
385,2080,1,5,5,9,37,35.024357,135.766663,222.00,0.00,0.52,0.00,-36.30,1144,17,34,0,-2.50,2.31,173.18,15,1014.78,63,90,90,90,90,7.41,0.50,0.00,0.00,0.00
385,2080,1,5,5,9,37,35.024357,135.766663,222.00,0.00,0.52,0.00,-36.30,1144,17,34,0,-2.50,2.31,173.18,15,1014.78,63,90,90,90,90,7.32,0.65,0.00,0.00,0.00
385,2080,1,5,5,9,37,35.024357,135.766663,222.00,0.00,0.52,0.00,-36.30,1144,17,34,0,-2.50,2.31,173.18,15,1014.78,63,90,90,90,90,7.33,0.50,0.00,0.00,0.00
385,2080,1,5,5,9,37,35.024357,135.766663,222.00,0.00,0.52,0.00,-36.30,1144,17,34,0,-2.50,2.31,173.18,15,1014.75,63,90,90,90,90,7.38,0.45,0.00,0.00,0.00
386,2080,1,5,5,9,37,35.024357,135.766663,222.00,0.00,0.52,0.00,-36.30,1144,17,34,0,-2.50,2.31,173.18,15,1014.78,63,90,90,90,90,7.22,0.75,0.00,0.00,0.00
386,2080,1,5,5,9,37,35.024357,135.766663,222.00,0.00,0.52,0.00,-36.30,1144,17,34,0,-2.50,2.31,173.18,15,1014.78,63,90,90,90,90,7.22,0.75,0.00,0.00,0.00
386,2080,1,5,5,9,37,35.024357,135.766663,222.00,0.00,0.52,0.00,-36.30,1144,17,34,0,-2.50,2.31,173.18,15,1014.76,63,90,90,90,90,7.22,0.75,0.00,0.00,0.00
386,2080,1,5,5,9,37,35.024357,135.766663,222.00,0.00,0.52,0.00,-36.30,1144,17,34,0,-2.50,2.31,173.18,15,1014.76,63,90,90,90,90,7.22,0.75,0.00,0.00,0.00
386,2080,1,5,5,9,37,35.024357,135.766663,222.00,0.00,0.52,0.00,-36.30,1144,17,34,0,-2.50,2.31,173.18,15,1014.76,63,90,90,90,90,7.22,0.75,0.00,0.00,0.00
386,2080,1,5,5,9,37,35.024357,135.766663,222.00,0.00,0.52,0.00,-36.30,1144,17,34,0,-2.50,2.31,173.18,15,1014.80,63,90,90,90,90,7.22,0.75,0.00,0.00,0.00
386,2080,1,5,5,9,37,35.024357,135.766663,222.00,0.00,0.52,0.00,-36.30,1144,17,34,0,-2.50,2.31,173.18,15,1014.78,63,90,90,90,90,7.22,0.75,0.00,0.00,0.00
386,2080,1,5,5,9,37,35.024357,135.766663,222.00,0.00,0.52,0.00,-36.30,1144,17,34,0,-2.50,2.31,173.18,15,1014.78,63,90,90,90,90,7.22,0.75,0.00,0.00,0.00
387,2080,1,5,5,9,37,35.024357,135.766663,222.00,0.00,0.52,0.00,-36.30,1144,17,34,0,-2.50,2.31,173.18,15,1014.75,63,90,90,90,90,7.22,0.75,0.00,0.00,0.00
387,2080,1,5,5,9,37,35.024357,135.766663,222.00,0.00,0.52,0.00,-36.30,1144,17,34,0,-2.50,2.31,173.18,15,1014.77,63,90,90,90,90,7.43,0.45,0.00,0.00,0.00
387,2080,1,5,5,9,37,35.024357,135.766663,222.00,0.00,0.00,0.00,-36.30,1144,17,34,0,-2.50,2.31,173.18,15,1014.77,63,90,90,90,90,7.30,0.72,0.00,0.00,0.00
387,2080,1,5,5,9,37,35.024357,135.766663,222.00,0.00,0.00,0.00,-36.30,1144,17,34,0,-2.50,2.31,173.18,15,1014.77,63,90,90,90,90,7.41,0.59,0.00,0.00,0.00
387,2080,1,5,5,9,37,35.024357,135.766663,222.00,0.00,0.00,0.00,-36.30,1144,17,34,0,-2.50,2.31,173.18,15,1014.79,63,90,90,90,90,7.41,0.59,0.00,0.00,0.00
387,2080,1,5,5,9,37,35.024357,135.766663,222.00,0.00,0.00,0.00,-36.30,1144,17,34,0,-2.50,2.31,173.18,15,1014.75,63,90,90,90,90,7.41,0.59,0.00,0.00,0.00
387,2080,1,5,5,9,37,35.024357,135.766663,222.00,0.00,0.00,0.00,-36.30,1144,17,34,0,-2.50,2.31,173.18,15,1014.76,63,90,90,90,90,7.41,0.59,0.00,0.00,0.00
387,2080,1,5,5,9,37,35.024357,135.766663,222.00,0.00,0.00,0.00,-9.30,1144,17,34,0,-2.50,2.31,173.18,15,1014.76,63,90,90,90,90,7.40,0.35,0.00,0.00,0.00
387,2080,1,5,5,9,37,35.024357,135.766663,222.00,0.00,0.00,0.00,-12.30,1144,17,34,0,-2.50,2.31,173.18,15,1014.76,63,90,90,90,90,7.40,0.33,0.00,0.00,0.00
388,2080,1,5,5,9,37,35.024357,135.766663,222.00,0.00,0.00,0.00,-9.30,1144,17,34,0,-2.50,2.31,173.18,15,1014.79,63,90,90,90,90,7.45,0.48,0.00,0.00,0.00
388,2080,1,5,5,9,37,35.024357,135.766663,222.00,0.00,0.00,0.00,-36.30,1144,17,34,0,-2.50,2.31,173.18,15,1014.78,63,90,90,90,90,7.42,0.37,0.00,0.00,0.00
388,2080,1,5,5,9,37,35.024357,135.766663,222.00,0.00,0.00,0.00,-36.30,1144,17,34,0,-2.50,2.31,173.18,15,1014.78,63,90,90,90,90,7.42,0.37,0.00,0.00,0.00
388,2080,1,5,5,9,37,35.024357,135.766663,222.00,0.00,0.00,0.00,-9.30,1144,17,34,0,-2.50,2.31,173.18,15,1014.79,63,90,90,90,90,7.42,0.37,0.00,0.00,0.00
388,2080,1,5,5,9,37,35.024357,135.766663,222.00,0.00,0.00,0.00,-13.30,1144,17,34,0,-2.50,2.31,173.18,15,1014.76,63,90,90,90,90,7.40,0.43,0.00,0.00,0.00
388,2080,1,5,5,9,37,35.024357,135.766663,222.00,0.00,0.00,0.00,-13.30,1144,17,34,0,-2.50,2.37,173.18,15,1014.76,63,90,90,90,90,7.45,0.40,0.00,0.00,0.00
388,2080,1,5,5,9,37,35.024357,135.766663,222.00,0.00,0.00,0.00,-12.30,1144,17,34,0,-2.50,2.43,173.18,15,1014.76,63,90,90,90,90,7.46,0.33,0.00,0.00,0.00
388,2080,1,5,5,9,37,35.024357,135.766663,222.00,0.00,0.00,0.00,-12.30,1144,17,34,0,-2.50,2.43,173.18,15,1014.76,63,90,90,90,90,7.46,0.33,0.00,0.00,0.00
389,2080,1,5,5,9,37,35.024357,135.766663,222.00,0.00,0.00,0.00,-11.30,1144,17,34,0,-2.50,2.43,173.18,15,1014.76,63,90,90,90,90,7.46,0.33,0.00,0.00,0.00
389,2080,1,5,5,9,37,35.024357,135.766663,222.00,0.00,0.00,0.00,-11.30,1144,17,34,0,-2.50,2.56,173.18,15,1014.76,63,90,90,90,90,7.47,0.35,0.00,0.00,0.00
389,2080,1,5,5,9,37,35.024357,135.766663,222.00,0.00,0.00,0.00,-12.30,1144,17,34,0,-2.50,2.56,173.18,15,1014.76,63,90,90,90,90,7.47,0.35,0.00,0.00,0.00
389,2080,1,5,5,9,37,35.024357,135.766663,222.00,0.00,0.00,0.00,-12.30,1144,17,34,0,-2.50,2.56,173.18,15,1014.76,63,90,90,90,90,7.47,0.35,0.00,0.00,0.00
389,2080,1,5,5,9,37,35.024357,135.766663,222.00,0.00,0.00,0.00,-12.30,1144,17,34,0,-2.50,2.56,173.18,15,1014.76,63,90,90,90,90,7.47,0.35,0.00,0.00,0.00
389,2080,1,5,5,9,37,35.024357,135.766663,222.00,0.00,0.00,0.00,-12.30,1144,17,34,0,-2.50,2.56,173.18,15,1014.78,63,90,90,90,90,7.47,0.35,0.00,0.00,0.00
389,2080,1,5,5,9,37,35.024357,135.766663,222.00,0.00,0.00,0.00,-12.30,1144,17,34,0,-2.50,2.56,173.18,15,1014.79,63,90,90,90,90,7.40,0.75,0.00,0.00,0.00
389,2080,1,5,5,9,37,35.024357,135.766663,222.00,0.00,0.00,0.00,-12.30,1144,17,34,0,-2.50,2.75,173.18,15,1014.79,63,90,90,90,90,7.40,0.75,0.00,0.00,0.00
389,2080,1,5,5,9,37,35.024357,135.766663,222.00,0.00,0.00,0.00,-36.30,1144,17,34,0,-2.50,2.93,173.18,15,1014.80,63,90,90,90,90,7.39,0.41,0.00,0.00,0.00
390,2080,1,5,5,9,37,35.024357,135.766663,222.00,0.00,0.00,0.00,-36.30,1144,17,34,0,-2.50,3.12,173.25,15,1014.80,63,90,90,90,90,7.39,0.41,0.00,0.00,0.00
390,2080,1,5,5,9,37,35.024357,135.766663,222.00,0.00,0.00,0.00,-36.30,1144,17,34,0,-2.50,3.31,173.25,15,1014.80,63,90,90,90,90,7.39,0.41,0.00,0.00,0.00
390,2080,1,5,5,9,37,35.024357,135.766663,222.00,0.00,0.00,0.00,-36.30,1144,17,34,0,-2.50,3.31,173.25,15,1014.80,63,90,90,90,90,7.40,0.54,0.00,0.00,0.00
390,2080,1,5,5,9,37,35.024357,135.766663,222.00,0.00,0.00,0.00,-36.30,1144,17,34,0,-2.50,3.43,173.25,15,1014.82,63,90,90,90,90,7.32,0.36,0.00,0.00,0.00
390,2080,1,5,5,9,37,35.024357,135.766663,222.00,0.00,0.00,0.00,-36.30,1144,17,34,0,-2.50,3.50,173.25,15,1014.82,63,90,90,90,90,7.25,0.51,0.00,0.00,0.00
390,2080,1,5,5,9,37,35.024357,135.766663,222.00,0.00,0.00,0.00,-36.30,1144,17,34,0,-2.50,3.50,173.25,15,1014.79,63,90,90,90,90,7.25,0.51,0.00,0.00,0.00
390,2080,1,5,5,9,37,35.024357,135.766663,222.00,0.00,0.00,0.00,-36.30,1144,17,34,0,-2.50,3.50,173.25,15,1014.79,63,90,90,90,90,7.46,0.30,0.00,0.00,0.00
390,2080,1,5,5,9,37,35.024357,135.766663,222.00,0.00,0.00,0.00,-36.30,1144,17,38,0,-2.50,3.50,173.25,15,1014.79,63,90,90,90,90,7.46,0.30,0.00,0.00,0.00
391,2080,1,5,5,9,37,35.024357,135.766663,222.00,0.00,0.00,0.00,-36.30,1144,17,34,0,-2.50,3.50,173.25,15,1014.80,63,90,90,90,90,7.42,0.61,0.00,0.00,0.00
391,2080,1,5,5,9,37,35.024357,135.766663,222.00,0.00,0.00,0.00,-36.30,1144,17,34,0,-2.50,3.50,173.25,15,1014.82,63,90,90,90,90,7.41,0.22,0.00,0.00,0.00
391,2080,1,5,5,9,37,35.024357,135.766663,222.00,0.00,0.00,0.00,-36.30,1144,17,34,0,-2.50,3.50,173.25,15,1014.79,63,90,90,90,90,7.48,0.30,0.00,0.00,0.00
391,2080,1,5,5,9,37,35.024357,135.766663,222.00,0.00,0.00,0.00,-36.30,1144,17,34,0,-2.50,3.50,173.25,15,1014.80,63,90,90,90,90,7.48,0.27,0.00,0.00,0.00
391,2080,1,5,5,9,37,35.024345,135.779465,222.00,0.00,0.00,0.00,-36.30,1144,17,34,0,-2.50,3.43,173.25,15,1014.80,63,90,90,90,90,7.48,0.27,0.00,0.00,0.00
391,2080,1,5,5,9,37,35.024345,135.779465,57.20,0.00,0.00,0.00,-36.30,1144,17,34,0,-2.50,3.43,173.25,15,1014.81,63,90,90,90,90,7.48,0.27,0.00,0.00,0.00
391,2080,1,5,5,9,50,35.024345,135.779465,57.20,0.00,0.00,0.00,-36.30,1144,17,34,0,-2.50,3.43,173.25,15,1014.81,63,90,90,90,90,7.48,0.27,0.00,0.00,0.00
391,2080,1,5,5,9,50,35.024345,135.779465,57.20,0.00,0.00,0.00,-36.30,1144,17,34,0,-2.50,3.43,173.25,15,1014.83,63,90,90,90,90,7.48,0.27,0.00,0.00,0.00
391,2080,1,5,5,9,50,35.024345,135.779465,57.20,0.00,0.00,0.00,-36.30,1144,17,34,0,-2.50,3.43,173.25,15,1014.82,63,90,90,90,90,7.48,0.27,0.00,0.00,0.00
392,2080,1,5,5,9,50,35.024345,135.779465,57.20,0.00,0.00,0.00,-36.30,1144,17,34,0,-2.50,3.50,173.25,15,1014.83,63,90,90,90,90,7.48,0.27,0.00,0.00,0.00
392,2080,1,5,5,9,50,35.024345,135.779465,57.20,0.00,0.00,0.00,-36.30,1144,17,34,0,-2.50,3.50,173.25,15,1014.80,63,90,90,90,90,7.46,0.48,0.00,0.00,0.00
392,2080,1,5,5,9,50,35.024345,135.779465,57.20,0.00,0.00,0.00,-36.30,1144,17,34,0,-2.50,3.50,173.25,15,1014.80,63,90,90,90,90,7.46,0.31,0.00,0.00,0.00
392,2080,1,5,5,9,50,35.024345,135.779465,57.20,0.00,0.00,0.00,-36.30,1144,17,34,0,-2.50,3.50,173.25,15,1014.80,63,90,90,90,90,7.48,0.20,0.00,0.00,0.00
392,2080,1,5,5,9,50,35.024345,135.779465,57.20,0.00,0.00,0.00,-36.30,1144,17,34,0,-2.50,3.81,173.25,15,1014.81,63,90,90,90,90,7.48,0.20,0.00,0.00,0.00
392,2080,1,5,5,9,50,35.024345,135.779465,57.20,0.00,0.00,0.00,-36.30,1144,17,34,0,-2.50,3.81,173.25,15,1014.82,63,90,90,90,90,7.48,0.20,0.00,0.00,0.00
392,2080,1,5,5,9,50,35.024345,135.779465,57.20,0.00,0.00,0.00,-36.30,1144,17,34,0,-2.50,3.81,173.25,15,1014.81,63,90,90,90,90,7.48,0.20,0.00,0.00,0.00
392,2080,1,5,5,9,50,35.024345,135.779465,57.20,0.00,0.00,0.00,-36.30,1144,17,34,0,-2.50,3.81,173.25,15,1014.81,63,90,90,90,90,7.48,0.20,0.00,0.00,0.00
393,2080,1,5,5,9,50,35.024345,135.779465,57.20,0.00,0.00,0.00,-36.30,1144,17,34,0,-2.50,3.81,173.25,15,1014.81,63,90,90,90,90,7.48,0.24,0.00,0.00,0.00
393,2080,1,5,5,9,50,35.024345,135.779465,57.20,0.00,0.00,0.00,-36.30,1144,17,34,0,-2.50,3.81,173.25,15,1014.79,63,90,90,90,90,7.45,0.36,0.00,0.00,0.00
393,2080,1,5,5,9,50,35.024345,135.779465,57.20,0.00,0.00,0.00,-36.30,1144,17,34,0,-2.50,3.81,173.25,15,1014.79,63,90,90,90,90,7.42,0.42,0.00,0.00,0.00
393,2080,1,5,5,9,50,35.024345,135.779465,57.20,0.00,0.00,0.00,-36.30,1144,17,34,0,-2.50,3.81,173.25,15,1014.82,63,90,90,90,90,7.42,0.42,0.00,0.00,0.00
393,2080,1,5,5,9,50,35.024345,135.779465,57.20,0.00,0.00,0.00,-36.30,1144,17,34,0,-2.50,3.81,173.25,15,1014.83,63,90,90,90,90,7.43,0.61,0.00,0.00,0.00
393,2080,1,5,5,9,50,35.024345,135.779465,57.20,0.00,0.00,0.00,-36.30,1144,17,34,0,-2.50,3.81,173.25,15,1014.81,63,90,90,90,90,7.48,0.25,0.00,0.00,0.00
393,2080,1,5,5,9,50,35.024345,135.779465,57.20,0.00,0.00,0.00,-6.30,1144,17,34,0,-2.50,3.81,173.25,15,1014.81,63,90,90,90,90,7.46,0.38,0.00,0.00,0.00
393,2080,1,5,5,9,50,35.024345,135.779465,57.20,0.00,0.00,0.00,-36.30,1144,17,34,0,-2.50,3.81,173.25,15,1014.81,63,90,90,90,90,7.49,0.23,0.00,0.00,0.00
394,2080,1,5,5,9,50,35.024345,135.779465,57.20,0.00,0.00,0.00,-36.30,1144,17,34,0,-2.50,3.81,173.25,15,1014.80,63,90,90,90,90,7.49,0.23,0.00,0.00,0.00
394,2080,1,5,5,9,50,35.024345,135.779465,57.20,0.00,0.00,0.00,-36.30,1144,17,34,0,-2.50,3.81,173.25,15,1014.80,63,90,90,90,90,7.49,0.23,0.00,0.00,0.00
394,2080,1,5,5,9,50,35.024345,135.779465,57.20,0.00,0.00,0.00,-7.30,1144,17,34,0,-2.50,3.81,173.25,15,1014.79,63,90,90,90,90,7.49,0.23,0.00,0.00,0.00
394,2080,1,5,5,9,50,35.024345,135.779465,57.20,0.00,0.00,0.00,-7.30,1144,17,36,0,-2.50,3.81,173.25,15,1014.79,63,90,90,90,90,7.49,0.23,0.00,0.00,0.00
394,2080,1,5,5,9,50,35.024345,135.779465,57.20,0.00,0.00,0.00,-7.30,1144,17,36,0,-2.50,3.81,173.25,15,1014.79,63,90,90,90,90,7.49,0.23,0.00,0.00,0.00
394,2080,1,5,5,9,50,35.024345,135.779465,57.20,0.00,0.00,0.00,-7.30,1144,17,36,0,-2.50,3.81,173.25,15,1014.79,63,90,90,90,90,7.46,0.43,0.00,0.00,0.00
394,2080,1,5,5,9,50,35.024345,135.779465,57.20,0.00,0.00,0.00,-7.30,1144,17,36,0,-2.50,3.81,173.25,15,1014.80,63,90,90,90,90,7.46,0.34,0.00,0.00,0.00
394,2080,1,5,5,9,50,35.024345,135.779465,57.20,0.00,0.00,0.00,-7.30,1144,17,36,0,-2.50,3.87,173.25,15,1014.80,63,90,90,90,90,7.46,0.39,0.00,0.00,0.00
394,2080,1,5,5,9,50,35.024345,135.779465,57.20,0.00,0.00,0.00,-7.30,1144,17,34,0,-2.50,3.87,173.25,15,1014.80,63,90,90,90,90,7.46,0.39,0.00,0.00,0.00
395,2080,1,5,5,9,50,35.024345,135.779465,57.20,0.00,0.00,0.00,-7.30,1144,17,34,0,-2.50,3.81,173.25,15,1014.82,63,90,90,90,90,7.46,0.39,0.00,0.00,0.00
395,2080,1,5,5,9,50,35.024345,135.779465,57.20,0.00,0.00,0.00,-7.30,1144,17,34,0,-2.44,3.75,173.25,15,1014.79,63,90,90,90,90,7.46,0.39,0.00,0.00,0.00
395,2080,1,5,5,9,50,35.024345,135.779465,57.20,0.00,0.00,0.00,-7.30,1144,17,34,0,-2.44,3.62,173.25,15,1014.79,63,90,90,90,90,7.46,0.28,0.00,0.00,0.00
395,2080,1,5,5,9,50,35.024345,135.779465,57.20,0.00,0.00,0.00,-7.30,1144,17,34,0,-2.44,3.62,173.25,15,1014.79,63,90,90,90,90,7.45,0.39,0.00,0.00,0.00
395,2080,1,5,5,9,50,35.024345,135.779465,57.20,0.00,0.00,0.00,-7.30,1144,17,34,0,-2.44,3.62,173.25,15,1014.81,63,90,90,90,90,7.47,0.28,0.00,0.00,0.00
395,2080,1,5,5,9,50,35.024345,135.779465,57.20,0.00,0.00,0.00,-7.30,1144,17,34,0,-2.50,3.56,173.25,15,1014.81,63,90,90,90,90,7.45,0.54,0.00,0.00,0.00
395,2080,1,5,5,9,50,35.024345,135.779465,57.20,0.00,0.00,0.00,-7.30,1144,17,34,0,-2.50,3.56,173.25,15,1014.84,63,90,90,90,90,7.45,0.54,0.00,0.00,0.00
395,2080,1,5,5,9,50,35.024345,135.779465,57.20,0.00,0.00,0.00,-7.30,1144,17,34,0,-2.50,3.56,173.25,15,1014.82,63,90,90,90,90,7.45,0.54,0.00,0.00,0.00
396,2080,1,5,5,9,50,35.024345,135.779465,57.20,0.00,0.00,0.00,-7.30,1144,17,34,0,-2.50,3.56,173.25,15,1014.78,63,90,90,90,90,7.47,0.27,0.00,0.00,0.00
396,2080,1,5,5,9,50,35.024345,135.779465,57.20,0.00,0.00,0.00,-7.30,1144,17,34,0,-2.50,3.56,173.25,15,1014.81,63,90,90,90,90,7.46,0.34,0.00,0.00,0.00
396,2080,1,5,5,9,50,35.024345,135.779465,57.20,0.00,0.00,0.00,-7.30,1144,17,34,0,-2.50,3.56,173.25,15,1014.77,63,90,90,90,90,7.46,0.54,0.00,0.00,0.00
396,2080,1,5,5,9,50,35.024345,135.779465,57.20,0.00,0.00,0.00,-7.30,1144,17,34,0,-2.50,3.43,173.25,15,1014.78,63,90,90,90,90,7.48,0.35,0.00,0.00,0.00
396,2080,1,5,5,9,50,35.024345,135.779465,57.20,0.00,0.00,0.00,-7.30,1144,17,34,0,-2.50,3.31,173.25,15,1014.81,63,90,90,90,90,7.48,0.35,0.00,0.00,0.00
396,2080,1,5,5,9,50,35.024345,135.779465,57.20,0.00,0.00,0.00,-7.30,1144,17,34,0,-2.50,3.31,173.25,15,1014.83,63,90,90,90,90,7.48,0.21,0.00,0.00,0.00
396,2080,1,5,5,9,50,35.024345,135.779465,57.20,0.00,0.00,0.00,-7.30,1144,17,34,0,-2.50,3.31,173.25,15,1014.81,63,90,90,90,90,7.48,0.21,0.00,0.00,0.00
396,2080,1,5,5,9,50,35.024345,135.779465,57.20,0.00,0.00,0.00,-7.30,1144,17,34,0,-2.44,3.37,173.25,15,1014.81,63,90,90,90,90,7.48,0.21,0.00,0.00,0.00
396,2080,1,5,5,9,50,35.024345,135.779465,57.20,0.00,0.00,0.00,-7.30,1144,17,34,0,-2.44,3.37,173.25,15,1014.76,63,90,90,90,90,7.48,0.21,0.00,0.00,0.00
397,2080,1,5,5,9,50,35.024345,135.779465,57.20,0.00,0.00,0.00,-7.30,1144,17,34,0,-2.44,3.37,173.25,15,1014.78,63,90,90,90,90,7.48,0.21,0.00,0.00,0.00
397,2080,1,5,5,9,50,35.024345,135.779465,57.20,0.00,0.00,0.00,-7.30,1144,17,34,0,-2.50,3.56,173.18,15,1014.79,63,90,90,90,90,7.15,0.70,0.00,0.00,0.00
397,2080,1,5,5,9,50,35.024345,135.779465,57.20,0.00,0.00,0.00,-7.30,1144,17,34,0,-2.50,3.62,173.18,15,1014.80,63,90,90,90,90,7.49,0.16,0.00,0.00,0.00
397,2080,1,5,5,9,50,35.024345,135.779465,57.20,0.00,0.00,0.00,-7.30,1144,17,34,0,-2.44,3.68,173.18,15,1014.81,63,90,90,90,90,7.43,0.21,0.00,0.00,0.00
397,2080,1,5,5,9,50,35.024345,135.779465,57.20,0.00,0.00,0.00,-7.30,1144,17,34,0,-2.44,3.68,173.18,15,1014.81,63,90,90,90,90,7.43,0.21,0.00,0.00,0.00
397,2080,1,5,5,9,50,35.024345,135.779465,57.20,0.00,0.00,0.00,-7.30,1144,17,34,0,-2.50,3.75,173.18,15,1014.81,63,90,90,90,90,7.43,0.21,0.00,0.00,0.00
397,2080,1,5,5,9,50,35.024345,135.779465,57.20,0.00,0.00,0.00,-7.30,1144,17,34,0,-2.50,3.75,173.18,15,1014.80,63,90,90,90,90,7.43,0.21,0.00,0.00,0.00
397,2080,1,5,5,9,50,35.024345,135.779465,57.20,0.00,0.00,0.00,-7.30,1144,17,34,0,-2.50,3.81,173.18,15,1014.80,63,90,90,90,90,7.48,0.26,0.00,0.00,0.00
398,2080,1,5,5,9,50,35.024345,135.779465,57.20,0.00,0.00,0.00,-7.30,1144,17,34,0,-2.44,3.93,173.18,15,1014.80,63,90,90,90,90,7.47,0.24,0.00,0.00,0.00
398,2080,1,5,5,9,50,35.024345,135.779465,57.20,0.00,0.00,0.00,-7.30,1144,17,34,0,-2.44,3.93,173.18,15,1014.80,63,90,90,90,90,7.47,0.24,0.00,0.00,0.00
398,2080,1,5,5,9,50,35.024345,135.779465,57.20,0.00,0.00,0.00,-36.30,1144,17,34,0,-2.44,4.00,173.18,15,1014.79,63,90,90,90,90,7.49,0.24,0.00,0.00,0.00
398,2080,1,5,5,9,50,35.024345,135.779465,57.20,0.00,0.00,0.00,-36.30,1144,17,34,0,-2.44,4.06,173.18,15,1014.79,63,90,90,90,90,7.48,0.28,0.00,0.00,0.00
398,2080,1,5,5,9,50,35.024345,135.779465,57.20,0.00,0.00,0.00,-36.30,1144,17,34,0,-2.44,4.06,173.18,15,1014.78,63,90,90,90,90,7.52,0.12,0.00,0.00,0.00
398,2080,1,5,5,9,50,35.024345,135.779465,57.20,0.00,0.00,0.00,-36.30,1144,17,34,0,-2.44,4.06,173.18,15,1014.78,63,90,90,90,90,7.51,0.16,0.00,0.00,0.00
398,2080,1,5,5,9,50,35.024345,135.779465,57.20,0.00,0.00,0.00,-36.30,1144,17,34,0,-2.44,4.06,173.18,15,1014.79,63,90,90,90,90,7.51,0.16,0.00,0.00,0.00
398,2080,1,5,5,9,50,35.024345,135.779465,57.20,0.00,0.00,0.00,-36.30,1144,17,34,0,-2.44,4.12,173.18,15,1014.77,63,90,90,90,90,7.47,0.45,0.00,0.00,0.00
398,2080,1,5,5,9,50,35.024345,135.779465,57.20,0.00,0.00,0.00,-36.30,1144,17,34,0,-2.44,4.18,173.18,15,1014.77,63,90,90,90,90,7.51,0.19,0.00,0.00,0.00
399,2080,1,5,5,9,50,35.024345,135.779465,57.20,0.00,0.00,0.00,-36.30,1144,17,34,0,-2.44,4.18,173.18,15,1014.77,63,90,90,90,90,7.51,0.19,0.00,0.00,0.00
399,2080,1,5,5,9,50,35.024345,135.779465,57.20,0.00,0.00,0.00,-36.30,1144,17,34,0,-2.44,4.18,173.18,15,1014.77,63,90,90,90,90,7.51,0.19,0.00,0.00,0.00
399,2080,1,5,5,9,50,35.024345,135.779465,57.20,0.00,0.00,0.00,-6.30,1144,17,34,0,-2.44,4.18,173.18,15,1014.79,63,90,90,90,90,7.51,0.19,0.00,0.00,0.00
399,2080,1,5,5,9,50,35.024345,135.779465,57.20,0.00,0.00,0.00,-7.30,1144,17,34,0,-2.44,4.25,173.18,15,1014.78,63,90,90,90,90,7.51,0.19,0.00,0.00,0.00
399,2080,1,5,5,9,50,35.024345,135.779465,57.20,0.00,0.00,0.00,-7.30,1144,17,34,0,-2.44,4.31,173.18,15,1014.79,63,90,90,90,90,7.51,0.19,0.00,0.00,0.00
399,2080,1,5,5,9,50,35.024345,135.779465,57.20,0.00,0.00,0.00,-7.30,1144,17,34,0,-2.44,4.37,173.18,15,1014.78,63,90,90,90,90,7.51,0.19,0.00,0.00,0.00
399,2080,1,5,5,9,50,35.024345,135.779465,57.20,0.00,0.00,0.00,-8.30,1144,17,34,0,-2.44,4.37,173.18,15,1014.77,63,90,90,90,90,7.51,0.12,0.00,0.00,0.00
399,2080,1,5,5,9,50,35.024345,135.779465,57.20,0.00,0.00,0.00,-7.30,1144,17,34,0,-2.44,4.37,173.18,15,1014.80,63,90,90,90,90,7.51,0.12,0.00,0.00,0.00
400,2080,1,5,5,9,50,35.024345,135.779465,57.20,0.00,0.00,0.00,-7.30,1144,17,34,0,-2.44,4.37,173.18,15,1014.79,63,90,90,90,90,7.51,0.12,0.00,0.00,0.00
400,2080,1,5,5,9,50,35.024345,135.779465,57.20,0.00,0.00,0.00,-7.30,1144,17,34,0,-2.44,4.37,173.18,15,1014.79,63,90,90,90,90,7.51,0.12,0.00,0.00,0.00
400,2080,1,5,5,9,50,35.024345,135.779465,57.20,0.00,0.00,0.00,-7.30,1144,17,34,0,-2.44,4.37,173.18,15,1014.79,63,90,90,90,90,7.51,0.12,0.00,0.00,0.00
400,2080,1,5,5,9,50,35.024345,135.779465,57.20,0.00,0.00,0.00,-6.30,1144,17,34,0,-2.44,4.37,173.18,15,1014.78,63,90,90,90,90,7.51,0.12,0.00,0.00,0.00
400,2080,1,5,5,9,50,35.024345,135.779465,57.20,0.00,0.00,0.00,-6.30,1144,17,34,0,-2.44,4.37,173.18,15,1014.78,63,90,90,90,90,7.48,0.51,0.00,0.00,0.00
400,2080,1,5,5,9,50,35.024345,135.779465,57.20,0.00,0.00,0.00,-6.30,1144,17,34,0,-2.44,4.37,173.18,15,1014.78,63,90,90,90,90,7.47,0.23,0.00,0.00,0.00
400,2080,1,5,5,9,50,35.024345,135.779465,57.20,0.00,0.00,0.00,-6.30,1144,17,34,0,-2.44,4.37,173.18,15,1014.78,63,90,90,90,90,7.47,0.23,0.00,0.00,0.00
400,2080,1,5,5,9,50,35.024345,135.779465,57.20,0.00,0.00,0.00,-6.30,1144,17,34,0,-2.44,4.37,173.18,15,1014.79,63,90,90,90,90,7.52,0.17,0.00,0.00,0.00
400,2080,1,5,5,9,50,35.024345,135.779465,57.20,0.00,0.00,0.00,-6.30,1144,17,34,0,-2.44,4.37,173.18,15,1014.77,63,90,90,90,90,7.51,0.13,0.00,0.00,0.00
401,2080,1,5,5,9,50,35.024345,135.779465,57.20,0.00,0.00,0.00,-6.30,1144,17,34,0,-2.44,4.43,173.18,15,1014.76,63,90,90,90,90,7.51,0.13,0.00,0.00,0.00
401,2080,1,5,5,9,50,35.024345,135.779465,57.20,0.00,0.00,0.00,-6.30,1144,17,34,0,-2.44,4.50,173.18,15,1014.77,63,90,90,90,90,7.48,0.35,0.00,0.00,0.00
401,2080,1,5,5,9,50,35.024345,135.779465,57.20,0.00,0.00,0.00,-6.30,1144,17,34,0,-2.44,4.50,173.18,15,1014.76,63,90,90,90,90,7.49,0.40,0.00,0.00,0.00
401,2080,1,5,5,9,50,35.024345,135.779465,57.20,0.00,0.00,0.00,-6.30,1144,17,34,0,-2.44,4.50,173.18,15,1014.78,63,90,90,90,90,7.41,0.54,0.00,0.00,0.00
401,2080,1,5,5,9,50,35.024345,135.779465,57.20,0.00,0.00,0.00,-6.30,1144,17,34,0,-2.44,4.50,173.18,15,1014.80,63,90,90,90,90,7.41,0.54,0.00,0.00,0.00
401,2080,1,5,5,9,50,35.024345,135.779465,57.20,0.00,0.00,0.00,-6.30,1144,17,34,0,-2.44,4.56,173.18,15,1014.78,63,90,90,90,90,7.41,0.54,0.00,0.00,0.00
401,2080,1,5,5,9,50,35.024345,135.779465,57.20,0.00,0.00,0.00,-6.30,1144,17,34,0,-2.44,4.56,173.18,15,1014.80,63,90,90,90,90,7.41,0.54,0.00,0.00,0.00
401,2080,1,5,5,9,50,35.024345,135.779465,57.20,0.00,0.00,0.00,-6.30,1144,17,34,0,-2.44,4.62,173.18,15,1014.79,63,90,90,90,90,7.41,0.54,0.00,0.00,0.00
402,2080,1,5,5,9,50,35.024345,135.779465,57.20,0.00,0.00,0.00,-6.30,1144,17,34,0,-2.38,4.68,173.18,15,1014.82,63,90,90,90,90,7.49,0.20,0.00,0.00,0.00
402,2080,1,5,5,9,50,35.024345,135.779465,57.20,0.00,0.00,0.00,-6.30,1144,17,34,0,-2.44,4.68,173.18,15,1014.82,63,90,90,90,90,7.41,0.33,0.00,0.00,0.00
402,2080,1,5,5,9,50,35.024345,135.779465,57.20,0.00,0.00,0.00,-6.30,1144,17,34,0,-2.44,4.68,173.18,15,1014.81,63,90,90,90,90,7.52,0.14,0.00,0.00,0.00
402,2080,1,5,5,9,50,35.024345,135.779465,57.20,0.00,0.00,0.00,-6.30,1144,17,36,0,-2.44,4.68,173.18,15,1014.78,63,90,90,90,90,7.52,0.14,0.00,0.00,0.00
402,2080,1,5,5,9,50,35.024345,135.779465,57.20,0.00,0.00,0.00,-6.30,1144,17,32,0,-2.38,4.56,173.18,15,1014.79,63,90,90,90,90,7.52,0.14,0.00,0.00,0.00
402,2080,1,5,5,9,50,35.024345,135.779465,57.20,0.00,0.00,0.00,-6.30,1144,17,34,0,-2.38,4.43,173.18,15,1014.75,63,90,90,90,90,7.52,0.14,0.00,0.00,0.00
402,2080,1,5,5,9,50,35.024345,135.779465,57.20,0.00,0.00,0.00,-6.30,1144,17,34,0,-2.38,4.37,173.18,15,1014.75,63,90,90,90,90,7.51,0.18,0.00,0.00,0.00
402,2080,1,5,5,9,50,35.024345,135.779465,57.20,0.00,0.00,0.00,-6.30,1144,17,34,0,-2.38,4.43,173.18,15,1014.77,63,90,90,90,90,7.49,0.33,0.00,0.00,0.00
403,2080,1,5,5,9,50,35.024345,135.779465,57.20,0.00,0.00,0.00,-6.30,1144,17,34,0,-2.38,4.43,173.18,15,1014.78,63,90,90,90,90,7.49,0.20,0.00,0.00,0.00
403,2080,1,5,5,9,50,35.024345,135.779465,57.20,0.00,0.00,0.00,-6.30,1144,17,34,0,-2.38,4.43,173.18,15,1014.77,63,90,90,90,90,7.49,0.20,0.00,0.00,0.00
403,2080,1,5,5,9,50,35.024345,135.779465,57.20,0.00,0.00,0.00,-6.30,1144,17,34,0,-2.38,4.50,173.18,15,1014.78,64,90,90,90,90,7.49,0.20,0.00,0.00,0.00
403,2080,1,5,5,9,50,35.024345,135.779465,57.20,0.00,0.00,0.00,-36.30,1144,17,34,0,-2.38,4.50,173.18,15,1014.78,64,90,90,90,90,7.40,0.30,0.00,0.00,0.00
403,2080,1,5,5,9,50,35.024345,135.779465,57.20,0.00,0.00,0.00,-36.30,1144,17,34,0,-2.38,4.50,173.18,15,1014.79,63,90,90,90,90,7.40,0.30,0.00,0.00,0.00
403,2080,1,5,5,9,50,35.024345,135.779465,57.20,0.00,0.00,0.00,-36.30,1144,17,34,0,-2.38,4.50,173.18,15,1014.76,63,90,90,90,90,7.40,0.30,0.00,0.00,0.00
403,2080,1,5,5,9,50,35.024345,135.779465,57.20,0.00,0.00,0.00,-36.30,1144,17,34,0,-2.38,4.56,173.18,15,1014.79,64,90,90,90,90,7.40,0.30,0.00,0.00,0.00
403,2080,1,5,5,9,50,35.024345,135.779465,57.20,0.00,0.00,0.00,-36.30,1144,17,34,0,-2.38,4.62,173.18,15,1014.76,64,90,90,90,90,7.40,0.30,0.00,0.00,0.00
403,2080,1,5,5,9,50,35.024345,135.779465,57.20,0.00,0.00,0.00,-36.30,1144,17,34,0,-2.38,4.68,173.18,15,1014.75,64,90,90,90,90,7.39,0.27,0.00,0.00,0.00
404,2080,1,5,5,9,50,35.024345,135.779465,57.20,0.00,0.00,0.00,-36.30,1144,17,34,0,-2.38,4.68,173.18,15,1014.78,63,90,90,90,90,7.39,0.27,0.00,0.00,0.00
404,2080,1,5,5,9,50,35.024345,135.779465,57.20,0.00,0.00,0.00,-36.30,1144,17,32,0,-2.38,4.87,173.18,15,1014.80,64,90,90,90,90,7.39,0.27,0.00,0.00,0.00
404,2080,1,5,5,9,50,35.024345,135.779465,57.20,0.00,0.00,0.00,-36.30,1144,17,34,0,-2.38,4.93,173.18,15,1014.79,64,90,90,90,90,7.39,0.27,0.00,0.00,0.00
404,2080,1,5,5,9,50,35.024345,135.779465,57.20,0.00,0.00,0.00,-36.30,1144,17,34,0,-2.38,4.93,173.18,15,1014.79,64,90,90,90,90,7.39,0.27,0.00,0.00,0.00
404,2080,1,5,5,9,50,35.024345,135.779465,57.20,0.00,0.00,0.00,-36.30,1144,17,34,0,-2.38,4.93,173.18,15,1014.79,64,90,90,90,90,7.48,0.30,0.00,0.00,0.00
404,2080,1,5,5,9,50,35.024345,135.779465,57.20,0.00,0.00,0.00,-36.30,1144,17,34,0,-2.38,4.93,173.18,15,1014.77,64,90,90,90,90,7.43,0.38,0.00,0.00,0.00
404,2080,1,5,5,9,50,35.024345,135.779465,57.20,0.00,0.00,0.00,-36.30,1144,17,34,0,-2.44,5.06,173.18,15,1014.77,64,90,90,90,90,7.43,0.38,0.00,0.00,0.00
404,2080,1,5,5,9,50,35.024345,135.779465,57.20,0.00,0.00,0.00,-36.30,1144,17,34,0,-2.44,5.06,173.18,15,1014.79,64,90,90,90,90,7.43,0.38,0.00,0.00,0.00
405,2080,1,5,5,9,50,35.024345,135.779465,57.20,0.00,0.00,0.00,-36.30,1144,17,34,0,-2.44,5.06,173.18,15,1014.79,64,90,90,90,90,7.43,0.38,0.00,0.00,0.00
405,2080,1,5,5,9,50,35.024345,135.779465,57.20,0.00,0.00,0.00,-36.30,1144,17,34,0,-2.44,5.06,173.18,15,1014.80,64,90,90,90,90,7.42,0.38,0.00,0.00,0.00
405,2080,1,5,5,9,50,35.024345,135.779465,57.20,0.00,0.00,0.00,-36.30,1144,17,34,0,-2.44,5.12,173.18,15,1014.79,64,90,90,90,90,7.42,0.38,0.00,0.00,0.00
405,2080,1,5,5,10,4,35.024345,135.779465,57.20,0.00,0.00,0.00,-36.30,1144,17,34,0,-2.44,5.12,173.18,15,1014.79,64,90,90,90,90,7.42,0.38,0.00,0.00,0.00
405,2080,1,5,5,10,4,35.024338,135.779465,57.20,0.00,0.00,0.00,-36.30,1144,17,34,0,-2.44,5.18,173.18,15,1014.79,64,90,90,90,90,7.36,0.79,0.00,0.00,0.00
405,2080,1,5,5,10,4,35.024338,135.779465,57.90,0.00,0.28,0.00,-36.30,1144,17,34,0,-2.44,5.18,173.18,15,1014.78,64,90,90,90,90,7.41,0.45,0.00,0.00,0.00
405,2080,1,5,5,10,4,35.024338,135.779465,57.90,0.00,0.00,0.00,-36.30,1144,17,34,0,-2.44,5.18,173.18,15,1014.80,64,90,90,90,90,7.41,0.45,0.00,0.00,0.00
405,2080,1,5,5,10,4,35.024338,135.779465,57.90,0.00,0.00,0.00,-36.30,1144,17,34,0,-2.44,5.18,173.18,15,1014.79,64,90,90,90,90,7.39,0.63,0.00,0.00,0.00
406,2080,1,5,5,10,4,35.024338,135.779465,57.90,0.00,0.33,0.00,-36.30,1144,17,34,0,-2.44,5.18,173.18,15,1014.77,64,90,90,90,90,7.39,0.63,0.00,0.00,0.00
406,2080,1,5,5,10,4,35.024338,135.779465,57.90,0.00,0.00,0.00,-36.30,1144,17,34,0,-2.44,5.18,173.18,15,1014.79,63,90,90,90,90,7.35,1.16,0.00,0.00,0.00
406,2080,1,5,5,10,4,35.024338,135.779465,57.90,0.00,0.00,0.00,-36.30,1144,17,34,0,-2.44,5.18,173.18,15,1014.77,64,90,90,90,90,7.35,1.16,0.00,0.00,0.00
406,2080,1,5,5,10,4,35.024338,135.779465,57.90,0.00,0.00,0.00,-36.30,1144,17,34,0,-2.44,5.18,173.18,15,1014.78,64,90,90,90,90,7.45,0.31,0.00,0.00,0.00
406,2080,1,5,5,10,4,35.024338,135.779465,57.90,0.00,0.00,0.00,-36.30,1144,17,34,0,-2.44,5.18,173.18,15,1014.80,64,90,90,90,90,7.45,0.31,0.00,0.00,0.00
406,2080,1,5,5,10,4,35.024338,135.779465,57.90,0.00,0.00,0.00,-36.30,1144,17,34,0,-2.44,5.18,173.18,15,1014.81,64,90,90,90,90,7.45,0.31,0.00,0.00,0.00
406,2080,1,5,5,10,4,35.024338,135.779465,57.90,0.00,0.00,0.00,-36.30,1144,17,34,0,-2.44,5.18,173.18,15,1014.81,64,90,90,90,90,7.45,0.31,0.00,0.00,0.00
406,2080,1,5,5,10,4,35.024338,135.779465,57.90,0.00,0.00,0.00,-36.30,1144,17,34,0,-2.44,5.18,173.18,15,1014.78,63,90,90,90,90,7.45,0.31,0.00,0.00,0.00
406,2080,1,5,5,10,4,35.024338,135.779465,57.90,0.00,0.00,0.00,-36.30,1144,17,34,0,-2.44,5.18,173.18,15,1014.77,64,90,90,90,90,7.46,0.25,0.00,0.00,0.00
407,2080,1,5,5,10,4,35.024338,135.779465,57.90,0.00,0.00,0.00,-36.30,1144,17,34,0,-2.44,5.18,173.18,15,1014.78,64,90,90,90,90,7.23,0.31,0.00,0.00,0.00
407,2080,1,5,5,10,4,35.024338,135.779465,57.90,0.00,0.00,0.00,-36.30,1144,17,34,0,-2.44,5.18,173.18,15,1014.79,64,90,90,90,90,7.23,0.31,0.00,0.00,0.00
407,2080,1,5,5,10,4,35.024338,135.779465,57.90,0.00,0.00,0.00,-36.30,1144,17,34,0,-2.44,5.18,173.18,15,1014.79,64,90,90,90,90,7.41,0.80,0.00,0.00,0.00
407,2080,1,5,5,10,4,35.024338,135.779465,57.90,0.00,0.00,0.00,-36.30,1144,17,34,0,-2.44,5.18,173.18,15,1014.77,64,90,90,90,90,7.41,0.80,0.00,0.00,0.00
407,2080,1,5,5,10,4,35.024338,135.779465,57.90,0.00,0.00,0.00,-36.30,1144,17,34,0,-2.44,5.18,173.18,15,1014.76,64,90,90,90,90,7.45,0.37,0.00,0.00,0.00
407,2080,1,5,5,10,4,35.024338,135.779465,57.90,0.00,0.00,0.00,-36.30,1144,17,34,0,-2.44,5.18,173.18,15,1014.78,64,90,90,90,90,7.47,0.28,0.00,0.00,0.00
407,2080,1,5,5,10,4,35.024338,135.779465,57.90,0.00,0.00,0.00,-36.30,1144,17,34,0,-2.44,5.31,173.18,15,1014.78,64,90,90,90,90,7.47,0.28,0.00,0.00,0.00
407,2080,1,5,5,10,4,35.024338,135.779465,57.90,0.00,0.00,0.00,-36.30,1144,17,34,0,-2.44,5.43,173.18,15,1014.77,64,90,90,90,90,7.38,0.23,0.00,0.00,0.00
408,2080,1,5,5,10,4,35.024338,135.779465,57.90,0.00,0.00,0.00,-36.30,1144,17,34,0,-2.44,5.56,173.18,15,1014.77,64,90,90,90,90,7.43,0.45,0.00,0.00,0.00
408,2080,1,5,5,10,4,35.024338,135.779465,57.90,0.00,0.00,0.00,-36.30,1144,17,34,0,-2.44,5.56,173.18,15,1014.79,64,90,90,90,90,7.43,0.45,0.00,0.00,0.00
408,2080,1,5,5,10,4,35.024338,135.779465,57.90,0.00,0.00,0.00,-36.30,1144,17,34,0,-2.44,5.56,173.18,15,1014.78,64,90,90,90,90,7.43,0.38,0.00,0.00,0.00
408,2080,1,5,5,10,4,35.024338,135.779465,57.90,0.00,0.00,0.00,-36.30,1144,17,34,0,-2.44,5.56,173.18,15,1014.79,64,90,90,90,90,7.43,0.38,0.00,0.00,0.00
408,2080,1,5,5,10,4,35.024338,135.779465,57.90,0.00,0.00,0.00,-36.30,1144,17,34,0,-2.44,5.56,173.18,15,1014.78,64,90,90,90,90,7.42,0.73,0.00,0.00,0.00
408,2080,1,5,5,10,4,35.024338,135.779465,57.90,0.00,0.00,0.00,-36.30,1144,17,34,0,-2.44,5.56,173.18,15,1014.78,64,90,90,90,90,7.46,0.19,0.00,0.00,0.00
408,2080,1,5,5,10,4,35.024338,135.779465,57.90,0.00,0.00,0.00,-36.30,1144,17,34,0,-2.44,5.56,173.18,15,1014.75,64,90,90,90,90,7.46,0.19,0.00,0.00,0.00
408,2080,1,5,5,10,4,35.024338,135.779465,57.90,0.00,0.00,0.00,-36.30,1144,17,34,0,-2.44,5.56,173.18,15,1014.76,64,90,90,90,90,7.46,0.19,0.00,0.00,0.00
409,2080,1,5,5,10,4,35.024338,135.779465,57.90,0.00,0.00,0.00,-36.30,1144,17,34,0,-2.44,5.56,173.18,15,1014.78,64,90,90,90,90,7.46,0.19,0.00,0.00,0.00
409,2080,1,5,5,10,4,35.024338,135.779465,57.90,0.00,0.00,0.00,-60.30,1144,17,34,0,-2.44,5.56,173.18,15,1014.81,64,90,90,90,90,7.46,0.19,0.00,0.00,0.00
409,2080,1,5,5,10,4,35.024338,135.779465,57.90,0.00,0.00,0.00,-61.30,1144,17,34,0,-2.44,5.56,173.18,15,1014.79,64,90,90,90,90,7.46,0.19,0.00,0.00,0.00
409,2080,1,5,5,10,4,35.024338,135.779465,57.90,0.00,0.00,0.00,-60.30,1144,17,34,0,-2.38,5.43,173.18,15,1014.79,64,90,90,90,90,7.46,0.19,0.00,0.00,0.00
409,2080,1,5,5,10,4,35.024338,135.779465,57.90,0.00,0.00,0.00,-61.30,1144,17,34,0,-2.38,5.37,173.18,15,1014.77,64,90,90,90,90,7.48,0.32,0.00,0.00,0.00
409,2080,1,5,5,10,4,35.024338,135.779465,57.90,0.00,0.00,0.00,-60.30,1144,17,34,0,-2.38,5.25,173.18,15,1014.81,64,90,90,90,90,7.48,0.32,0.00,0.00,0.00
409,2080,1,5,5,10,4,35.024338,135.779465,57.90,0.00,0.00,0.00,-60.30,1144,17,34,0,-2.38,5.25,173.18,15,1014.78,64,90,90,90,90,7.47,0.30,0.00,0.00,0.00
409,2080,1,5,5,10,4,35.024338,135.779465,57.90,0.00,0.00,0.00,-60.30,1144,17,34,0,-2.38,5.25,173.18,15,1014.78,64,90,90,90,90,7.47,0.30,0.00,0.00,0.00
410,2080,1,5,5,10,4,35.024338,135.779465,57.90,0.00,0.00,0.00,-60.30,1144,17,34,0,-2.38,5.25,173.18,15,1014.75,64,90,90,90,90,7.47,0.30,0.00,0.00,0.00
410,2080,1,5,5,10,4,35.024338,135.779465,57.90,0.00,0.00,0.00,-36.30,1144,17,34,0,-2.50,5.18,173.18,15,1014.76,64,90,90,90,90,7.47,0.30,0.00,0.00,0.00
410,2080,1,5,5,10,4,35.024338,135.779465,57.90,0.00,0.00,0.00,-36.30,1144,17,34,0,-2.50,5.25,173.18,15,1014.78,64,90,90,90,90,7.52,0.05,0.00,0.00,0.00
410,2080,1,5,5,10,4,35.024338,135.779465,57.90,0.00,0.00,0.00,-36.30,1144,17,34,0,-2.50,5.25,173.18,15,1014.78,64,90,90,90,90,7.52,0.05,0.00,0.00,0.00
410,2080,1,5,5,10,4,35.024338,135.779465,57.90,0.00,0.00,0.00,-36.30,1144,17,34,0,-2.44,5.25,173.18,15,1014.78,64,90,90,90,90,7.34,0.88,0.00,0.00,0.00
410,2080,1,5,5,10,4,35.024338,135.779465,57.90,0.00,0.00,0.00,-36.30,1144,17,34,0,-2.44,5.25,173.18,15,1014.77,64,90,90,90,90,7.49,0.10,0.00,0.00,0.00
410,2080,1,5,5,10,4,35.024338,135.779465,57.90,0.00,0.00,0.00,-36.30,1144,17,34,0,-2.44,5.25,173.18,15,1014.78,64,90,90,90,90,7.49,0.10,0.00,0.00,0.00
410,2080,1,5,5,10,4,35.024338,135.779465,57.90,0.00,0.00,0.00,-36.30,1144,17,34,0,-2.44,5.31,173.18,15,1014.77,64,90,90,90,90,7.53,0.06,0.00,0.00,0.00
410,2080,1,5,5,10,4,35.024338,135.779465,57.90,0.00,0.00,0.00,-36.30,1144,17,34,0,-2.44,5.31,173.18,15,1014.75,64,90,90,90,90,7.53,0.06,0.00,0.00,0.00
411,2080,1,5,5,10,4,35.024338,135.779465,57.90,0.00,0.00,0.00,-36.30,1144,17,34,0,-2.44,5.31,173.18,15,1014.75,64,90,90,90,90,7.48,0.12,0.00,0.00,0.00
411,2080,1,5,5,10,4,35.024338,135.779465,57.90,0.00,0.00,0.00,-36.30,1144,17,34,0,-2.44,5.31,173.18,15,1014.75,64,90,90,90,90,7.46,0.59,0.00,0.00,0.00
411,2080,1,5,5,10,4,35.024338,135.779465,57.90,0.00,0.00,0.00,-36.30,1144,17,34,0,-2.44,5.31,173.18,15,1014.75,64,90,90,90,90,7.48,0.20,0.00,0.00,0.00
411,2080,1,5,5,10,4,35.024338,135.779465,57.90,0.00,0.00,0.00,-36.30,1144,17,34,0,-2.44,5.31,173.18,15,1014.78,64,90,90,90,90,7.48,0.20,0.00,0.00,0.00
411,2080,1,5,5,10,4,35.024338,135.779465,57.90,0.00,0.00,0.00,-36.30,1144,17,34,0,-2.44,5.31,173.18,15,1014.79,64,90,90,90,90,7.48,0.20,0.00,0.00,0.00
411,2080,1,5,5,10,4,35.024338,135.779465,57.90,0.00,0.00,0.00,-36.30,1144,17,34,0,-2.44,5.31,173.18,15,1014.76,64,90,90,90,90,7.48,0.20,0.00,0.00,0.00
411,2080,1,5,5,10,4,35.024338,135.779465,57.90,0.00,0.00,0.00,-36.30,1144,17,34,0,-2.44,5.31,173.18,15,1014.76,64,90,90,90,90,7.48,0.20,0.00,0.00,0.00
411,2080,1,5,5,10,4,35.024338,135.779465,57.90,0.00,0.00,0.00,-36.30,1144,17,34,0,-2.44,5.31,173.18,15,1014.76,64,90,90,90,90,7.51,0.19,0.00,0.00,0.00
412,2080,1,5,5,10,4,35.024338,135.779465,57.90,0.00,0.00,0.00,-36.30,1144,17,34,0,-2.44,5.31,173.18,15,1014.77,64,90,90,90,90,7.48,0.25,0.00,0.00,0.00
412,2080,1,5,5,10,4,35.024338,135.779465,57.90,0.00,0.00,0.00,-36.30,1144,17,34,0,-2.44,5.31,173.18,15,1014.77,64,90,90,90,90,7.46,0.52,0.00,0.00,0.00
412,2080,1,5,5,10,4,35.024338,135.779465,57.90,0.00,0.00,0.00,-36.30,1144,17,34,0,-2.44,5.31,173.18,15,1014.79,64,90,90,90,90,7.46,0.52,0.00,0.00,0.00
412,2080,1,5,5,10,4,35.024338,135.779465,57.90,0.00,0.00,0.00,-36.30,1144,17,34,0,-2.44,5.37,173.18,15,1014.79,64,90,90,90,90,7.46,0.52,0.00,0.00,0.00
412,2080,1,5,5,10,4,35.024338,135.779465,57.90,0.00,0.00,0.00,-36.30,1144,17,34,0,-2.44,5.37,173.18,15,1014.78,64,90,90,90,90,7.49,0.16,0.00,0.00,0.00
412,2080,1,5,5,10,4,35.024338,135.779465,57.90,0.00,0.00,0.00,-36.30,1144,17,34,0,-2.44,5.37,173.18,15,1014.77,64,90,90,90,90,7.49,0.36,0.00,0.00,0.00
412,2080,1,5,5,10,4,35.024338,135.779465,57.90,0.00,0.16,0.00,-36.30,1144,17,34,0,-2.44,5.43,173.18,15,1014.77,64,90,90,90,90,7.47,0.36,0.00,0.00,0.00
412,2080,1,5,5,10,4,35.024338,135.779465,57.90,0.00,0.00,0.00,-36.30,1144,17,34,0,-2.44,5.43,173.18,15,1014.77,64,90,90,90,90,7.47,0.36,0.00,0.00,0.00
413,2080,1,5,5,10,4,35.024338,135.779465,57.90,0.00,0.00,0.00,-36.30,1144,17,34,0,-2.44,5.43,173.18,15,1014.78,64,90,90,90,90,7.49,0.26,0.00,0.00,0.00
413,2080,1,5,5,10,4,35.024338,135.779465,57.90,0.00,0.00,0.00,-36.30,1144,17,34,0,-2.44,5.43,173.18,15,1014.78,64,90,90,90,90,7.49,0.26,0.00,0.00,0.00
413,2080,1,5,5,10,4,35.024338,135.779465,57.90,0.00,0.00,0.00,-36.30,1144,17,34,0,-2.44,5.43,173.18,15,1014.79,64,90,90,90,90,7.48,0.20,0.00,0.00,0.00
413,2080,1,5,5,10,4,35.024338,135.779465,57.90,0.00,0.00,0.00,-36.30,1144,17,34,0,-2.44,5.43,173.18,15,1014.80,64,90,90,90,90,7.52,0.10,0.00,0.00,0.00
413,2080,1,5,5,10,4,35.024338,135.779465,57.90,0.00,0.00,0.00,-36.30,1144,17,34,0,-2.44,5.43,173.18,15,1014.76,64,90,90,90,90,7.52,0.10,0.00,0.00,0.00
413,2080,1,5,5,10,4,35.024338,135.779465,57.90,0.00,0.00,0.00,-36.30,1144,17,34,0,-2.44,5.43,173.18,15,1014.79,64,90,90,90,90,7.51,0.22,0.00,0.00,0.00
413,2080,1,5,5,10,4,35.024338,135.779465,57.90,0.00,0.00,0.00,-36.30,1144,17,34,0,-2.44,5.43,173.18,15,1014.80,64,90,90,90,90,7.51,0.13,0.00,0.00,0.00
413,2080,1,5,5,10,4,35.024338,135.779465,57.90,0.00,0.00,0.00,-36.30,1144,17,34,0,-2.44,5.43,173.18,15,1014.80,64,90,90,90,90,7.51,0.13,0.00,0.00,0.00
413,2080,1,5,5,10,4,35.024338,135.779465,57.90,0.00,0.00,0.00,-36.30,1144,17,34,0,-2.44,5.43,173.18,15,1014.80,64,90,90,90,90,7.51,0.13,0.00,0.00,0.00
414,2080,1,5,5,10,4,35.024338,135.779465,57.90,0.00,0.00,0.00,-36.30,1144,17,34,0,-2.44,5.56,173.18,15,1014.78,64,90,90,90,90,7.51,0.13,0.00,0.00,0.00
414,2080,1,5,5,10,4,35.024338,135.779465,57.90,0.00,0.00,0.00,-36.30,1144,17,34,0,-2.44,5.56,173.18,15,1014.80,64,90,90,90,90,7.51,0.13,0.00,0.00,0.00
414,2080,1,5,5,10,4,35.024338,135.779465,57.90,0.00,0.00,0.00,-36.30,1144,17,34,0,-2.44,5.56,173.18,15,1014.79,64,90,90,90,90,7.51,0.14,0.00,0.00,0.00
414,2080,1,5,5,10,4,35.024338,135.779465,57.90,0.00,0.00,0.00,-36.30,1144,17,34,0,-2.44,5.56,173.18,15,1014.79,64,90,90,90,90,7.49,0.16,0.00,0.00,0.00
414,2080,1,5,5,10,4,35.024338,135.779465,57.90,0.00,0.00,0.00,-36.30,1144,17,34,0,-2.38,5.50,173.18,15,1014.76,64,90,90,90,90,7.45,0.21,0.00,0.00,0.00
414,2080,1,5,5,10,4,35.024338,135.779465,57.90,0.00,0.00,0.00,-36.30,1144,17,34,0,-2.38,5.50,173.18,15,1014.80,64,90,90,90,90,7.45,0.21,0.00,0.00,0.00
414,2080,1,5,5,10,4,35.024338,135.779465,57.90,0.00,0.00,0.00,-36.30,1144,17,34,0,-2.38,5.43,173.18,15,1014.80,64,90,90,90,90,7.45,0.21,0.00,0.00,0.00
414,2080,1,5,5,10,4,35.024338,135.779465,57.90,0.00,0.00,0.00,-36.30,1144,17,34,0,-2.38,5.50,173.18,15,1014.78,64,90,90,90,90,7.45,0.21,0.00,0.00,0.00
415,2080,1,5,5,10,4,35.024338,135.779465,57.90,0.00,0.00,0.00,-36.30,1144,17,34,0,-2.38,5.50,173.18,15,1014.78,64,90,90,90,90,7.52,0.14,0.00,0.00,0.00
415,2080,1,5,5,10,4,35.024338,135.779465,57.90,0.00,0.00,0.00,-36.30,1144,17,34,0,-2.38,5.50,173.18,15,1014.78,64,90,90,90,90,7.47,0.44,0.00,0.00,0.00
415,2080,1,5,5,10,4,35.024338,135.779465,57.90,0.00,0.00,0.00,-36.30,1144,17,34,0,-2.38,5.62,173.18,15,1014.77,64,90,90,90,90,7.49,0.19,0.00,0.00,0.00
415,2080,1,5,5,10,4,35.024338,135.779465,57.90,0.00,0.00,0.00,-36.30,1144,17,34,0,-2.38,5.75,173.18,15,1014.75,64,90,90,90,90,7.49,0.19,0.00,0.00,0.00
415,2080,1,5,5,10,4,35.024338,135.779465,57.90,0.00,0.00,0.00,-36.30,1144,17,34,0,-2.38,5.81,173.18,15,1014.75,64,90,90,90,90,7.49,0.21,0.00,0.00,0.00
415,2080,1,5,5,10,4,35.024338,135.779465,57.90,0.00,0.00,0.00,-36.30,1144,17,34,0,-2.38,5.87,173.18,15,1014.75,64,90,90,90,90,7.51,0.11,0.00,0.00,0.00
415,2080,1,5,5,10,4,35.024338,135.779465,57.90,0.00,0.16,0.00,-36.30,1144,17,34,0,-2.38,5.87,173.18,15,1014.78,64,90,90,90,90,7.46,0.28,0.00,0.00,0.00
415,2080,1,5,5,10,4,35.024338,135.779465,57.90,0.00,0.00,0.00,-36.30,1144,17,34,0,-2.38,5.87,173.18,15,1014.78,64,90,90,90,90,7.51,0.25,0.00,0.00,0.00
416,2080,1,5,5,10,4,35.024338,135.779465,57.90,0.00,0.00,0.00,-36.30,1144,17,32,0,-2.38,5.87,173.18,15,1014.77,64,90,90,90,90,7.51,0.25,0.00,0.00,0.00
416,2080,1,5,5,10,4,35.024338,135.779465,57.90,0.00,0.16,0.00,-36.30,1144,17,32,0,-2.38,5.87,173.18,15,1014.78,64,90,90,90,90,7.52,0.12,0.00,0.00,0.00
416,2080,1,5,5,10,4,35.024338,135.779465,57.90,0.00,0.00,0.00,-36.30,1144,17,32,0,-2.38,5.87,173.18,15,1014.78,64,90,90,90,90,7.52,0.12,0.00,0.00,0.00
416,2080,1,5,5,10,4,35.024338,135.779465,57.90,0.00,0.00,0.00,-36.30,1144,17,32,0,-2.38,5.87,173.18,15,1014.78,64,90,90,90,90,7.52,0.12,0.00,0.00,0.00
416,2080,1,5,5,10,4,35.024338,135.779465,57.90,0.00,0.00,0.00,-36.30,1144,17,32,0,-2.38,5.87,173.18,15,1014.79,64,90,90,90,90,7.52,0.12,0.00,0.00,0.00
416,2080,1,5,5,10,4,35.024338,135.779465,57.90,0.00,0.00,0.00,-36.30,1144,17,34,0,-2.38,5.87,173.18,15,1014.79,64,90,90,90,90,7.52,0.12,0.00,0.00,0.00
416,2080,1,5,5,10,4,35.024338,135.779465,57.90,0.00,0.00,0.00,-36.30,1144,17,34,0,-2.38,5.87,173.18,15,1014.79,64,90,90,90,90,7.52,0.12,0.00,0.00,0.00
416,2080,1,5,5,10,4,35.024338,135.779465,57.90,0.00,0.00,0.00,-36.30,1144,17,34,0,-2.38,5.87,173.18,15,1014.79,64,90,90,90,90,7.52,0.12,0.00,0.00,0.00
416,2080,1,5,5,10,4,35.024338,135.779465,57.90,0.00,0.00,0.00,-36.30,1144,17,34,0,-2.38,5.87,173.18,15,1014.78,64,90,90,90,90,7.49,0.32,0.00,0.00,0.00
417,2080,1,5,5,10,4,35.024338,135.779465,57.90,0.00,0.00,0.00,-36.30,1144,17,34,0,-2.38,5.87,173.18,15,1014.77,64,90,90,90,90,7.49,0.32,0.00,0.00,0.00
417,2080,1,5,5,10,4,35.024338,135.779465,57.90,0.00,0.00,0.00,-36.30,1144,17,34,0,-2.38,5.93,173.18,15,1014.77,64,90,90,90,90,7.49,0.32,0.00,0.00,0.00
417,2080,1,5,5,10,4,35.024338,135.779465,57.90,0.00,0.00,0.00,-36.30,1144,17,34,0,-2.38,5.93,173.18,15,1014.78,64,90,90,90,90,7.49,0.32,0.00,0.00,0.00
417,2080,1,5,5,10,4,35.024338,135.779465,57.90,0.00,0.00,0.00,-36.30,1144,17,34,0,-2.38,6.00,173.18,15,1014.78,64,90,90,90,90,7.49,0.32,0.00,0.00,0.00
417,2080,1,5,5,10,4,35.024338,135.779465,57.90,0.00,0.00,0.00,-36.30,1144,17,34,0,-2.38,6.00,173.18,15,1014.76,64,90,90,90,90,7.51,0.21,0.00,0.00,0.00
417,2080,1,5,5,10,4,35.024338,135.779465,57.90,0.00,0.00,0.00,-36.30,1144,17,34,0,-2.38,6.00,173.18,15,1014.77,64,90,90,90,90,7.48,0.27,0.00,0.00,0.00
417,2080,1,5,5,10,4,35.024338,135.779465,57.90,0.00,0.00,0.00,-36.30,1144,17,34,0,-2.38,6.00,173.18,15,1014.78,64,90,90,90,90,7.51,0.10,0.00,0.00,0.00
417,2080,1,5,5,10,4,35.024338,135.779465,57.90,0.00,0.00,0.00,-36.30,1144,17,34,0,-2.38,6.00,173.18,15,1014.79,64,90,90,90,90,7.51,0.10,0.00,0.00,0.00
418,2080,1,5,5,10,4,35.024338,135.779465,57.90,0.00,0.00,0.00,-36.30,1144,17,34,0,-2.38,6.00,173.18,15,1014.79,64,90,90,90,90,7.51,0.10,0.00,0.00,0.00
418,2080,1,5,5,10,4,35.024338,135.779465,57.90,0.00,0.00,0.00,-36.30,1144,17,34,0,-2.38,6.00,173.18,15,1014.80,64,90,90,90,90,7.51,0.32,0.00,0.00,0.00
418,2080,1,5,5,10,4,35.024338,135.779465,57.90,0.00,0.00,0.00,-36.30,1144,17,34,0,-2.38,6.00,173.18,15,1014.77,64,90,90,90,90,7.47,0.25,0.00,0.00,0.00
418,2080,1,5,5,10,4,35.024338,135.779465,57.90,0.00,0.00,0.00,-36.30,1144,17,34,0,-2.38,6.00,173.18,15,1014.76,64,90,90,90,90,7.47,0.25,0.00,0.00,0.00
418,2080,1,5,5,10,4,35.024338,135.779465,57.90,0.00,0.00,0.00,-36.30,1144,17,34,0,-2.38,6.00,173.18,15,1014.77,64,90,90,90,90,7.52,0.12,0.00,0.00,0.00
418,2080,1,5,5,10,4,35.024338,135.779465,57.90,0.00,0.00,0.00,-36.30,1144,17,34,0,-2.38,6.00,173.18,15,1014.77,64,90,90,90,90,7.51,0.25,0.00,0.00,0.00
418,2080,1,5,5,10,4,35.024338,135.779465,57.90,0.00,0.00,0.00,-36.30,1144,17,34,0,-2.38,6.00,173.18,15,1014.77,64,90,90,90,90,7.51,0.25,0.00,0.00,0.00
418,2080,1,5,5,10,4,35.024338,135.779465,57.90,0.00,0.00,0.00,-36.30,1144,17,34,0,-2.38,6.00,173.25,15,1014.78,64,90,90,90,90,7.51,0.25,0.00,0.00,0.00
419,2080,1,5,5,10,4,35.024338,135.779465,57.90,0.00,0.00,0.00,-36.30,1144,17,34,0,-2.38,5.93,173.37,15,1014.76,64,90,90,90,90,7.51,0.25,0.00,0.00,0.00
419,2080,1,5,5,10,4,35.024338,135.779465,57.90,0.00,0.00,0.00,-36.30,1144,17,34,0,-2.38,5.81,173.50,15,1014.76,64,90,90,90,90,7.51,0.25,0.00,0.00,0.00
419,2080,1,5,5,10,4,35.024338,135.779465,57.90,0.00,0.33,0.00,-36.30,1144,17,34,0,-2.38,5.81,173.50,15,1014.76,64,90,90,90,90,7.51,0.25,0.00,0.00,0.00
419,2080,1,5,5,10,4,35.024338,135.779465,57.90,0.00,0.33,0.00,-36.30,1144,17,34,0,-2.38,5.62,173.56,15,1014.75,64,90,90,90,90,7.49,0.32,0.00,0.00,0.00
419,2080,1,5,5,10,4,35.024338,135.779465,57.90,0.00,0.33,0.00,-36.30,1144,17,34,0,-2.38,5.56,173.75,15,1014.77,64,90,90,90,90,7.48,0.34,0.00,0.00,0.00
419,2080,1,5,5,10,4,35.024338,135.779465,57.90,0.00,0.33,0.00,-36.30,1144,17,34,0,-2.38,5.56,173.81,15,1014.79,64,90,90,90,90,7.48,0.34,0.00,0.00,0.00
419,2080,1,5,5,10,4,35.024338,135.779465,57.90,0.00,0.33,0.00,-36.30,1144,17,34,0,-2.38,5.56,173.87,15,1014.79,64,90,90,90,90,7.48,0.34,0.00,0.00,0.00
419,2080,1,5,5,10,4,35.024338,135.779465,57.90,0.00,0.33,0.00,-36.30,1144,17,34,0,-2.38,5.43,174.00,15,1014.80,64,90,90,90,90,7.48,0.34,0.00,0.00,0.00
419,2080,1,5,5,10,4,35.024338,135.779465,57.90,0.00,0.33,0.00,-36.30,1144,17,34,0,-2.38,5.43,174.00,15,1014.79,64,90,90,90,90,7.51,0.30,0.00,0.00,0.00
420,2080,1,5,5,10,4,35.024338,135.779465,57.90,0.00,0.33,0.00,-36.30,1144,17,34,0,-2.38,5.31,174.18,15,1014.79,63,90,90,90,90,7.51,0.26,0.00,0.00,0.00
420,2080,1,5,5,10,4,35.024338,135.779465,57.90,0.00,0.33,0.00,-36.30,1144,17,34,0,-2.38,5.31,174.18,15,1014.80,64,90,90,90,90,7.53,0.08,0.00,0.00,0.00
420,2080,1,5,5,10,4,35.024330,135.779465,57.90,0.00,0.33,0.00,-36.30,1144,17,34,0,-2.38,5.31,174.18,15,1014.80,64,90,90,90,90,7.53,0.10,0.00,0.00,0.00
420,2080,1,5,5,10,4,35.024330,135.779465,58.60,0.00,0.33,0.00,-36.30,1144,17,34,0,-2.38,5.31,174.18,15,1014.77,63,90,90,90,90,7.53,0.10,0.00,0.00,0.00
420,2080,1,5,5,10,4,35.024330,135.779465,58.60,0.00,0.33,0.00,-36.30,1144,17,34,0,-2.38,5.31,174.18,15,1014.78,63,90,90,90,90,7.53,0.13,0.00,0.00,0.00
420,2080,1,5,5,10,19,35.024330,135.779465,58.60,0.00,0.33,0.00,-36.30,1144,17,34,0,-2.38,5.31,174.18,15,1014.76,63,90,90,90,90,7.53,0.13,0.00,0.00,0.00
420,2080,1,5,5,10,19,35.024330,135.779465,58.60,0.00,0.33,0.00,-36.30,1144,17,32,0,-2.38,5.37,174.12,15,1014.77,63,90,90,90,90,7.54,0.08,0.00,0.00,0.00
420,2080,1,5,5,10,19,35.024330,135.779465,58.60,0.00,0.33,0.00,-36.30,1144,17,34,0,-2.38,5.43,174.06,15,1014.76,63,90,90,90,90,7.54,0.06,0.00,0.00,0.00
421,2080,1,5,5,10,19,35.024330,135.779465,58.60,0.00,0.00,0.00,-36.30,1144,17,34,0,-2.38,5.43,174.06,15,1014.80,63,90,90,90,90,7.52,0.17,0.00,0.00,0.00
421,2080,1,5,5,10,19,35.024330,135.779465,58.60,0.00,0.00,0.00,-36.30,1144,17,34,0,-2.38,5.43,174.06,15,1014.80,64,90,90,90,90,7.53,0.14,0.00,0.00,0.00
421,2080,1,5,5,10,19,35.024330,135.779465,58.60,0.00,0.16,0.00,-36.30,1144,17,34,0,-2.32,6.12,173.50,15,1014.79,64,90,90,90,90,7.53,0.14,0.00,0.00,0.00
421,2080,1,5,5,10,19,35.024330,135.779465,58.60,0.00,0.33,0.00,-36.30,1144,17,34,0,-2.32,6.37,173.31,15,1014.76,64,90,90,90,90,7.53,0.14,0.00,0.00,0.00
421,2080,1,5,5,10,19,35.024330,135.779465,58.60,0.00,0.28,0.00,-36.30,1144,17,32,0,-2.32,6.56,173.12,15,1014.79,64,90,90,90,90,7.53,0.14,0.00,0.00,0.00
421,2080,1,5,5,10,19,35.024330,135.779465,58.60,0.00,0.00,0.00,-36.30,1144,17,32,0,-2.32,6.56,173.12,15,1014.79,64,90,90,90,90,7.53,0.14,0.00,0.00,0.00
421,2080,1,5,5,10,19,35.024330,135.779465,58.60,0.00,0.00,0.00,-36.30,1144,17,32,0,-2.32,6.56,173.12,15,1014.76,64,90,90,90,90,7.53,0.14,0.00,0.00,0.00
421,2080,1,5,5,10,19,35.024330,135.779465,58.60,0.00,0.00,0.00,-36.30,1144,17,32,0,-2.25,6.75,173.06,15,1014.77,64,90,90,90,90,7.52,0.13,0.00,0.00,0.00
422,2080,1,5,5,10,19,35.024330,135.779465,58.60,0.00,0.00,0.00,-36.30,1144,17,34,0,-2.25,6.68,173.12,15,1014.79,64,90,90,90,90,7.53,0.13,0.00,0.00,0.00
422,2080,1,5,5,10,19,35.024330,135.779465,58.60,0.00,0.28,0.00,-36.30,1144,17,34,0,-2.32,6.68,173.18,15,1014.79,64,90,90,90,90,7.53,0.13,0.00,0.00,0.00
422,2080,1,5,5,10,19,35.024330,135.779465,58.60,0.00,0.28,0.00,-36.30,1144,17,34,0,-2.32,6.62,173.31,15,1014.82,64,90,90,90,90,7.53,0.13,0.00,0.00,0.00
422,2080,1,5,5,10,19,35.024330,135.779465,58.60,0.00,0.28,0.00,-36.30,1144,17,34,0,-2.32,6.56,173.37,15,1014.81,64,90,90,90,90,7.53,0.13,0.00,0.00,0.00
422,2080,1,5,5,10,19,35.024330,135.779465,58.60,0.00,0.28,0.00,-36.30,1144,17,34,0,-2.32,6.56,173.37,15,1014.80,64,90,90,90,90,7.51,0.17,0.00,0.00,0.00
422,2080,1,5,5,10,19,35.024330,135.779465,58.60,0.00,0.28,0.00,-36.30,1144,17,34,0,-2.32,6.43,173.68,15,1014.79,64,90,90,90,90,7.51,0.17,0.00,0.00,0.00
422,2080,1,5,5,10,19,35.024330,135.779465,58.60,0.00,0.28,0.00,-36.30,1144,17,34,0,-2.32,6.37,173.75,15,1014.77,64,90,90,90,90,7.49,0.25,0.00,0.00,0.00
422,2080,1,5,5,10,19,35.024330,135.779465,58.60,0.00,0.28,0.00,-36.30,1144,17,34,0,-2.32,6.37,173.75,15,1014.77,64,90,90,90,90,7.52,0.16,0.00,0.00,0.00
423,2080,1,5,5,10,19,35.024330,135.779465,58.60,0.00,0.28,0.00,-36.30,1144,17,34,0,-2.25,6.31,173.75,15,1014.77,64,90,90,90,90,7.52,0.16,0.00,0.00,0.00
423,2080,1,5,5,10,19,35.024330,135.779465,58.60,0.00,0.28,0.00,-36.30,1144,17,34,0,-2.25,6.25,173.75,15,1014.79,64,90,90,90,90,7.51,0.22,0.00,0.00,0.00
423,2080,1,5,5,10,19,35.024330,135.779465,58.60,0.00,0.28,0.00,-36.30,1144,17,30,0,-2.25,6.18,173.75,15,1014.77,64,90,90,90,90,7.51,0.22,0.00,0.00,0.00
423,2080,1,5,5,10,19,35.024330,135.779465,58.60,0.00,0.28,0.00,-36.30,1144,17,34,0,-2.25,6.25,173.75,15,1014.80,64,90,90,90,90,7.51,0.20,0.00,0.00,0.00
423,2080,1,5,5,10,19,35.024330,135.779465,58.60,0.00,0.28,0.00,-36.30,1144,17,34,0,-2.25,6.25,173.75,15,1014.80,64,90,90,90,90,7.51,0.19,0.00,0.00,0.00
423,2080,1,5,5,10,19,35.024330,135.779465,58.60,0.00,0.28,0.00,-36.30,1144,17,34,0,-2.25,6.25,173.75,15,1014.77,64,90,90,90,90,7.51,0.18,0.00,0.00,0.00
423,2080,1,5,5,10,19,35.024330,135.779465,58.60,0.00,0.28,0.00,-36.30,1144,17,34,0,-2.32,6.06,173.75,15,1014.78,64,90,90,90,90,7.52,0.16,0.00,0.00,0.00
423,2080,1,5,5,10,19,35.024330,135.779465,58.60,0.00,0.28,0.00,-36.30,1144,17,34,0,-2.32,6.00,173.87,15,1014.77,64,90,90,90,90,7.52,0.16,0.00,0.00,0.00
423,2080,1,5,5,10,19,35.024330,135.779465,58.60,0.00,0.28,0.00,-36.30,1144,17,34,0,-2.19,5.81,173.93,15,1014.79,64,90,90,90,90,7.52,0.16,0.00,0.00,0.00
424,2080,1,5,5,10,19,35.024330,135.779465,58.60,0.00,0.00,0.00,-8.30,1144,17,34,0,-2.13,5.62,173.93,15,1014.79,64,90,90,90,90,7.52,0.16,0.00,0.00,0.00
424,2080,1,5,5,10,19,35.024330,135.779465,58.60,0.00,0.70,0.00,-7.30,1144,17,34,0,-2.13,5.62,173.93,15,1014.78,64,90,90,90,90,7.52,0.16,0.00,0.00,0.00
424,2080,1,5,5,10,19,35.024330,135.779465,58.60,0.00,0.70,0.00,-7.30,1144,17,34,0,-2.13,5.62,173.93,15,1014.77,64,90,90,90,90,7.52,0.16,0.00,0.00,0.00
424,2080,1,5,5,10,19,35.024330,135.779465,58.60,0.00,0.00,0.00,-17.30,1144,17,34,0,-2.13,5.62,173.75,15,1014.77,64,90,90,90,90,7.52,0.16,0.00,0.00,0.00
