timestamp,year,month,day,hour,minute,second,longitude,latitude,altitude,groundspeed,airspeed,AoA,SLIP,outside pres,outside temp,AGL,rpm,pitch,roll,yaw,fairing temp,fairing pres,fairing hum,ELV,RUD,ELVtrim,RUDtrim,voltage,current,torque,power,thrust
1341,2080,1,5,5,25,38,35.024796,135.778915,60.00,0.00,0.36,0.00,-18.30,1144,18,34,0,-1.75,5.56,135.68,16,1014.88,61,90,90,90,90,7.16,0.48,0.00,0.00,0.00
1341,2080,1,5,5,25,38,35.024796,135.778915,60.00,0.00,0.40,0.00,-18.30,1144,18,34,0,-1.69,6.25,135.25,16,1014.89,61,90,90,90,90,7.16,0.48,0.00,0.00,0.00
1341,2080,1,5,5,25,38,35.024796,135.778915,60.00,0.00,0.36,0.00,-18.30,1144,18,34,0,-1.69,6.62,135.00,16,1014.89,61,90,90,90,90,7.43,0.32,0.00,0.00,0.00
1342,2080,1,5,5,25,38,35.024796,135.778915,60.00,0.00,0.43,0.00,-18.30,1144,18,34,0,-1.63,7.00,134.75,16,1014.89,62,90,90,90,90,7.47,0.12,0.00,0.00,0.00
1342,2080,1,5,5,25,38,35.024796,135.778915,60.00,0.00,0.46,0.00,-18.30,1144,18,34,0,-1.63,7.00,134.75,16,1014.88,62,90,90,90,90,7.47,0.12,0.00,0.00,0.00
1342,2080,1,5,5,25,38,35.024796,135.778915,60.00,0.00,0.43,0.00,-18.30,1144,18,34,0,-1.63,7.00,134.75,16,1014.88,62,90,90,90,90,7.42,0.35,0.00,0.00,0.00
1342,2080,1,5,5,25,38,35.024796,135.778915,60.00,0.00,0.43,0.00,-18.30,1144,18,34,0,-1.63,7.00,134.75,16,1014.91,62,90,90,90,90,7.35,0.23,0.00,0.00,0.00
1342,2080,1,5,5,25,38,35.024796,135.778915,60.00,0.00,0.40,0.00,-18.30,1144,18,34,0,-1.63,7.68,134.43,16,1014.89,62,90,90,90,90,7.35,0.23,0.00,0.00,0.00
1342,2080,1,5,5,25,38,35.024796,135.778915,60.00,0.00,0.36,0.00,-18.30,1144,18,34,0,-1.63,7.68,134.43,16,1014.88,62,90,90,90,90,7.46,0.14,0.00,0.00,0.00
1342,2080,1,5,5,25,38,35.024796,135.778915,60.00,0.00,0.33,0.00,-18.30,1144,18,34,0,-1.63,7.62,134.43,16,1014.88,62,90,90,90,90,7.46,0.17,0.00,0.00,0.00
1342,2080,1,5,5,25,38,35.024796,135.778915,60.00,0.00,0.36,0.00,-18.30,1144,18,34,0,-1.63,7.56,134.43,16,1014.88,62,90,90,90,90,7.41,0.31,0.00,0.00,0.00
1343,2080,1,5,5,25,38,35.024796,135.778915,60.00,0.00,0.36,0.00,-18.30,1144,18,34,0,-1.63,7.56,134.43,16,1014.89,62,90,90,90,90,7.41,0.31,0.00,0.00,0.00
1343,2080,1,5,5,25,38,35.024796,135.778915,60.00,0.00,0.33,0.00,-18.30,1144,18,34,0,-1.63,7.56,134.43,16,1014.88,62,90,90,90,90,7.41,0.31,0.00,0.00,0.00
1343,2080,1,5,5,25,38,35.024796,135.778915,60.00,0.00,0.28,0.00,-18.30,1144,18,34,0,-1.63,7.43,134.18,16,1014.88,62,90,90,90,90,7.41,0.31,0.00,0.00,0.00
1343,2080,1,5,5,25,38,35.024796,135.778915,60.00,0.00,0.28,0.00,-18.30,1144,18,34,0,-1.63,7.37,134.18,16,1014.89,62,90,90,90,90,7.41,0.31,0.00,0.00,0.00
1343,2080,1,5,5,25,38,35.024796,135.778915,60.00,0.00,0.28,0.00,-18.30,1144,18,34,0,-1.69,7.31,134.18,16,1014.89,62,90,90,90,90,7.41,0.31,0.00,0.00,0.00
1343,2080,1,5,5,25,38,35.024796,135.778915,60.00,0.00,0.28,0.00,-18.30,1144,18,34,0,-1.69,7.25,134.18,16,1014.89,62,90,90,90,90,7.46,0.28,0.00,0.00,0.00
1343,2080,1,5,5,25,38,35.024796,135.778915,60.00,0.00,0.28,0.00,-18.30,1144,18,34,0,-1.69,7.18,134.18,16,1014.89,62,90,90,90,90,7.45,0.29,0.00,0.00,0.00
1343,2080,1,5,5,25,38,35.024796,135.778915,60.00,0.00,0.28,0.00,-18.30,1144,18,34,0,-1.69,7.12,134.18,16,1014.87,62,90,90,90,90,7.45,0.29,0.00,0.00,0.00
1343,2080,1,5,5,25,38,35.024796,135.778915,60.00,0.00,0.28,0.00,-18.30,1144,18,34,0,-1.69,7.00,134.18,16,1014.88,62,90,90,90,90,7.45,0.29,0.00,0.00,0.00
1344,2080,1,5,5,25,38,35.024796,135.778915,60.00,0.00,0.28,0.00,-18.30,1144,18,34,0,-1.69,7.00,134.18,16,1014.87,62,90,90,90,90,7.45,0.29,0.00,0.00,0.00
1344,2080,1,5,5,25,38,35.024796,135.778915,60.00,0.00,0.28,0.00,-18.30,1144,18,34,0,-1.69,7.00,134.18,16,1014.86,62,90,90,90,90,7.45,0.29,0.00,0.00,0.00
1344,2080,1,5,5,25,38,35.024796,135.778915,60.00,0.00,0.28,0.00,-18.30,1144,18,34,0,-1.69,7.00,134.18,16,1014.86,62,90,90,90,90,7.47,0.20,0.00,0.00,0.00
1344,2080,1,5,5,25,38,35.024796,135.778915,60.00,0.00,0.28,0.00,-18.30,1144,18,36,0,-1.69,6.93,134.12,16,1014.86,62,90,90,90,90,7.45,0.16,0.00,0.00,0.00
1344,2080,1,5,5,25,38,35.024796,135.778915,60.00,0.00,0.28,0.00,-18.30,1144,18,36,0,-1.69,6.93,134.12,16,1014.85,62,90,90,90,90,7.45,0.16,0.00,0.00,0.00
1344,2080,1,5,5,25,38,35.024796,135.778915,60.00,0.00,0.28,0.00,-18.30,1144,18,36,0,-1.69,7.06,133.93,16,1014.88,62,90,90,90,90,7.45,0.16,0.00,0.00,0.00
1344,2080,1,5,5,25,38,35.024796,135.778915,60.00,0.00,0.28,0.00,-18.30,1144,18,36,0,-1.69,7.37,133.75,16,1014.86,62,90,90,90,90,7.45,0.16,0.00,0.00,0.00
1344,2080,1,5,5,25,38,35.024796,135.778915,60.00,0.00,0.28,0.00,-18.30,1144,18,36,0,-1.69,7.43,133.75,16,1014.88,62,90,90,90,90,7.42,0.34,0.00,0.00,0.00
1345,2080,1,5,5,25,38,35.024796,135.778915,60.00,0.00,0.28,0.00,-18.30,1144,18,34,0,-1.69,7.50,133.75,16,1014.86,62,90,90,90,90,7.47,0.11,0.00,0.00,0.00
1345,2080,1,5,5,25,38,35.024796,135.778915,60.00,0.00,0.28,0.00,-18.30,1144,18,32,0,-1.69,7.50,133.75,16,1014.86,62,90,90,90,90,7.43,0.46,0.00,0.00,0.00
1345,2080,1,5,5,25,38,35.024796,135.778915,60.00,0.00,0.28,0.00,-18.30,1144,18,32,0,-1.69,7.50,133.75,16,1014.86,62,90,90,90,90,7.45,0.41,0.00,0.00,0.00
1345,2080,1,5,5,25,38,35.024796,135.778915,60.00,0.00,0.28,0.00,-18.30,1144,18,32,0,-1.69,7.50,133.75,16,1014.86,62,90,90,90,90,7.43,0.33,0.00,0.00,0.00
1345,2080,1,5,5,25,38,35.024796,135.778915,60.00,0.00,0.28,0.00,-18.30,1144,18,32,0,-1.69,7.37,133.75,16,1014.89,62,90,90,90,90,7.46,0.34,0.00,0.00,0.00
1345,2080,1,5,5,25,38,35.024796,135.778915,60.00,0.00,0.28,0.00,-18.30,1144,18,32,0,-1.69,7.31,133.75,16,1014.87,62,90,90,90,90,7.46,0.34,0.00,0.00,0.00
1345,2080,1,5,5,25,38,35.024796,135.778915,60.00,0.00,0.28,0.00,-18.30,1144,18,34,0,-1.75,7.25,133.75,16,1014.87,62,90,90,90,90,7.46,0.34,0.00,0.00,0.00
1345,2080,1,5,5,25,38,35.024796,135.778915,60.00,0.00,0.28,0.00,-18.30,1144,18,36,0,-1.75,7.25,133.75,16,1014.87,62,90,90,90,90,7.46,0.34,0.00,0.00,0.00
1346,2080,1,5,5,25,38,35.024796,135.778915,60.00,0.00,0.28,0.00,-18.30,1144,18,36,0,-1.75,7.25,133.75,16,1014.87,62,90,90,90,90,7.46,0.34,0.00,0.00,0.00
1346,2080,1,5,5,25,38,35.024796,135.778915,60.00,0.00,0.28,0.00,-18.30,1144,18,36,0,-1.75,7.25,133.75,16,1014.86,62,90,90,90,90,7.43,0.48,0.00,0.00,0.00
1346,2080,1,5,5,25,38,35.024796,135.778915,60.00,0.00,0.28,0.00,-18.30,1144,18,36,0,-1.75,7.25,133.75,16,1014.85,62,90,90,90,90,7.47,0.13,0.00,0.00,0.00
1346,2080,1,5,5,25,38,35.024796,135.778915,60.00,0.00,0.28,0.00,-18.30,1144,18,36,0,-1.75,7.25,133.75,16,1014.88,62,90,90,90,90,7.47,0.13,0.00,0.00,0.00
1346,2080,1,5,5,25,38,35.024796,135.778915,60.00,0.00,0.28,0.00,-18.30,1144,18,36,0,-1.75,7.25,133.75,16,1014.88,62,90,90,90,90,7.47,0.13,0.00,0.00,0.00
1346,2080,1,5,5,25,38,35.024796,135.778915,60.00,0.00,0.36,0.00,-18.30,1144,18,36,0,-1.75,7.25,133.75,16,1014.88,62,90,90,90,90,7.47,0.13,0.00,0.00,0.00
1346,2080,1,5,5,25,38,35.024796,135.778915,60.00,0.00,0.36,0.00,-18.30,1144,18,36,0,-1.75,7.25,133.75,16,1014.86,62,90,90,90,90,7.47,0.13,0.00,0.00,0.00
1346,2080,1,5,5,25,38,35.024796,135.778915,60.00,0.00,0.36,0.00,-18.30,1144,18,36,0,-1.75,7.18,133.75,16,1014.91,62,90,90,90,90,7.47,0.13,0.00,0.00,0.00
1346,2080,1,5,5,25,38,35.024796,135.778915,60.00,0.00,0.40,0.00,-18.30,1144,18,36,0,-1.75,7.18,133.75,16,1014.87,62,90,90,90,90,7.47,0.12,0.00,0.00,0.00
1347,2080,1,5,5,25,38,35.024796,135.778915,60.00,0.00,0.40,0.00,-18.30,1144,18,40,0,-1.75,7.18,133.75,16,1014.86,62,90,90,90,90,7.47,0.12,0.00,0.00,0.00
1347,2080,1,5,5,25,38,35.024796,135.778915,60.00,0.00,0.36,0.00,-18.30,1144,18,42,0,-1.75,7.18,133.75,16,1014.87,62,90,90,90,90,7.45,0.29,0.00,0.00,0.00
1347,2080,1,5,5,25,38,35.024796,135.778915,60.00,0.00,0.40,0.00,-18.30,1144,18,42,0,-1.75,7.12,133.75,16,1014.87,62,90,90,90,90,7.45,0.29,0.00,0.00,0.00
1347,2080,1,5,5,25,38,35.024796,135.778915,60.00,0.00,0.40,0.00,-18.30,1144,18,42,0,-1.75,7.12,133.75,16,1014.86,62,90,90,90,90,7.46,0.16,0.00,0.00,0.00
1347,2080,1,5,5,25,38,35.024796,135.778915,60.00,0.00,0.40,0.00,-18.30,1144,18,42,0,-1.75,7.06,133.75,16,1014.89,62,90,90,90,90,7.47,0.13,0.00,0.00,0.00
1347,2080,1,5,5,25,38,35.024796,135.778915,60.00,0.00,0.40,0.00,-18.30,1144,18,42,0,-1.75,7.00,133.81,16,1014.88,62,90,90,90,90,7.47,0.13,0.00,0.00,0.00
1347,2080,1,5,5,25,38,35.024796,135.778915,60.00,0.00,0.40,0.00,-18.30,1144,18,36,0,-1.75,7.00,133.81,16,1014.88,62,90,90,90,90,7.47,0.13,0.00,0.00,0.00
1347,2080,1,5,5,25,38,35.024796,135.778915,60.00,0.00,0.40,0.00,-18.30,1144,18,36,0,-1.75,7.00,133.81,16,1014.88,62,90,90,90,90,7.47,0.25,0.00,0.00,0.00
1348,2080,1,5,5,25,38,35.024796,135.778915,60.00,0.00,0.40,0.00,-18.30,1144,18,36,0,-1.75,7.00,133.81,16,1014.89,62,90,90,90,90,7.47,0.15,0.00,0.00,0.00
1348,2080,1,5,5,25,38,35.024796,135.778915,60.00,0.00,0.36,0.00,-18.30,1144,18,36,0,-1.75,7.00,133.81,16,1014.88,62,90,90,90,90,7.47,0.14,0.00,0.00,0.00
1348,2080,1,5,5,25,38,35.024796,135.778915,60.00,0.00,0.36,0.00,-18.30,1144,18,36,0,-1.75,7.06,133.75,16,1014.86,62,90,90,90,90,7.47,0.14,0.00,0.00,0.00
1348,2080,1,5,5,25,38,35.024796,135.778915,60.00,0.00,0.36,0.00,-18.30,1144,18,42,0,-1.75,7.06,133.81,16,1014.89,62,90,90,90,90,7.47,0.14,0.00,0.00,0.00
1348,2080,1,5,5,25,38,35.024796,135.778915,60.00,0.00,0.33,0.00,-18.30,1144,18,42,0,-1.82,7.00,133.87,16,1014.88,62,90,90,90,90,7.47,0.14,0.00,0.00,0.00
1348,2080,1,5,5,25,38,35.024796,135.778915,60.00,0.00,0.33,0.00,-18.30,1144,18,42,0,-1.82,7.00,133.93,16,1014.88,62,90,90,90,90,7.47,0.14,0.00,0.00,0.00
1348,2080,1,5,5,25,38,35.024796,135.778915,60.00,0.00,0.33,0.00,-18.30,1144,18,42,0,-1.82,7.00,133.93,16,1014.88,62,90,90,90,90,7.48,0.14,0.00,0.00,0.00
1348,2080,1,5,5,25,38,35.024796,135.778915,60.00,0.00,0.33,0.00,-18.30,1144,18,42,0,-1.82,6.93,134.00,16,1014.86,62,90,90,90,90,7.48,0.14,0.00,0.00,0.00
1348,2080,1,5,5,25,38,35.024796,135.778915,60.00,0.00,0.33,0.00,-18.30,1144,18,42,0,-1.82,6.93,134.00,16,1014.89,62,90,90,90,90,7.48,0.14,0.00,0.00,0.00
1349,2080,1,5,5,25,38,35.024796,135.778915,60.00,0.00,0.33,0.00,-18.30,1144,18,38,0,-1.82,6.81,134.00,16,1014.90,62,90,90,90,90,7.48,0.14,0.00,0.00,0.00
1349,2080,1,5,5,25,38,35.024796,135.778915,60.00,0.00,0.33,0.00,-18.30,1144,18,36,0,-1.82,6.75,134.00,16,1014.89,62,90,90,90,90,7.48,0.14,0.00,0.00,0.00
1349,2080,1,5,5,25,38,35.024796,135.778915,60.00,0.00,0.33,0.00,-18.30,1144,18,36,0,-1.82,6.81,133.93,16,1014.89,62,90,90,90,90,7.46,0.10,0.00,0.00,0.00
1349,2080,1,5,5,25,38,35.024796,135.778915,60.00,0.00,0.33,0.00,-18.30,1144,18,36,0,-1.82,6.81,133.93,16,1014.88,62,90,90,90,90,7.42,0.67,0.00,0.00,0.00
1349,2080,1,5,5,25,38,35.024796,135.778915,60.00,0.00,0.33,0.00,-18.30,1144,18,36,0,-1.82,6.81,133.93,16,1014.88,62,90,90,90,90,7.47,0.20,0.00,0.00,0.00
1349,2080,1,5,5,25,38,35.024796,135.778915,60.00,0.00,0.33,0.00,-18.30,1144,18,36,0,-1.82,6.93,133.93,16,1014.90,62,90,90,90,90,7.47,0.20,0.00,0.00,0.00
1349,2080,1,5,5,25,38,35.024796,135.778915,60.00,0.00,0.33,0.00,-18.30,1144,18,36,0,-1.82,6.87,133.93,16,1014.86,62,90,90,90,90,7.47,0.20,0.00,0.00,0.00
1349,2080,1,5,5,25,38,35.024796,135.778915,60.00,0.00,0.33,0.00,-18.30,1144,18,36,0,-1.82,6.81,134.00,16,1014.89,62,90,90,90,90,7.47,0.20,0.00,0.00,0.00
1350,2080,1,5,5,25,38,35.024796,135.778915,60.00,0.00,0.33,0.00,-18.30,1144,18,36,0,-1.82,6.81,134.06,16,1014.85,62,90,90,90,90,7.47,0.09,0.00,0.00,0.00
1350,2080,1,5,5,25,38,35.024796,135.778915,60.00,0.00,0.33,0.00,-18.30,1144,18,36,0,-1.82,6.81,134.18,16,1014.90,62,90,90,90,90,7.39,0.76,0.00,0.00,0.00
1350,2080,1,5,5,25,38,35.024796,135.778915,60.00,0.00,0.33,0.00,-18.30,1144,18,36,0,-1.82,6.81,134.18,16,1014.87,62,90,90,90,90,7.46,0.31,0.00,0.00,0.00
1350,2080,1,5,5,25,38,35.024796,135.778915,60.00,0.00,0.33,0.00,-18.30,1144,18,36,0,-1.88,6.75,134.37,16,1014.90,62,90,90,90,90,7.40,0.41,0.00,0.00,0.00
1350,2080,1,5,5,25,38,35.024796,135.778915,60.00,0.00,0.33,0.00,-18.30,1144,18,34,0,-1.88,6.75,134.37,16,1014.89,62,90,90,90,90,7.47,0.11,0.00,0.00,0.00
1350,2080,1,5,5,25,38,35.024796,135.778915,60.00,0.00,0.33,0.00,-18.30,1144,18,34,0,-1.88,6.81,134.37,16,1014.85,62,90,90,90,90,7.47,0.11,0.00,0.00,0.00
1350,2080,1,5,5,25,38,35.024796,135.778915,60.00,0.00,0.33,0.00,-18.30,1144,18,34,0,-1.82,6.93,134.37,16,1014.87,62,90,90,90,90,7.42,0.41,0.00,0.00,0.00
1350,2080,1,5,5,25,38,35.024796,135.778915,60.00,0.00,0.33,0.00,-18.30,1144,18,34,0,-1.82,7.06,134.31,16,1014.87,62,90,90,90,90,7.38,0.24,0.00,0.00,0.00
1350,2080,1,5,5,25,38,35.024796,135.778915,60.00,0.00,0.33,0.00,-18.30,1144,18,34,0,-1.82,7.06,134.31,16,1014.90,62,90,90,90,90,7.45,0.33,0.00,0.00,0.00
1351,2080,1,5,5,25,38,35.024796,135.778915,60.00,0.00,0.33,0.00,-18.30,1144,18,34,0,-1.82,7.06,134.31,16,1014.89,62,90,90,90,90,7.45,0.33,0.00,0.00,0.00
1351,2080,1,5,5,25,38,35.024796,135.778915,60.00,0.00,0.33,0.00,-18.30,1144,18,34,0,-1.82,7.37,134.00,16,1014.88,62,90,90,90,90,7.45,0.33,0.00,0.00,0.00
1351,2080,1,5,5,25,38,35.024796,135.778915,60.00,0.00,0.33,0.00,-18.30,1144,18,34,0,-1.82,7.37,134.00,16,1014.90,62,90,90,90,90,7.45,0.33,0.00,0.00,0.00
1351,2080,1,5,5,25,38,35.024796,135.778915,60.00,0.00,0.33,0.00,-18.30,1144,18,34,0,-1.82,7.37,134.00,16,1014.90,62,90,90,90,90,7.45,0.33,0.00,0.00,0.00
1351,2080,1,5,5,25,38,35.024796,135.778915,60.00,0.00,0.28,0.00,-18.30,1144,18,34,0,-1.82,7.37,134.00,16,1014.89,62,90,90,90,90,7.45,0.33,0.00,0.00,0.00
1351,2080,1,5,5,25,38,35.024796,135.778915,60.00,0.00,0.28,0.00,-18.30,1144,18,34,0,-1.82,7.37,134.00,16,1014.87,62,90,90,90,90,7.45,0.33,0.00,0.00,0.00
1351,2080,1,5,5,25,38,35.024796,135.778915,60.00,0.00,0.33,0.00,-18.30,1144,18,34,0,-1.82,7.37,134.00,16,1014.89,62,90,90,90,90,7.41,0.47,0.00,0.00,0.00
1351,2080,1,5,5,25,38,35.024796,135.778915,60.00,0.00,0.33,0.00,-18.30,1144,18,34,0,-1.82,7.37,134.00,16,1014.90,62,90,90,90,90,7.41,0.47,0.00,0.00,0.00
1352,2080,1,5,5,25,38,35.024796,135.778915,60.00,0.00,0.28,0.00,-18.30,1144,18,34,0,-1.82,7.31,134.00,16,1014.87,62,90,90,90,90,7.45,0.44,0.00,0.00,0.00
1352,2080,1,5,5,25,38,35.024796,135.778915,60.00,0.00,0.28,0.00,-18.30,1144,18,34,0,-1.82,7.31,134.00,16,1014.90,62,90,90,90,90,7.45,0.44,0.00,0.00,0.00
1352,2080,1,5,5,25,38,35.024796,135.778915,60.00,0.00,0.28,0.00,-18.30,1144,18,34,0,-1.82,7.31,134.00,16,1014.90,62,90,90,90,90,7.45,0.44,0.00,0.00,0.00
1352,2080,1,5,5,25,38,35.024796,135.778915,60.00,0.00,0.28,0.00,-18.30,1144,18,34,0,-1.82,7.31,134.00,16,1014.90,62,90,90,90,90,7.46,0.34,0.00,0.00,0.00
1352,2080,1,5,5,25,38,35.024796,135.778915,60.00,0.00,0.28,0.00,-18.30,1144,18,34,0,-1.82,7.31,134.00,16,1014.89,62,90,90,90,90,7.40,0.30,0.00,0.00,0.00
1352,2080,1,5,5,25,38,35.024796,135.778915,60.00,0.00,0.23,0.00,-18.30,1144,18,34,0,-1.82,7.25,134.12,16,1014.88,62,90,90,90,90,7.40,0.40,0.00,0.00,0.00
1352,2080,1,5,5,25,38,35.024796,135.778915,60.00,0.00,0.23,0.00,-18.30,1144,18,34,0,-1.82,7.12,134.18,16,1014.86,62,90,90,90,90,7.40,0.40,0.00,0.00,0.00
1352,2080,1,5,5,25,38,35.024796,135.778915,60.00,0.00,0.28,0.00,-18.30,1144,18,34,0,-1.82,7.00,134.18,16,1014.89,62,90,90,90,90,7.47,0.11,0.00,0.00,0.00
1353,2080,1,5,5,25,38,35.024796,135.778915,60.00,0.00,0.28,0.00,-18.30,1144,18,34,0,-1.82,7.00,134.18,16,1014.89,62,90,90,90,90,7.40,0.18,0.00,0.00,0.00
1353,2080,1,5,5,25,38,35.024796,135.778915,60.00,0.00,0.28,0.00,-18.30,1144,18,34,0,-1.82,7.00,134.18,16,1014.91,62,90,90,90,90,7.43,0.43,0.00,0.00,0.00
1353,2080,1,5,5,25,38,35.024796,135.778915,60.00,0.00,0.28,0.00,-18.30,1144,18,34,0,-1.82,7.00,134.18,16,1014.89,62,90,90,90,90,7.43,0.43,0.00,0.00,0.00
1353,2080,1,5,5,25,38,35.024796,135.778915,60.00,0.00,0.28,0.00,-18.30,1144,18,34,0,-1.82,7.00,134.18,16,1014.88,62,90,90,90,90,7.43,0.43,0.00,0.00,0.00
1353,2080,1,5,5,25,52,35.024796,135.778915,60.00,0.00,0.28,0.00,-18.30,1144,18,34,0,-1.82,7.00,134.18,16,1014.88,62,90,90,90,90,7.47,0.18,0.00,0.00,0.00
1353,2080,1,5,5,25,52,35.024796,135.778915,60.00,0.00,0.28,0.00,-18.30,1144,18,34,0,-1.82,7.00,134.18,16,1014.88,62,90,90,90,90,7.34,0.15,0.00,0.00,0.00
1353,2080,1,5,5,25,52,35.024796,135.778915,60.00,0.00,0.28,0.00,-18.30,1144,18,34,0,-1.82,7.00,134.18,16,1014.90,62,90,90,90,90,7.34,0.15,0.00,0.00,0.00
1353,2080,1,5,5,25,52,35.024796,135.778915,60.00,0.00,0.28,0.00,-18.30,1144,18,34,0,-1.82,7.00,134.18,16,1014.90,62,90,90,90,90,7.34,0.15,0.00,0.00,0.00
1353,2080,1,5,5,25,52,35.024796,135.778915,60.00,0.00,0.28,0.00,-18.30,1144,18,34,0,-1.82,7.00,134.18,16,1014.90,62,90,90,90,90,7.34,0.15,0.00,0.00,0.00
1354,2080,1,5,5,25,52,35.024796,135.778915,60.00,0.00,0.28,0.00,-18.30,1144,18,34,0,-1.82,7.00,134.18,16,1014.90,62,90,90,90,90,7.34,0.15,0.00,0.00,0.00
1354,2080,1,5,5,25,52,35.024796,135.778915,60.00,0.00,0.28,0.00,-18.30,1144,18,34,0,-1.82,7.00,134.18,16,1014.88,62,90,90,90,90,7.34,0.15,0.00,0.00,0.00
1354,2080,1,5,5,25,52,35.024796,135.778915,60.00,0.00,0.28,0.00,-18.30,1144,18,34,0,-1.82,6.93,134.18,16,1014.88,62,90,90,90,90,7.45,0.46,0.00,0.00,0.00
1354,2080,1,5,5,25,52,35.024796,135.778915,60.00,0.00,0.28,0.00,-18.30,1144,18,34,0,-1.82,6.93,134.18,16,1014.88,62,90,90,90,90,7.46,0.19,0.00,0.00,0.00
1354,2080,1,5,5,25,52,35.024796,135.778915,60.00,0.00,0.28,0.00,-18.30,1144,18,34,0,-1.82,6.93,134.18,16,1014.90,62,90,90,90,90,7.46,0.19,0.00,0.00,0.00
1354,2080,1,5,5,25,52,35.024796,135.778915,60.00,0.00,0.28,0.00,-18.30,1144,18,34,0,-1.82,6.93,134.18,16,1014.89,62,90,90,90,90,7.46,0.19,0.00,0.00,0.00
1354,2080,1,5,5,25,52,35.024796,135.778915,60.00,0.00,0.28,0.00,-18.30,1144,18,34,0,-1.82,6.93,134.18,16,1014.88,62,90,90,90,90,7.46,0.19,0.00,0.00,0.00
1354,2080,1,5,5,25,52,35.024796,135.778915,60.00,0.00,0.28,0.00,-18.30,1144,18,34,0,-1.82,6.93,134.18,16,1014.88,62,90,90,90,90,7.46,0.19,0.00,0.00,0.00
1355,2080,1,5,5,25,52,35.024796,135.778915,60.00,0.00,0.28,0.00,-18.30,1144,18,34,0,-1.82,6.93,134.18,16,1014.87,62,90,90,90,90,7.46,0.31,0.00,0.00,0.00
1355,2080,1,5,5,25,52,35.024796,135.778915,60.00,0.00,0.28,0.00,-18.30,1144,18,34,0,-1.82,6.93,134.18,16,1014.90,62,90,90,90,90,7.41,0.16,0.00,0.00,0.00
1355,2080,1,5,5,25,52,35.024796,135.778915,60.00,0.00,0.28,0.00,-18.30,1144,18,34,0,-1.82,6.93,134.18,16,1014.90,62,90,90,90,90,7.45,0.16,0.00,0.00,0.00
1355,2080,1,5,5,25,52,35.024796,135.778915,60.00,0.00,0.28,0.00,-18.30,1144,18,34,0,-1.82,6.93,134.18,16,1014.89,62,90,90,90,90,7.45,0.16,0.00,0.00,0.00
1355,2080,1,5,5,25,52,35.024796,135.778915,60.00,0.00,0.28,0.00,-18.30,1144,18,34,0,-1.82,7.00,134.12,16,1014.90,62,90,90,90,90,7.45,0.16,0.00,0.00,0.00
1355,2080,1,5,5,25,52,35.024796,135.778915,60.00,0.00,0.28,0.00,-18.30,1144,18,34,0,-1.82,7.06,134.06,16,1014.89,62,90,90,90,90,7.45,0.21,0.00,0.00,0.00
1355,2080,1,5,5,25,52,35.024796,135.778915,60.00,0.00,0.28,0.00,-18.30,1144,18,34,0,-1.75,7.12,133.93,16,1014.89,62,90,90,90,90,7.45,0.21,0.00,0.00,0.00
1355,2080,1,5,5,25,52,35.024796,135.778915,60.00,0.00,0.28,0.00,-18.30,1144,18,34,0,-1.75,7.18,133.87,16,1014.89,62,90,90,90,90,7.46,0.16,0.00,0.00,0.00
1355,2080,1,5,5,25,52,35.024796,135.778915,60.00,0.00,0.23,0.00,-18.30,1144,18,34,0,-1.75,7.25,133.87,16,1014.90,62,90,90,90,90,7.48,0.10,0.00,0.00,0.00
1356,2080,1,5,5,25,52,35.024796,135.778915,60.00,0.00,0.23,0.00,-18.30,1144,18,34,0,-1.75,7.25,133.87,16,1014.87,62,90,90,90,90,7.48,0.10,0.00,0.00,0.00
1356,2080,1,5,5,25,52,35.024796,135.778915,60.00,0.00,0.23,0.00,-18.30,1144,18,34,0,-1.75,7.25,133.87,16,1014.89,62,90,90,90,90,7.43,0.29,0.00,0.00,0.00
1356,2080,1,5,5,25,52,35.024796,135.778915,60.00,0.00,0.23,0.00,-18.30,1144,18,34,0,-1.75,7.25,133.87,16,1014.88,62,90,90,90,90,7.43,0.29,0.00,0.00,0.00
1356,2080,1,5,5,25,52,35.024796,135.778915,60.00,0.00,0.23,0.00,-18.30,1144,18,34,0,-1.75,7.12,133.87,16,1014.88,62,90,90,90,90,7.43,0.29,0.00,0.00,0.00
1356,2080,1,5,5,25,52,35.024796,135.778915,60.00,0.00,0.23,0.00,-18.30,1144,18,34,0,-1.75,7.06,133.87,16,1014.88,62,90,90,90,90,7.43,0.29,0.00,0.00,0.00
1356,2080,1,5,5,25,52,35.024796,135.778915,60.00,0.00,0.23,0.00,-18.30,1144,18,34,0,-1.75,7.06,133.87,16,1014.89,62,90,90,90,90,7.43,0.29,0.00,0.00,0.00
1356,2080,1,5,5,25,52,35.024796,135.778915,60.00,0.00,0.23,0.00,-18.30,1144,18,34,0,-1.75,7.06,133.87,16,1014.89,62,90,90,90,90,7.43,0.30,0.00,0.00,0.00
1356,2080,1,5,5,25,52,35.024796,135.778915,60.00,0.00,0.16,0.00,-18.30,1144,18,34,0,-1.75,6.93,133.75,16,1014.91,62,90,90,90,90,7.39,0.22,0.00,0.00,0.00
1357,2080,1,5,5,25,52,35.024796,135.778915,60.00,0.00,0.23,0.00,-18.30,1144,18,34,0,-1.75,6.87,133.68,16,1014.88,62,90,90,90,90,7.39,0.22,0.00,0.00,0.00
1357,2080,1,5,5,25,52,35.024796,135.778915,60.00,0.00,0.23,0.00,-18.30,1144,18,34,0,-1.69,6.81,133.62,16,1014.90,62,90,90,90,90,7.39,0.22,0.00,0.00,0.00
1357,2080,1,5,5,25,52,35.024796,135.778915,60.00,0.00,0.28,0.00,-18.30,1144,18,34,0,-1.69,6.81,133.56,16,1014.90,62,90,90,90,90,7.39,0.22,0.00,0.00,0.00
1357,2080,1,5,5,25,52,35.024796,135.778915,60.00,0.00,0.33,0.00,-18.30,1144,18,34,0,-1.69,6.81,133.50,16,1014.90,62,90,90,90,90,7.39,0.22,0.00,0.00,0.00
1357,2080,1,5,5,25,52,35.024796,135.778915,60.00,0.00,0.16,0.00,-18.30,1144,18,34,0,-1.69,6.75,133.50,16,1014.88,62,90,90,90,90,7.47,0.12,0.00,0.00,0.00
1357,2080,1,5,5,25,52,35.024796,135.778915,60.00,0.00,0.16,0.00,-18.30,1144,18,34,0,-1.69,6.75,133.50,16,1014.90,62,90,90,90,90,7.43,0.50,0.00,0.00,0.00
1357,2080,1,5,5,25,52,35.024796,135.778915,60.00,0.00,0.28,0.00,-18.30,1144,18,34,0,-1.75,6.43,133.75,16,1014.85,62,90,90,90,90,7.43,0.50,0.00,0.00,0.00
1357,2080,1,5,5,25,52,35.024796,135.778915,60.00,0.00,0.28,0.00,-18.30,1144,18,34,0,-1.75,6.43,133.68,16,1014.86,62,90,90,90,90,7.47,0.32,0.00,0.00,0.00
1357,2080,1,5,5,25,52,35.024796,135.778915,60.00,0.00,0.23,0.00,-18.30,1144,18,34,0,-1.69,6.43,133.56,16,1014.89,62,90,90,90,90,7.47,0.32,0.00,0.00,0.00
1358,2080,1,5,5,25,52,35.024796,135.778915,60.00,0.00,0.23,0.00,-18.30,1144,18,34,0,-1.69,6.50,133.50,16,1014.89,62,90,90,90,90,7.47,0.30,0.00,0.00,0.00
1358,2080,1,5,5,25,52,35.024796,135.778915,60.00,0.00,0.23,0.00,-18.30,1144,18,34,0,-1.69,6.50,133.50,16,1014.89,62,90,90,90,90,7.43,0.34,0.00,0.00,0.00
1358,2080,1,5,5,25,52,35.024796,135.778915,60.00,0.00,0.23,0.00,-18.30,1144,18,34,0,-1.69,6.56,133.31,16,1014.87,62,90,90,90,90,7.43,0.34,0.00,0.00,0.00
1358,2080,1,5,5,25,52,35.024796,135.778915,60.00,0.00,0.28,0.00,-18.30,1144,18,34,0,-1.69,6.56,133.31,16,1014.87,62,90,90,90,90,7.43,0.34,0.00,0.00,0.00
1358,2080,1,5,5,25,52,35.024796,135.778915,60.00,0.00,0.28,0.00,-18.30,1144,18,34,0,-1.69,6.56,133.31,16,1014.87,62,90,90,90,90,7.48,0.10,0.00,0.00,0.00
1358,2080,1,5,5,25,52,35.024796,135.778915,60.00,0.00,0.28,0.00,-18.30,1144,18,34,0,-1.69,6.56,133.31,16,1014.87,62,90,90,90,90,7.48,0.13,0.00,0.00,0.00
1358,2080,1,5,5,25,52,35.024796,135.778915,60.00,0.00,0.28,0.00,-18.30,1144,18,34,0,-1.69,6.56,133.18,16,1014.87,62,90,90,90,90,7.48,0.13,0.00,0.00,0.00
1358,2080,1,5,5,25,52,35.024796,135.778915,60.00,0.00,0.28,0.00,-18.30,1144,18,34,0,-1.69,6.62,133.12,16,1014.85,62,90,90,90,90,7.48,0.13,0.00,0.00,0.00
1359,2080,1,5,5,25,52,35.024796,135.778915,60.00,0.00,0.28,0.00,-18.30,1144,18,34,0,-1.69,6.62,133.12,16,1014.87,62,90,90,90,90,7.48,0.13,0.00,0.00,0.00
1359,2080,1,5,5,25,52,35.024796,135.778915,60.00,0.00,0.28,0.00,-18.30,1144,18,34,0,-1.63,6.93,132.81,16,1014.85,62,90,90,90,90,7.48,0.13,0.00,0.00,0.00
1359,2080,1,5,5,25,52,35.024796,135.778915,60.00,0.00,0.28,0.00,-18.30,1144,18,34,0,-1.63,7.00,132.81,16,1014.87,62,90,90,90,90,7.48,0.13,0.00,0.00,0.00
1359,2080,1,5,5,25,52,35.024796,135.778915,60.00,0.00,0.28,0.00,-18.30,1144,18,34,0,-1.63,7.00,132.81,16,1014.86,62,90,90,90,90,7.46,0.35,0.00,0.00,0.00
1359,2080,1,5,5,25,52,35.024796,135.778915,60.00,0.00,0.28,0.00,-18.30,1144,18,34,0,-1.63,7.00,132.81,16,1014.84,62,90,90,90,90,7.46,0.35,0.00,0.00,0.00
1359,2080,1,5,5,25,52,35.024796,135.778915,60.00,0.00,0.28,0.00,-18.30,1144,18,34,0,-1.63,7.00,132.81,16,1014.87,62,90,90,90,90,7.46,0.35,0.00,0.00,0.00
1359,2080,1,5,5,25,52,35.024796,135.778915,60.00,0.00,0.28,0.00,-18.30,1144,18,36,0,-1.63,7.00,132.81,16,1014.87,62,90,90,90,90,7.46,0.35,0.00,0.00,0.00
1359,2080,1,5,5,25,52,35.024796,135.778915,60.00,0.00,0.28,0.00,-18.30,1144,18,34,0,-1.63,7.00,132.81,16,1014.86,62,90,90,90,90,7.46,0.35,0.00,0.00,0.00
1360,2080,1,5,5,25,52,35.024796,135.778915,60.00,0.00,0.28,0.00,-18.30,1144,18,34,0,-1.63,7.00,132.81,16,1014.85,62,90,90,90,90,7.45,0.27,0.00,0.00,0.00
1360,2080,1,5,5,25,52,35.024796,135.778915,60.00,0.00,0.28,0.00,-18.30,1144,18,34,0,-1.63,7.06,132.81,16,1014.86,62,90,90,90,90,7.46,0.20,0.00,0.00,0.00
1360,2080,1,5,5,25,52,35.024796,135.778915,60.00,0.00,0.28,0.00,-18.30,1144,18,34,0,-1.69,7.06,132.81,16,1014.86,62,90,90,90,90,7.46,0.20,0.00,0.00,0.00
1360,2080,1,5,5,25,52,35.024796,135.778915,60.00,0.00,0.28,0.00,-18.30,1144,18,34,0,-1.69,7.06,132.81,16,1014.87,62,90,90,90,90,7.46,0.20,0.00,0.00,0.00
1360,2080,1,5,5,25,52,35.024796,135.778915,60.00,0.00,0.28,0.00,-18.30,1144,18,32,0,-1.69,7.06,132.81,16,1014.88,62,90,90,90,90,7.46,0.20,0.00,0.00,0.00
1360,2080,1,5,5,25,52,35.024796,135.778915,60.00,0.00,0.28,0.00,-18.30,1144,18,32,0,-1.69,6.87,132.81,16,1014.88,62,90,90,90,90,7.46,0.20,0.00,0.00,0.00
1360,2080,1,5,5,25,52,35.024796,135.778915,60.00,0.00,0.28,0.00,-18.30,1144,18,32,0,-1.69,6.75,132.81,16,1014.88,62,90,90,90,90,7.49,0.05,0.00,0.00,0.00
1360,2080,1,5,5,25,52,35.024796,135.778915,60.00,0.00,0.28,0.00,-18.30,1144,18,32,0,-1.75,6.56,132.87,16,1014.87,62,90,90,90,90,7.49,0.12,0.00,0.00,0.00
1360,2080,1,5,5,25,52,35.024796,135.778915,60.00,0.00,0.28,0.00,-18.30,1144,18,32,0,-1.75,6.37,132.93,16,1014.89,62,90,90,90,90,7.47,0.15,0.00,0.00,0.00
1361,2080,1,5,5,25,52,35.024796,135.778915,60.00,0.00,0.28,0.00,-18.30,1144,18,36,0,-1.75,6.37,132.93,16,1014.87,62,90,90,90,90,7.47,0.15,0.00,0.00,0.00
1361,2080,1,5,5,25,52,35.024796,135.778915,60.00,0.00,0.23,0.00,-18.30,1144,18,36,0,-1.75,6.37,132.93,16,1014.86,62,90,90,90,90,7.42,0.24,0.00,0.00,0.00
1361,2080,1,5,5,25,52,35.024796,135.778915,60.00,0.00,0.23,0.00,-18.30,1144,18,36,0,-1.75,6.12,133.00,16,1014.87,62,90,90,90,90,7.48,0.20,0.00,0.00,0.00
1361,2080,1,5,5,25,52,35.024796,135.778915,60.00,0.00,0.28,0.00,-18.30,1144,18,36,0,-1.75,6.25,132.93,16,1014.85,62,90,90,90,90,7.46,0.20,0.00,0.00,0.00
1361,2080,1,5,5,25,52,35.024796,135.778915,60.00,0.00,0.28,0.00,-18.30,1144,18,36,0,-1.75,6.37,132.93,16,1014.88,62,90,90,90,90,7.46,0.20,0.00,0.00,0.00
1361,2080,1,5,5,25,52,35.024796,135.778915,60.00,0.00,0.33,0.00,-18.30,1144,18,36,0,-1.82,6.43,132.93,16,1014.89,62,90,90,90,90,7.46,0.16,0.00,0.00,0.00
1361,2080,1,5,5,25,52,35.024796,135.778915,60.00,0.00,0.33,0.00,-18.30,1144,18,34,0,-1.82,6.43,132.93,16,1014.89,62,90,90,90,90,7.45,0.48,0.00,0.00,0.00
1361,2080,1,5,5,25,52,35.024796,135.778915,60.00,0.00,0.33,0.00,-18.30,1144,18,34,0,-1.82,6.43,132.93,16,1014.89,62,90,90,90,90,7.45,0.48,0.00,0.00,0.00
1362,2080,1,5,5,25,52,35.024796,135.778915,60.00,0.00,0.28,0.00,-18.30,1144,18,34,0,-1.82,6.43,132.93,16,1014.86,62,90,90,90,90,7.45,0.48,0.00,0.00,0.00
1362,2080,1,5,5,25,52,35.024796,135.778915,60.00,0.00,0.33,0.00,-18.30,1144,18,34,0,-1.88,6.50,132.93,16,1014.85,62,90,90,90,90,7.45,0.48,0.00,0.00,0.00
1362,2080,1,5,5,25,52,35.024796,135.778915,60.00,0.00,0.28,0.00,-18.30,1144,18,34,0,-1.88,6.43,132.93,16,1014.87,62,90,90,90,90,7.45,0.48,0.00,0.00,0.00
1362,2080,1,5,5,25,52,35.024796,135.778915,60.00,0.00,0.00,0.00,-18.30,1144,18,34,0,-1.88,6.50,132.81,16,1014.88,62,90,90,90,90,7.45,0.48,0.00,0.00,0.00
1362,2080,1,5,5,25,52,35.024796,135.778915,60.00,0.00,0.16,0.00,-18.30,1144,18,34,0,-1.88,6.62,132.81,16,1014.88,62,90,90,90,90,7.49,0.16,0.00,0.00,0.00
1362,2080,1,5,5,25,52,35.024796,135.778915,60.00,0.00,0.16,0.00,-18.30,1144,18,34,0,-1.88,6.62,132.81,16,1014.88,62,90,90,90,90,7.49,0.16,0.00,0.00,0.00
1362,2080,1,5,5,25,52,35.024796,135.778915,60.00,0.00,0.00,0.00,-18.30,1144,18,34,0,-1.88,6.81,132.81,16,1014.87,62,90,90,90,90,7.49,0.16,0.00,0.00,0.00
1362,2080,1,5,5,25,52,35.024796,135.778915,60.00,0.00,0.00,0.00,-18.30,1144,18,34,0,-1.88,6.87,133.06,16,1014.87,62,90,90,90,90,7.49,0.16,0.00,0.00,0.00
1362,2080,1,5,5,25,52,35.024796,135.778915,60.00,0.00,0.00,0.00,-18.30,1144,18,34,0,-1.88,6.81,133.25,16,1014.86,62,90,90,90,90,7.49,0.16,0.00,0.00,0.00
1363,2080,1,5,5,25,52,35.024796,135.778915,60.00,0.00,0.00,0.00,-18.30,1144,18,34,0,-1.94,6.68,133.43,16,1014.88,62,90,90,90,90,7.46,0.41,0.00,0.00,0.00
1363,2080,1,5,5,25,52,35.024796,135.778915,60.00,0.00,0.00,0.00,-18.30,1144,18,34,0,-1.94,6.56,133.62,16,1014.88,62,90,90,90,90,7.42,0.28,0.00,0.00,0.00
1363,2080,1,5,5,25,52,35.024796,135.778915,60.00,0.00,0.00,0.00,-18.30,1144,18,34,0,-1.94,6.50,133.68,16,1014.87,62,90,90,90,90,7.49,0.05,0.00,0.00,0.00
1363,2080,1,5,5,25,52,35.024796,135.778915,60.00,0.00,0.00,0.00,-18.30,1144,18,34,0,-1.94,6.50,133.68,16,1014.87,62,90,90,90,90,7.49,0.05,0.00,0.00,0.00
1363,2080,1,5,5,25,52,35.024796,135.778915,60.00,0.00,0.16,0.00,-18.30,1144,18,34,0,-2.00,6.25,133.87,16,1014.89,62,90,90,90,90,7.49,0.05,0.00,0.00,0.00
1363,2080,1,5,5,25,52,35.024796,135.778915,60.00,0.00,0.00,0.00,-18.30,1144,18,34,0,-2.07,6.25,133.81,16,1014.88,62,90,90,90,90,7.49,0.05,0.00,0.00,0.00
1363,2080,1,5,5,25,52,35.024796,135.778915,60.00,0.00,0.00,0.00,-18.30,1144,18,34,0,-2.00,6.43,133.75,16,1014.88,62,90,90,90,90,7.49,0.05,0.00,0.00,0.00
1363,2080,1,5,5,25,52,35.024796,135.778915,60.00,0.00,0.00,0.00,-18.30,1144,18,34,0,-1.88,6.62,133.62,16,1014.88,62,90,90,90,90,7.47,0.19,0.00,0.00,0.00
1364,2080,1,5,5,25,52,35.024796,135.778915,60.00,0.00,0.00,0.00,-18.30,1144,18,34,0,-1.88,6.62,133.62,16,1014.86,62,90,90,90,90,7.48,0.05,0.00,0.00,0.00
1364,2080,1,5,5,25,52,35.024796,135.778915,60.00,0.00,0.00,0.00,-18.30,1144,18,34,0,-1.88,6.62,133.62,16,1014.88,62,90,90,90,90,7.42,0.67,0.00,0.00,0.00
1364,2080,1,5,5,25,52,35.024796,135.778915,60.00,0.00,0.00,0.00,-18.30,1144,18,34,0,-1.94,7.06,133.68,16,1014.90,62,90,90,90,90,7.49,0.05,0.00,0.00,0.00
1364,2080,1,5,5,25,52,35.024796,135.778915,60.00,0.00,0.00,0.00,-18.30,1144,18,34,0,-1.94,7.00,133.81,16,1014.88,62,90,90,90,90,7.49,0.05,0.00,0.00,0.00
1364,2080,1,5,5,25,52,35.024796,135.778915,60.00,0.00,0.00,0.00,-18.30,1144,18,34,0,-1.88,6.93,133.93,16,1014.87,62,90,90,90,90,7.42,0.31,0.00,0.00,0.00
1364,2080,1,5,5,25,52,35.024796,135.778915,60.00,0.00,0.00,0.00,-18.30,1144,18,34,0,-1.88,6.87,134.06,16,1014.88,62,90,90,90,90,7.46,0.19,0.00,0.00,0.00
1364,2080,1,5,5,25,52,35.024796,135.778915,60.00,0.00,0.00,0.00,-18.30,1144,18,34,0,-1.88,6.87,134.06,16,1014.88,62,90,90,90,90,7.46,0.19,0.00,0.00,0.00
1364,2080,1,5,5,25,52,35.024796,135.778915,60.00,0.00,0.00,0.00,-18.30,1144,18,34,0,-1.88,6.93,134.06,16,1014.86,62,90,90,90,90,7.46,0.19,0.00,0.00,0.00
1364,2080,1,5,5,25,52,35.024796,135.778915,60.00,0.00,0.00,0.00,-18.30,1144,18,34,0,-1.88,7.00,134.06,16,1014.90,62,90,90,90,90,7.46,0.19,0.00,0.00,0.00
1365,2080,1,5,5,25,52,35.024796,135.778915,60.00,0.00,0.00,0.00,-18.30,1144,18,34,0,-1.88,7.00,134.06,16,1014.88,62,90,90,90,90,7.46,0.19,0.00,0.00,0.00
1365,2080,1,5,5,25,52,35.024796,135.778915,60.00,0.00,0.00,0.00,-18.30,1144,18,34,0,-1.88,7.06,134.06,16,1014.86,62,90,90,90,90,7.42,0.28,0.00,0.00,0.00
1365,2080,1,5,5,25,52,35.024796,135.778915,60.00,0.00,0.00,0.00,-18.30,1144,18,34,0,-1.94,7.12,134.06,16,1014.85,62,90,90,90,90,7.42,0.28,0.00,0.00,0.00
1365,2080,1,5,5,25,52,35.024796,135.778915,60.00,0.00,0.00,0.00,-18.30,1144,18,34,0,-1.94,7.12,134.06,16,1014.85,62,90,90,90,90,7.42,0.28,0.00,0.00,0.00
1365,2080,1,5,5,25,52,35.024796,135.778915,60.00,0.00,0.00,0.00,-18.30,1144,18,34,0,-1.94,7.12,134.06,16,1014.87,62,90,90,90,90,7.42,0.28,0.00,0.00,0.00
1365,2080,1,5,5,25,52,35.024796,135.778915,60.00,0.00,0.00,0.00,-18.30,1144,18,34,0,-1.94,6.93,134.06,16,1014.89,62,90,90,90,90,7.42,0.28,0.00,0.00,0.00
1365,2080,1,5,5,25,52,35.024796,135.778915,60.00,0.00,0.00,0.00,-18.30,1144,18,34,0,-2.00,6.68,134.25,16,1014.90,62,90,90,90,90,7.48,0.15,0.00,0.00,0.00
1365,2080,1,5,5,25,52,35.024796,135.778915,60.00,0.00,0.00,0.00,-18.30,1144,18,34,0,-2.00,6.56,134.31,16,1014.88,62,90,90,90,90,7.48,0.13,0.00,0.00,0.00
1366,2080,1,5,5,25,52,35.024796,135.778915,60.00,0.00,0.00,0.00,-18.30,1144,18,34,0,-1.94,6.56,134.31,16,1014.90,62,90,90,90,90,7.48,0.13,0.00,0.00,0.00
1366,2080,1,5,5,25,52,35.024796,135.778915,60.00,0.00,0.00,0.00,-18.30,1144,18,34,0,-1.88,6.56,134.31,16,1014.90,62,90,90,90,90,7.48,0.13,0.00,0.00,0.00
1366,2080,1,5,5,25,52,35.024796,135.778915,60.00,0.00,0.00,0.00,-18.30,1144,18,34,0,-1.94,6.56,134.31,16,1014.89,62,90,90,90,90,7.48,0.13,0.00,0.00,0.00
1366,2080,1,5,5,25,52,35.024796,135.778915,60.00,0.00,0.00,0.00,-18.30,1144,18,34,0,-1.94,6.56,134.31,16,1014.87,62,90,90,90,90,7.47,0.20,0.00,0.00,0.00
1366,2080,1,5,5,25,52,35.024796,135.778915,60.00,0.00,0.16,0.00,-18.30,1144,18,34,0,-1.94,6.56,134.31,16,1014.88,62,90,90,90,90,7.47,0.20,0.00,0.00,0.00
1366,2080,1,5,5,25,52,35.024796,135.778915,60.00,0.00,0.00,0.00,-18.30,1144,18,34,0,-1.88,6.68,134.25,16,1014.88,62,90,90,90,90,7.45,0.21,0.00,0.00,0.00
1366,2080,1,5,5,25,52,35.024796,135.778915,60.00,0.00,0.00,0.00,-18.30,1144,18,34,0,-1.88,6.93,134.12,16,1014.88,62,90,90,90,90,7.45,0.21,0.00,0.00,0.00
1366,2080,1,5,5,25,52,35.024796,135.778915,60.00,0.00,0.00,0.00,-18.30,1144,18,34,0,-1.88,6.93,134.12,16,1014.89,62,90,90,90,90,7.45,0.21,0.00,0.00,0.00
1367,2080,1,5,5,25,52,35.024796,135.778915,60.00,0.00,0.00,0.00,-18.30,1144,18,34,0,-1.88,7.56,134.00,16,1014.87,62,90,90,90,90,7.47,0.13,0.00,0.00,0.00
1367,2080,1,5,5,25,52,35.024796,135.778915,60.00,0.00,0.16,0.00,-18.30,1144,18,34,0,-1.88,7.62,134.00,16,1014.91,62,90,90,90,90,7.47,0.13,0.00,0.00,0.00
1367,2080,1,5,5,25,52,35.024796,135.778915,60.00,0.00,0.23,0.00,-18.30,1144,18,34,0,-1.88,7.56,134.06,16,1014.91,62,90,90,90,90,7.42,0.21,0.00,0.00,0.00
1367,2080,1,5,5,25,52,35.024796,135.778915,60.00,0.00,0.16,0.00,-18.30,1144,18,34,0,-1.94,7.62,134.06,16,1014.89,62,90,90,90,90,7.42,0.21,0.00,0.00,0.00
1367,2080,1,5,5,25,52,35.024796,135.778915,60.00,0.00,0.28,0.00,-18.30,1144,18,34,0,-1.94,7.68,134.12,16,1014.87,62,90,90,90,90,7.42,0.21,0.00,0.00,0.00
1367,2080,1,5,5,25,52,35.024796,135.778915,60.00,0.00,0.23,0.00,-18.30,1144,18,34,0,-1.94,7.87,134.12,16,1014.87,62,90,90,90,90,7.42,0.21,0.00,0.00,0.00
1367,2080,1,5,5,25,52,35.024796,135.778915,60.00,0.00,0.23,0.00,-18.30,1144,18,34,0,-1.94,7.93,134.12,16,1014.88,62,90,90,90,90,7.42,0.21,0.00,0.00,0.00
1367,2080,1,5,5,25,52,35.024796,135.778915,60.00,0.00,0.23,0.00,-18.30,1144,18,34,0,-1.94,7.93,134.12,16,1014.88,62,90,90,90,90,7.42,0.21,0.00,0.00,0.00
1367,2080,1,5,5,25,52,35.024796,135.778915,60.00,0.00,0.23,0.00,-18.30,1144,18,34,0,-2.00,8.00,134.12,16,1014.88,62,90,90,90,90,7.42,0.21,0.00,0.00,0.00
1368,2080,1,5,5,25,52,35.024796,135.778915,60.00,0.00,0.23,0.00,-18.30,1144,18,34,0,-2.00,8.00,134.12,16,1014.89,62,90,90,90,90,7.42,0.21,0.00,0.00,0.00
1368,2080,1,5,5,25,52,35.024796,135.778915,60.00,0.00,0.23,0.00,-18.30,1144,18,34,0,-2.07,7.75,134.37,16,1014.88,62,90,90,90,90,7.42,0.21,0.00,0.00,0.00
1368,2080,1,5,5,25,52,35.024796,135.778915,60.00,0.00,0.23,0.00,-18.30,1144,18,34,0,-2.07,7.56,134.43,16,1014.87,62,90,90,90,90,7.42,0.21,0.00,0.00,0.00
1368,2080,1,5,5,26,7,35.024799,135.778915,60.00,0.00,0.23,0.00,-18.30,1144,18,34,0,-2.07,7.50,134.43,16,1014.87,62,90,90,90,90,7.45,0.41,0.00,0.00,0.00
1368,2080,1,5,5,26,7,35.024799,135.778915,60.00,0.00,0.23,0.00,-18.30,1144,18,34,0,-2.07,7.43,134.43,16,1014.87,62,90,90,90,90,7.45,0.41,0.00,0.00,0.00
1368,2080,1,5,5,26,7,35.024799,135.778915,59.90,0.00,0.23,0.00,-18.30,1144,18,34,0,-2.07,7.43,134.43,16,1014.89,62,90,90,90,90,7.45,0.41,0.00,0.00,0.00
1368,2080,1,5,5,26,7,35.024799,135.778915,59.90,0.00,0.23,0.00,-18.30,1144,18,34,0,-2.07,7.37,134.43,16,1014.88,62,90,90,90,90,7.45,0.41,0.00,0.00,0.00
1368,2080,1,5,5,26,7,35.024799,135.778915,59.90,0.00,0.23,0.00,-18.30,1144,18,34,0,-2.07,7.43,134.43,16,1014.88,62,90,90,90,90,7.45,0.41,0.00,0.00,0.00
1369,2080,1,5,5,26,7,35.024799,135.778915,59.90,0.00,0.23,0.00,-18.30,1144,18,34,0,-2.07,7.43,134.43,16,1014.89,62,90,90,90,90,7.47,0.21,0.00,0.00,0.00
1369,2080,1,5,5,26,7,35.024799,135.778915,59.90,0.00,0.23,0.00,-18.30,1144,18,34,0,-2.07,7.50,134.43,16,1014.89,62,90,90,90,90,7.45,0.25,0.00,0.00,0.00
1369,2080,1,5,5,26,7,35.024799,135.778915,59.90,0.00,0.23,0.00,-18.30,1144,18,34,0,-2.07,7.50,134.43,16,1014.89,62,90,90,90,90,7.46,0.14,0.00,0.00,0.00
1369,2080,1,5,5,26,7,35.024799,135.778915,59.90,0.00,0.23,0.00,-18.30,1144,18,34,0,-2.13,7.56,134.43,16,1014.86,62,90,90,90,90,7.46,0.14,0.00,0.00,0.00
1369,2080,1,5,5,26,7,35.024799,135.778915,59.90,0.00,0.23,0.00,-18.30,1144,18,34,0,-2.07,7.50,134.50,16,1014.90,62,90,90,90,90,7.46,0.14,0.00,0.00,0.00
1369,2080,1,5,5,26,7,35.024799,135.778915,59.90,0.00,0.23,0.00,-18.30,1144,18,34,0,-2.07,7.37,134.50,16,1014.85,62,90,90,90,90,7.46,0.14,0.00,0.00,0.00
1369,2080,1,5,5,26,7,35.024799,135.778915,59.90,0.00,0.23,0.00,-18.30,1144,18,34,0,-2.07,7.43,134.50,16,1014.88,62,90,90,90,90,7.43,0.29,0.00,0.00,0.00
1369,2080,1,5,5,26,7,35.024799,135.778915,59.90,0.00,0.00,0.00,-18.30,1144,18,34,0,-2.07,7.43,134.50,16,1014.87,62,90,90,90,90,7.47,0.13,0.00,0.00,0.00
1370,2080,1,5,5,26,7,35.024799,135.778915,59.90,0.00,0.00,0.00,-18.30,1144,18,34,0,-2.07,7.43,134.50,16,1014.91,62,90,90,90,90,7.47,0.12,0.00,0.00,0.00
1370,2080,1,5,5,26,7,35.024799,135.778915,59.90,0.00,0.00,0.00,-18.30,1144,18,34,0,-2.13,7.62,134.50,16,1014.89,62,90,90,90,90,7.47,0.12,0.00,0.00,0.00
1370,2080,1,5,5,26,7,35.024799,135.778915,59.90,0.00,0.00,0.00,-18.30,1144,18,34,0,-2.13,7.62,134.50,16,1014.90,62,90,90,90,90,7.47,0.12,0.00,0.00,0.00
1370,2080,1,5,5,26,7,35.024799,135.778915,59.90,0.00,0.00,0.00,-18.30,1144,18,34,0,-2.13,7.68,134.56,16,1014.87,62,90,90,90,90,7.47,0.12,0.00,0.00,0.00
1370,2080,1,5,5,26,7,35.024799,135.778915,59.90,0.00,0.00,0.00,-18.30,1144,18,34,0,-2.13,7.68,134.62,16,1014.87,62,90,90,90,90,7.47,0.12,0.00,0.00,0.00
1370,2080,1,5,5,26,7,35.024799,135.778915,59.90,0.00,0.00,0.00,-18.30,1144,18,34,0,-2.13,7.68,134.68,16,1014.89,62,90,90,90,90,7.47,0.12,0.00,0.00,0.00
1370,2080,1,5,5,26,7,35.024799,135.778915,59.90,0.00,0.00,0.00,-18.30,1144,18,34,0,-2.13,7.75,134.68,16,1014.86,62,90,90,90,90,7.47,0.12,0.00,0.00,0.00
1370,2080,1,5,5,26,7,35.024799,135.778915,59.90,0.00,0.00,0.00,-18.30,1144,18,34,0,-2.19,7.75,134.68,16,1014.86,62,90,90,90,90,7.47,0.12,0.00,0.00,0.00
1370,2080,1,5,5,26,7,35.024799,135.778915,59.90,0.00,0.00,0.00,-18.30,1144,18,34,0,-2.19,7.81,134.68,16,1014.86,62,90,90,90,90,7.43,0.52,0.00,0.00,0.00
1371,2080,1,5,5,26,7,35.024799,135.778915,59.90,0.00,0.00,0.00,-18.30,1144,18,34,0,-2.19,7.81,134.68,16,1014.86,62,90,90,90,90,7.43,0.52,0.00,0.00,0.00
1371,2080,1,5,5,26,7,35.024799,135.778915,59.90,0.00,0.00,0.00,-18.30,1144,18,34,0,-2.19,7.75,134.75,16,1014.89,62,90,90,90,90,7.43,0.52,0.00,0.00,0.00
1371,2080,1,5,5,26,7,35.024799,135.778915,59.90,0.00,0.00,0.00,-18.30,1144,18,34,0,-2.19,7.62,134.81,16,1014.88,62,90,90,90,90,7.43,0.52,0.00,0.00,0.00
1371,2080,1,5,5,26,7,35.024799,135.778915,59.90,0.00,0.00,0.00,-18.30,1144,18,34,0,-2.19,7.62,134.81,16,1014.88,62,90,90,90,90,7.43,0.52,0.00,0.00,0.00
1371,2080,1,5,5,26,7,35.024799,135.778915,59.90,0.00,0.00,0.00,-18.30,1144,18,34,0,-2.19,7.68,134.81,16,1014.88,62,90,90,90,90,7.40,0.36,0.00,0.00,0.00
1371,2080,1,5,5,26,7,35.024799,135.778915,59.90,0.00,0.00,0.00,-18.30,1144,18,34,0,-2.19,7.68,134.81,16,1014.92,62,90,90,90,90,7.48,0.08,0.00,0.00,0.00
1371,2080,1,5,5,26,7,35.024799,135.778915,59.90,0.00,0.00,0.00,-18.30,1144,18,34,0,-2.19,7.68,134.81,16,1014.86,62,90,90,90,90,7.48,0.08,0.00,0.00,0.00
1371,2080,1,5,5,26,7,35.024799,135.778915,59.90,0.00,0.00,0.00,-18.30,1144,18,34,0,-2.19,7.75,134.81,16,1014.88,62,90,90,90,90,7.48,0.08,0.00,0.00,0.00
1372,2080,1,5,5,26,7,35.024799,135.778915,59.90,0.00,0.00,0.00,-18.30,1144,18,34,0,-2.19,7.75,134.81,16,1014.88,62,90,90,90,90,7.48,0.08,0.00,0.00,0.00
1372,2080,1,5,5,26,7,35.024799,135.778915,59.90,0.00,0.00,0.00,-18.30,1144,18,34,0,-2.19,7.75,134.81,16,1014.90,62,90,90,90,90,7.48,0.10,0.00,0.00,0.00
1372,2080,1,5,5,26,7,35.024799,135.778915,59.90,0.00,0.00,0.00,-18.30,1144,18,34,0,-2.19,7.75,134.81,16,1014.90,62,90,90,90,90,7.45,0.26,0.00,0.00,0.00
1372,2080,1,5,5,26,7,35.024799,135.778915,59.90,0.00,0.00,0.00,-18.30,1144,18,34,0,-2.19,7.75,134.81,16,1014.91,62,90,90,90,90,7.46,0.13,0.00,0.00,0.00
1372,2080,1,5,5,26,7,35.024799,135.778915,59.90,0.00,0.00,0.00,-18.30,1144,18,34,0,-2.19,7.50,134.87,16,1014.89,62,90,90,90,90,7.46,0.33,0.00,0.00,0.00
1372,2080,1,5,5,26,7,35.024799,135.778915,59.90,0.00,0.00,0.00,-18.30,1144,18,34,0,-2.19,7.25,134.87,16,1014.90,62,90,90,90,90,7.46,0.33,0.00,0.00,0.00
1372,2080,1,5,5,26,7,35.024799,135.778915,59.90,0.00,0.00,0.00,-18.30,1144,18,34,0,-2.19,7.25,134.87,16,1014.87,62,90,90,90,90,7.46,0.33,0.00,0.00,0.00
1372,2080,1,5,5,26,7,35.024799,135.778915,59.90,0.00,0.00,0.00,-18.30,1144,18,34,0,-2.19,7.18,134.87,16,1014.87,62,90,90,90,90,7.46,0.33,0.00,0.00,0.00
1373,2080,1,5,5,26,7,35.024799,135.778915,59.90,0.00,0.00,0.00,-18.30,1144,18,34,0,-2.19,7.18,134.87,16,1014.89,62,90,90,90,90,7.46,0.33,0.00,0.00,0.00
1373,2080,1,5,5,26,7,35.024799,135.778915,59.90,0.00,0.00,0.00,-18.30,1144,18,34,0,-2.19,7.18,134.87,16,1014.89,62,90,90,90,90,7.46,0.33,0.00,0.00,0.00
1373,2080,1,5,5,26,7,35.024799,135.778915,59.90,0.00,0.00,0.00,-18.30,1144,18,34,0,-2.19,7.18,134.87,16,1014.86,62,90,90,90,90,7.46,0.33,0.00,0.00,0.00
1373,2080,1,5,5,26,7,35.024799,135.778915,59.90,0.00,0.00,0.00,-18.30,1144,18,34,0,-2.19,7.18,134.87,16,1014.89,62,90,90,90,90,7.43,0.29,0.00,0.00,0.00
1373,2080,1,5,5,26,7,35.024799,135.778915,59.90,0.00,0.00,0.00,-18.30,1144,18,34,0,-2.19,7.18,134.87,16,1014.89,62,90,90,90,90,7.43,0.29,0.00,0.00,0.00
1373,2080,1,5,5,26,7,35.024799,135.778915,59.90,0.00,0.00,0.00,-18.30,1144,18,34,0,-2.25,7.18,135.00,16,1014.88,62,90,90,90,90,7.43,0.29,0.00,0.00,0.00
1373,2080,1,5,5,26,7,35.024799,135.778915,59.90,0.00,0.00,0.00,-18.30,1144,18,34,0,-2.25,7.18,135.06,16,1014.88,62,90,90,90,90,7.43,0.29,0.00,0.00,0.00
1373,2080,1,5,5,26,7,35.024799,135.778915,59.90,0.00,0.00,0.00,-18.30,1144,18,34,0,-2.25,7.18,135.06,16,1014.88,62,90,90,90,90,7.43,0.29,0.00,0.00,0.00
1374,2080,1,5,5,26,7,35.024799,135.778915,59.90,0.00,0.00,0.00,-18.30,1144,18,34,0,-2.25,7.18,135.06,16,1014.87,62,90,90,90,90,7.45,0.35,0.00,0.00,0.00
1374,2080,1,5,5,26,7,35.024799,135.778915,59.90,0.00,0.00,0.00,-18.30,1144,18,34,0,-2.25,7.43,135.06,16,1014.87,62,90,90,90,90,7.45,0.25,0.00,0.00,0.00
1374,2080,1,5,5,26,7,35.024799,135.778915,59.90,0.00,0.00,0.00,-18.30,1144,18,34,0,-2.25,7.56,135.06,16,1014.88,62,90,90,90,90,7.45,0.25,0.00,0.00,0.00
1374,2080,1,5,5,26,7,35.024799,135.778915,59.90,0.00,0.00,0.00,-18.30,1144,18,34,0,-2.25,7.68,135.06,16,1014.88,62,90,90,90,90,7.47,0.10,0.00,0.00,0.00
1374,2080,1,5,5,26,7,35.024799,135.778915,59.90,0.00,0.00,0.00,-18.30,1144,18,30,0,-2.25,7.68,135.06,16,1014.89,62,90,90,90,90,7.47,0.10,0.00,0.00,0.00
1374,2080,1,5,5,26,7,35.024799,135.778915,59.90,0.00,0.00,0.00,-18.30,1144,18,30,0,-2.25,7.68,135.06,16,1014.89,62,90,90,90,90,7.46,0.23,0.00,0.00,0.00
1374,2080,1,5,5,26,7,35.024799,135.778915,59.90,0.00,0.00,0.00,-18.30,1144,18,30,0,-2.25,7.62,135.06,16,1014.89,62,90,90,90,90,7.47,0.13,0.00,0.00,0.00
1374,2080,1,5,5,26,7,35.024799,135.778915,59.90,0.00,0.00,0.00,-18.30,1144,18,30,0,-2.25,7.62,135.06,16,1014.87,62,90,90,90,90,7.47,0.13,0.00,0.00,0.00
1374,2080,1,5,5,26,7,35.024799,135.778915,59.90,0.00,0.00,0.00,-18.30,1144,18,34,0,-2.25,7.62,135.06,16,1014.89,62,90,90,90,90,7.46,0.22,0.00,0.00,0.00
1375,2080,1,5,5,26,7,35.024799,135.778915,59.90,0.00,0.00,0.00,-18.30,1144,18,34,0,-2.25,7.62,135.06,16,1014.89,62,90,90,90,90,7.48,0.13,0.00,0.00,0.00
1375,2080,1,5,5,26,7,35.024799,135.778915,59.90,0.00,0.00,0.00,-18.30,1144,18,34,0,-2.25,7.62,135.06,16,1014.88,62,90,90,90,90,7.47,0.16,0.00,0.00,0.00
1375,2080,1,5,5,26,7,35.024799,135.778915,59.90,0.00,0.00,0.00,-18.30,1144,18,34,0,-2.25,7.75,135.06,16,1014.89,62,90,90,90,90,7.41,0.21,0.00,0.00,0.00
1375,2080,1,5,5,26,7,35.024799,135.778915,59.90,0.00,0.00,0.00,-18.30,1144,18,34,0,-2.25,7.75,135.06,16,1014.88,62,90,90,90,90,7.47,0.14,0.00,0.00,0.00
1375,2080,1,5,5,26,7,35.024799,135.778915,59.90,0.00,0.00,0.00,-18.30,1144,18,34,0,-2.25,7.68,135.06,16,1014.88,62,90,90,90,90,7.47,0.14,0.00,0.00,0.00
1375,2080,1,5,5,26,7,35.024799,135.778915,59.90,0.00,0.00,0.00,-18.30,1144,18,34,0,-2.25,7.62,135.06,16,1014.89,62,90,90,90,90,7.47,0.14,0.00,0.00,0.00
1375,2080,1,5,5,26,7,35.024799,135.778915,59.90,0.00,0.16,0.00,-18.30,1144,18,34,0,-2.25,7.62,135.06,16,1014.89,62,90,90,90,90,7.47,0.14,0.00,0.00,0.00
1375,2080,1,5,5,26,7,35.024799,135.778915,59.90,0.00,0.00,0.00,-18.30,1144,18,34,0,-2.25,7.62,135.06,16,1014.88,62,90,90,90,90,7.47,0.14,0.00,0.00,0.00
1376,2080,1,5,5,26,7,35.024799,135.778915,59.90,0.00,0.16,0.00,-18.30,1144,18,34,0,-2.25,7.56,135.06,16,1014.89,62,90,90,90,90,7.48,0.05,0.00,0.00,0.00
1376,2080,1,5,5,26,7,35.024799,135.778915,59.90,0.00,0.00,0.00,-18.30,1144,18,34,0,-2.25,7.56,135.06,16,1014.90,62,90,90,90,90,7.48,0.05,0.00,0.00,0.00
1376,2080,1,5,5,26,7,35.024799,135.778915,59.90,0.00,0.00,0.00,-18.30,1144,18,34,0,-2.25,7.56,135.06,16,1014.90,62,90,90,90,90,7.48,0.05,0.00,0.00,0.00
1376,2080,1,5,5,26,7,35.024799,135.778915,59.90,0.00,0.00,0.00,-18.30,1144,18,34,0,-2.25,7.56,135.06,16,1014.88,62,90,90,90,90,7.48,0.05,0.00,0.00,0.00
1376,2080,1,5,5,26,7,35.024799,135.778915,59.90,0.00,0.00,0.00,-18.30,1144,18,34,0,-2.25,7.56,135.00,16,1014.88,62,90,90,90,90,7.46,0.19,0.00,0.00,0.00
1376,2080,1,5,5,26,7,35.024799,135.778915,59.90,0.00,0.00,0.00,-18.30,1144,18,34,0,-2.19,7.56,135.06,16,1014.89,62,90,90,90,90,7.46,0.19,0.00,0.00,0.00
1376,2080,1,5,5,26,7,35.024799,135.778915,59.90,0.00,0.00,0.00,-18.30,1144,18,34,0,-2.25,7.50,135.12,16,1014.89,62,90,90,90,90,7.46,0.19,0.00,0.00,0.00
1376,2080,1,5,5,26,7,35.024799,135.778915,59.90,0.00,0.00,0.00,-18.30,1144,18,34,0,-2.25,7.50,135.12,16,1014.89,62,90,90,90,90,7.39,0.49,0.00,0.00,0.00
1377,2080,1,5,5,26,7,35.024799,135.778915,59.90,0.00,0.00,0.00,-18.30,1144,18,34,0,-2.25,7.50,135.12,16,1014.89,62,90,90,90,90,7.39,0.49,0.00,0.00,0.00
1377,2080,1,5,5,26,7,35.024799,135.778915,59.90,0.00,0.00,0.00,-18.30,1144,18,34,0,-2.19,7.50,135.12,16,1014.86,62,90,90,90,90,7.46,0.12,0.00,0.00,0.00
1377,2080,1,5,5,26,7,35.024799,135.778915,59.90,0.00,0.00,0.00,-18.30,1144,18,34,0,-2.19,7.50,135.12,16,1014.88,62,90,90,90,90,7.45,0.16,0.00,0.00,0.00
1377,2080,1,5,5,26,7,35.024799,135.778915,59.90,0.00,0.00,0.00,-18.30,1144,18,34,0,-2.19,7.50,135.12,16,1014.85,62,90,90,90,90,7.45,0.16,0.00,0.00,0.00
1377,2080,1,5,5,26,7,35.024799,135.778915,59.90,0.00,0.00,0.00,-18.30,1144,18,34,0,-2.19,7.50,135.12,16,1014.85,62,90,90,90,90,7.47,0.22,0.00,0.00,0.00
1377,2080,1,5,5,26,7,35.024799,135.778915,59.90,0.00,0.00,0.00,-18.30,1144,18,34,0,-2.19,7.50,135.12,16,1014.85,62,90,90,90,90,7.42,0.54,0.00,0.00,0.00
1377,2080,1,5,5,26,7,35.024799,135.778915,59.90,0.00,0.00,0.00,-18.30,1144,18,34,0,-2.19,7.50,135.12,16,1014.89,62,90,90,90,90,7.42,0.54,0.00,0.00,0.00
1377,2080,1,5,5,26,7,35.024799,135.778915,59.90,0.00,0.00,0.00,-18.30,1144,18,34,0,-2.19,7.50,135.12,16,1014.89,62,90,90,90,90,7.47,0.14,0.00,0.00,0.00
1377,2080,1,5,5,26,7,35.024799,135.778915,59.90,0.00,0.00,0.00,-18.30,1144,18,34,0,-2.19,7.50,135.12,16,1014.89,62,90,90,90,90,7.47,0.14,0.00,0.00,0.00
1378,2080,1,5,5,26,7,35.024799,135.778915,59.90,0.00,0.00,0.00,-18.30,1144,18,34,0,-2.19,7.56,135.12,16,1014.89,62,90,90,90,90,7.45,0.34,0.00,0.00,0.00
1378,2080,1,5,5,26,7,35.024799,135.778915,59.90,0.00,0.00,0.00,-18.30,1144,18,34,0,-2.19,7.56,135.12,16,1014.86,62,90,90,90,90,7.43,0.40,0.00,0.00,0.00
1378,2080,1,5,5,26,7,35.024799,135.778915,59.90,0.00,0.00,0.00,-18.30,1144,18,34,0,-2.19,7.56,135.12,16,1014.87,62,90,90,90,90,7.48,0.11,0.00,0.00,0.00
1378,2080,1,5,5,26,7,35.024799,135.778915,59.90,0.00,0.16,0.00,-18.30,1144,18,34,0,-2.19,7.56,135.12,16,1014.88,62,90,90,90,90,7.48,0.11,0.00,0.00,0.00
1378,2080,1,5,5,26,7,35.024799,135.778915,59.90,0.00,0.16,0.00,-18.30,1144,18,34,0,-2.19,7.56,135.12,16,1014.88,62,90,90,90,90,7.48,0.11,0.00,0.00,0.00
1378,2080,1,5,5,26,7,35.024799,135.778915,59.90,0.00,0.23,0.00,-18.30,1144,18,34,0,-2.19,7.56,135.12,16,1014.88,62,90,90,90,90,7.48,0.11,0.00,0.00,0.00
1378,2080,1,5,5,26,7,35.024799,135.778915,59.90,0.00,0.23,0.00,-18.30,1144,18,34,0,-2.19,7.56,135.12,16,1014.88,62,90,90,90,90,7.48,0.11,0.00,0.00,0.00
1378,2080,1,5,5,26,7,35.024799,135.778915,59.90,0.00,0.00,0.00,-18.30,1144,18,34,0,-2.19,7.56,135.12,16,1014.87,62,90,90,90,90,7.48,0.11,0.00,0.00,0.00
1379,2080,1,5,5,26,7,35.024799,135.778915,59.90,0.00,0.16,0.00,-18.30,1144,18,34,0,-2.19,7.50,135.12,16,1014.89,62,90,90,90,90,7.46,0.16,0.00,0.00,0.00
1379,2080,1,5,5,26,7,35.024799,135.778915,59.90,0.00,0.16,0.00,-18.30,1144,18,34,0,-2.19,7.50,135.12,16,1014.91,62,90,90,90,90,7.46,0.16,0.00,0.00,0.00
1379,2080,1,5,5,26,7,35.024799,135.778915,59.90,0.00,0.16,0.00,-18.30,1144,18,34,0,-2.19,7.50,135.12,16,1014.90,62,90,90,90,90,7.46,0.17,0.00,0.00,0.00
1379,2080,1,5,5,26,7,35.024799,135.778915,59.90,0.00,0.23,0.00,-18.30,1144,18,34,0,-2.19,7.50,135.12,16,1014.90,62,90,90,90,90,7.46,0.17,0.00,0.00,0.00
1379,2080,1,5,5,26,7,35.024799,135.778915,59.90,0.00,0.23,0.00,-18.30,1144,18,34,0,-2.19,7.50,135.12,16,1014.87,62,90,90,90,90,7.46,0.17,0.00,0.00,0.00
1379,2080,1,5,5,26,7,35.024799,135.778915,59.90,0.00,0.23,0.00,-18.30,1144,18,34,0,-2.19,7.50,135.12,16,1014.89,62,90,90,90,90,7.46,0.15,0.00,0.00,0.00
1379,2080,1,5,5,26,7,35.024799,135.778915,59.90,0.00,0.23,0.00,-18.30,1144,18,34,0,-2.19,7.50,135.12,16,1014.89,62,90,90,90,90,7.46,0.15,0.00,0.00,0.00
1379,2080,1,5,5,26,7,35.024799,135.778915,59.90,0.00,0.23,0.00,-18.30,1144,18,34,0,-2.19,7.50,135.12,16,1014.87,62,90,90,90,90,7.46,0.15,0.00,0.00,0.00
1380,2080,1,5,5,26,7,35.024799,135.778915,59.90,0.00,0.23,0.00,-18.30,1144,18,34,0,-2.19,7.50,135.12,16,1014.87,62,90,90,90,90,7.46,0.19,0.00,0.00,0.00
1380,2080,1,5,5,26,7,35.024799,135.778915,59.90,0.00,0.23,0.00,-18.30,1144,18,34,0,-2.19,7.50,135.12,16,1014.89,62,90,90,90,90,7.46,0.19,0.00,0.00,0.00
1380,2080,1,5,5,26,7,35.024799,135.778915,59.90,0.00,0.23,0.00,-18.30,1144,18,34,0,-2.19,7.50,135.12,16,1014.89,62,90,90,90,90,7.46,0.19,0.00,0.00,0.00
1380,2080,1,5,5,26,7,35.024799,135.778915,59.90,0.00,0.28,0.00,-18.30,1144,18,34,0,-2.19,7.50,135.12,16,1014.89,62,90,90,90,90,7.46,0.19,0.00,0.00,0.00
1380,2080,1,5,5,26,7,35.024799,135.778915,59.90,0.00,0.28,0.00,-18.30,1144,18,34,0,-2.19,7.50,135.12,16,1014.93,62,90,90,90,90,7.43,0.45,0.00,0.00,0.00
1380,2080,1,5,5,26,7,35.024799,135.778915,59.90,0.00,0.33,0.00,-18.30,1144,18,34,0,-2.19,7.50,135.12,16,1014.89,62,90,90,90,90,7.45,0.44,0.00,0.00,0.00
1380,2080,1,5,5,26,7,35.024799,135.778915,59.90,0.00,0.28,0.00,-18.30,1144,18,34,0,-2.19,7.50,135.12,16,1014.88,62,90,90,90,90,7.47,0.15,0.00,0.00,0.00
1380,2080,1,5,5,26,7,35.024799,135.778915,59.90,0.00,0.33,0.00,-18.30,1144,18,34,0,-2.19,7.50,135.12,16,1014.89,62,90,90,90,90,7.47,0.15,0.00,0.00,0.00
1381,2080,1,5,5,26,7,35.024799,135.778915,59.90,0.00,0.28,0.00,-18.30,1144,18,34,0,-2.19,7.50,135.12,16,1014.89,62,90,90,90,90,7.47,0.15,0.00,0.00,0.00
1381,2080,1,5,5,26,7,35.024799,135.778915,59.90,0.00,0.33,0.00,-18.30,1144,18,34,0,-2.19,7.50,135.12,16,1014.90,62,90,90,90,90,7.47,0.15,0.00,0.00,0.00
1381,2080,1,5,5,26,7,35.024799,135.778915,59.90,0.00,0.28,0.00,-18.30,1144,18,34,0,-2.19,7.50,135.12,16,1014.90,62,90,90,90,90,7.46,0.24,0.00,0.00,0.00
1381,2080,1,5,5,26,7,35.024799,135.778915,59.90,0.00,0.28,0.00,-18.30,1144,18,34,0,-2.19,7.50,135.12,16,1014.87,62,90,90,90,90,7.46,0.24,0.00,0.00,0.00
1381,2080,1,5,5,26,7,35.024799,135.778915,59.90,0.00,0.28,0.00,-18.30,1144,18,34,0,-2.19,7.50,135.12,16,1014.89,62,90,90,90,90,7.46,0.24,0.00,0.00,0.00
1381,2080,1,5,5,26,7,35.024799,135.778915,59.90,0.00,0.28,0.00,-18.30,1144,18,34,0,-2.25,7.31,135.37,16,1014.87,62,90,90,90,90,7.46,0.24,0.00,0.00,0.00
1381,2080,1,5,5,26,7,35.024799,135.778915,59.90,0.00,0.28,0.00,-18.30,1144,18,34,0,-2.25,7.06,135.50,16,1014.89,62,90,90,90,90,7.46,0.11,0.00,0.00,0.00
1381,2080,1,5,5,26,7,35.024799,135.778915,59.90,0.00,0.28,0.00,-18.30,1144,18,34,0,-2.25,6.81,135.62,16,1014.89,62,90,90,90,90,7.46,0.11,0.00,0.00,0.00
1382,2080,1,5,5,26,7,35.024799,135.778915,59.90,0.00,0.28,0.00,-18.30,1144,18,34,0,-2.25,6.75,135.62,16,1014.90,62,90,90,90,90,7.46,0.11,0.00,0.00,0.00
1382,2080,1,5,5,26,7,35.024799,135.778915,59.90,0.00,0.28,0.00,-18.30,1144,18,34,0,-2.25,6.75,135.62,16,1014.88,62,90,90,90,90,7.46,0.11,0.00,0.00,0.00
1382,2080,1,5,5,26,7,35.024799,135.778915,59.90,0.00,0.28,0.00,-18.30,1144,18,32,0,-2.25,6.75,135.81,16,1014.90,62,90,90,90,90,7.46,0.11,0.00,0.00,0.00
1382,2080,1,5,5,26,21,35.024799,135.778915,59.90,0.00,0.28,0.00,-18.30,1144,18,32,0,-2.32,6.75,135.87,16,1014.91,62,90,90,90,90,7.46,0.11,0.00,0.00,0.00
1382,2080,1,5,5,26,21,35.024799,135.778915,59.90,0.00,0.28,0.00,-18.30,1144,18,32,0,-2.32,6.75,135.93,16,1014.91,62,90,90,90,90,7.41,0.53,0.00,0.00,0.00
1382,2080,1,5,5,26,21,35.024799,135.778915,59.90,0.00,0.28,0.00,-18.30,1144,18,32,0,-2.32,6.75,135.93,16,1014.91,62,90,90,90,90,7.41,0.53,0.00,0.00,0.00
1382,2080,1,5,5,26,21,35.024799,135.778915,59.90,0.00,0.28,0.00,-18.30,1144,18,34,0,-2.32,6.75,135.93,16,1014.88,62,90,90,90,90,7.41,0.53,0.00,0.00,0.00
1382,2080,1,5,5,26,21,35.024799,135.778915,59.90,0.00,0.28,0.00,-18.30,1144,18,34,0,-2.32,6.93,136.00,16,1014.90,62,90,90,90,90,7.41,0.53,0.00,0.00,0.00
1382,2080,1,5,5,26,21,35.024799,135.778915,59.90,0.00,0.28,0.00,-18.30,1144,18,34,0,-2.25,6.81,136.00,16,1014.89,62,90,90,90,90,7.41,0.53,0.00,0.00,0.00
1383,2080,1,5,5,26,21,35.024799,135.778915,59.90,0.00,0.28,0.00,-18.30,1144,18,34,0,-2.25,6.81,136.00,16,1014.87,61,90,90,90,90,7.47,0.29,0.00,0.00,0.00
1383,2080,1,5,5,26,21,35.024799,135.778915,59.90,0.00,0.28,0.00,-18.30,1144,18,34,0,-2.25,6.87,136.00,16,1014.89,61,90,90,90,90,7.40,0.56,0.00,0.00,0.00
1383,2080,1,5,5,26,21,35.024799,135.778915,59.90,0.00,0.28,0.00,-18.30,1144,18,34,0,-2.25,6.87,136.00,16,1014.90,61,90,90,90,90,7.40,0.56,0.00,0.00,0.00
1383,2080,1,5,5,26,21,35.024799,135.778915,59.90,0.00,0.00,0.00,-18.30,1144,18,34,0,-2.32,7.25,135.93,16,1014.89,61,90,90,90,90,7.40,0.56,0.00,0.00,0.00
1383,2080,1,5,5,26,21,35.024799,135.778915,59.90,0.00,0.16,0.00,-18.30,1144,18,36,0,-2.32,7.37,136.00,16,1014.89,61,90,90,90,90,7.40,0.56,0.00,0.00,0.00
1383,2080,1,5,5,26,21,35.024799,135.778915,59.90,0.00,0.23,0.00,-18.30,1144,18,36,0,-2.32,7.18,136.12,16,1014.92,61,90,90,90,90,7.42,0.26,0.00,0.00,0.00
1383,2080,1,5,5,26,21,35.024799,135.778915,59.90,0.00,0.16,0.00,-18.30,1144,18,36,0,-2.32,6.93,136.25,16,1014.89,61,90,90,90,90,7.42,0.26,0.00,0.00,0.00
1383,2080,1,5,5,26,21,35.024799,135.778915,59.90,0.00,0.23,0.00,-18.30,1144,18,34,0,-2.32,6.93,136.25,16,1014.89,61,90,90,90,90,7.42,0.26,0.00,0.00,0.00
1384,2080,1,5,5,26,21,35.024799,135.778915,59.90,0.00,0.16,0.00,-18.30,1144,18,34,0,-2.38,6.37,136.62,16,1014.90,61,90,90,90,90,7.42,0.26,0.00,0.00,0.00
1384,2080,1,5,5,26,21,35.024799,135.778915,59.90,0.00,0.23,0.00,-18.30,1144,18,34,0,-2.38,6.25,136.75,16,1014.90,61,90,90,90,90,7.42,0.26,0.00,0.00,0.00
1384,2080,1,5,5,26,21,35.024799,135.778915,59.90,0.00,0.23,0.00,-18.30,1144,18,34,0,-2.38,6.25,136.81,16,1014.91,61,90,90,90,90,7.47,0.31,0.00,0.00,0.00
1384,2080,1,5,5,26,21,35.024799,135.778915,59.90,0.00,0.16,0.00,-18.30,1144,18,34,0,-2.38,6.31,136.81,16,1014.90,61,90,90,90,90,7.47,0.31,0.00,0.00,0.00
1384,2080,1,5,5,26,21,35.024799,135.778915,59.90,0.00,0.16,0.00,-18.30,1144,18,34,0,-2.38,6.31,136.81,16,1014.90,61,90,90,90,90,7.47,0.31,0.00,0.00,0.00
1384,2080,1,5,5,26,21,35.024799,135.778915,59.90,0.00,0.16,0.00,-18.30,1144,18,34,0,-2.38,6.31,136.81,16,1014.90,61,90,90,90,90,7.47,0.31,0.00,0.00,0.00
1384,2080,1,5,5,26,21,35.024799,135.778915,59.90,0.00,0.16,0.00,-18.30,1144,18,34,0,-2.32,7.81,136.37,16,1014.90,61,90,90,90,90,7.47,0.31,0.00,0.00,0.00
1384,2080,1,5,5,26,21,35.024799,135.778915,59.90,0.00,0.16,0.00,-18.30,1144,18,34,0,-2.32,8.25,136.25,16,1014.91,61,90,90,90,90,7.42,0.49,0.00,0.00,0.00
1385,2080,1,5,5,26,21,35.024799,135.778915,59.90,0.00,0.16,0.00,-18.30,1144,18,34,0,-2.32,8.56,136.18,16,1014.91,61,90,90,90,90,7.47,0.21,0.00,0.00,0.00
1385,2080,1,5,5,26,21,35.024799,135.778915,59.90,0.00,0.16,0.00,-18.30,1144,18,34,0,-2.32,8.56,136.18,16,1014.91,61,90,90,90,90,7.47,0.21,0.00,0.00,0.00
1385,2080,1,5,5,26,21,35.024799,135.778915,59.90,0.00,0.16,0.00,-18.30,1144,18,34,0,-2.32,8.56,136.18,16,1014.91,61,90,90,90,90,7.47,0.21,0.00,0.00,0.00
1385,2080,1,5,5,26,21,35.024799,135.778915,59.90,0.00,0.16,0.00,-18.30,1144,18,34,0,-2.32,9.18,136.12,16,1014.93,61,90,90,90,90,7.47,0.21,0.00,0.00,0.00
1385,2080,1,5,5,26,21,35.024799,135.778915,59.90,0.00,0.16,0.00,-18.30,1144,18,34,0,-2.32,9.12,136.31,16,1014.90,61,90,90,90,90,7.47,0.21,0.00,0.00,0.00
1385,2080,1,5,5,26,21,35.024799,135.778915,59.90,0.00,0.16,0.00,-18.30,1144,18,34,0,-2.38,8.81,136.50,16,1014.92,61,90,90,90,90,7.45,0.24,0.00,0.00,0.00
1385,2080,1,5,5,26,21,35.024799,135.778915,59.90,0.00,0.16,0.00,-18.30,1144,18,34,0,-2.38,8.81,136.50,16,1014.92,61,90,90,90,90,7.45,0.17,0.00,0.00,0.00
1385,2080,1,5,5,26,21,35.024799,135.778915,59.90,0.00,0.16,0.00,-18.30,1144,18,34,0,-2.38,8.81,136.50,16,1014.91,61,90,90,90,90,7.49,0.08,0.00,0.00,0.00
1385,2080,1,5,5,26,21,35.024799,135.778915,59.90,0.00,0.16,0.00,-18.30,1144,18,34,0,-2.44,8.18,137.12,16,1014.94,61,90,90,90,90,7.49,0.08,0.00,0.00,0.00
1386,2080,1,5,5,26,21,35.024799,135.778915,59.90,0.00,0.16,0.00,-18.30,1144,18,34,0,-2.44,8.25,137.12,16,1014.94,61,90,90,90,90,7.46,0.14,0.00,0.00,0.00
1386,2080,1,5,5,26,21,35.024799,135.778915,59.90,0.00,0.16,0.00,-18.30,1144,18,34,0,-2.44,8.25,137.12,16,1014.94,61,90,90,90,90,7.48,0.12,0.00,0.00,0.00
1386,2080,1,5,5,26,21,35.024799,135.778915,59.90,0.00,0.16,0.00,-18.30,1144,18,34,0,-2.44,8.25,137.12,16,1014.92,61,90,90,90,90,7.48,0.15,0.00,0.00,0.00
1386,2080,1,5,5,26,21,35.024799,135.778915,59.90,0.00,0.16,0.00,-19.30,1144,18,32,0,-2.44,8.31,137.12,16,1014.91,61,90,90,90,90,7.41,0.22,0.00,0.00,0.00
1386,2080,1,5,5,26,21,35.024799,135.778915,59.90,0.00,0.00,0.00,-18.30,1144,18,32,0,-2.44,8.37,137.18,16,1014.92,61,90,90,90,90,7.46,0.14,0.00,0.00,0.00
1386,2080,1,5,5,26,21,35.024799,135.778915,59.90,0.00,0.16,0.00,-18.30,1144,18,32,0,-2.44,8.37,137.18,16,1014.93,61,90,90,90,90,7.45,0.26,0.00,0.00,0.00
1386,2080,1,5,5,26,21,35.024799,135.778915,59.90,0.00,0.16,0.00,-18.30,1144,18,32,0,-2.44,8.37,137.18,16,1014.93,61,90,90,90,90,7.45,0.26,0.00,0.00,0.00
1386,2080,1,5,5,26,21,35.024799,135.778915,59.90,0.00,0.23,0.00,-18.30,1144,18,32,0,-2.44,8.43,137.18,16,1014.93,61,90,90,90,90,7.45,0.26,0.00,0.00,0.00
1387,2080,1,5,5,26,21,35.024799,135.778915,59.90,0.00,0.16,0.00,-18.30,1144,18,34,0,-2.44,8.43,137.18,16,1014.94,61,90,90,90,90,7.45,0.26,0.00,0.00,0.00
1387,2080,1,5,5,26,21,35.024799,135.778915,59.90,0.00,0.16,0.00,-18.30,1144,18,34,0,-2.44,8.50,137.18,16,1014.95,61,90,90,90,90,7.45,0.26,0.00,0.00,0.00
1387,2080,1,5,5,26,21,35.024799,135.778915,59.90,0.00,0.16,0.00,-18.30,1144,18,34,0,-2.44,8.50,137.18,16,1014.95,61,90,90,90,90,7.45,0.26,0.00,0.00,0.00
1387,2080,1,5,5,26,21,35.024799,135.778915,59.90,0.00,0.23,0.00,-18.30,1144,18,34,0,-2.44,8.50,137.18,16,1014.95,61,90,90,90,90,7.45,0.40,0.00,0.00,0.00
1387,2080,1,5,5,26,21,35.024799,135.778915,59.90,0.00,0.23,0.00,-18.30,1144,18,34,0,-2.44,8.50,137.18,16,1014.95,61,90,90,90,90,7.45,0.40,0.00,0.00,0.00
1387,2080,1,5,5,26,21,35.024799,135.778915,59.90,0.00,0.23,0.00,-18.30,1144,18,34,0,-2.38,8.87,137.12,16,1014.94,61,90,90,90,90,7.45,0.40,0.00,0.00,0.00
1387,2080,1,5,5,26,21,35.024799,135.778915,59.90,0.00,0.23,0.00,-18.30,1144,18,34,0,-2.44,9.06,137.12,16,1014.93,61,90,90,90,90,7.45,0.40,0.00,0.00,0.00
1387,2080,1,5,5,26,21,35.024799,135.778915,59.90,0.00,0.23,0.00,-18.30,1144,18,34,0,-2.44,9.12,137.12,16,1014.93,61,90,90,90,90,7.45,0.40,0.00,0.00,0.00
1388,2080,1,5,5,26,21,35.024799,135.778915,59.90,0.00,0.23,0.00,-18.30,1144,18,34,0,-2.44,9.12,137.12,16,1014.96,61,90,90,90,90,7.45,0.15,0.00,0.00,0.00
1388,2080,1,5,5,26,21,35.024799,135.778915,59.90,0.00,0.23,0.00,-18.30,1144,18,34,0,-2.44,9.12,137.12,16,1014.93,61,90,90,90,90,7.47,0.19,0.00,0.00,0.00
1388,2080,1,5,5,26,21,35.024799,135.778915,59.90,0.00,0.23,0.00,-18.30,1144,18,34,0,-2.44,8.81,137.12,16,1014.91,61,90,90,90,90,7.47,0.19,0.00,0.00,0.00
1388,2080,1,5,5,26,21,35.024799,135.778915,59.90,0.00,0.23,0.00,-18.30,1144,18,34,0,-2.44,8.93,137.06,16,1014.94,61,90,90,90,90,7.47,0.19,0.00,0.00,0.00
