time*0.5 [s],altitude [cm],rot_old [rpm],airspeed [m/s],yaw [deg],pitch [deg],roll [deg],rot_twe [rpm],thrust_h,thrust_m,thrust_l,rudder,elevator,rudderFB,elevatorFB,rudderTrim,elevatortrim,battVoltage,battCurrent,nunchuckC,nunchuckZ
1,32,0.0,0.0,0.0,3.3,176.0,0.0,0,0,0,90,90,180,180,90,90,789,12,0,0
2,32,0.0,2.195,0.0,3.0,175.9,0.5,0,0,0,90,90,180,180,90,90,789,14,0,0
3,32,0.0,2.195,0.0,2.9,176.0,0.5,0,0,0,90,90,180,180,90,90,789,15,0,0
4,32,0.0,6.552,0.0,3.2,175.9,50.2,0,0,0,90,90,180,180,90,90,789,15,0,0
5,32,0.0,6.552,0.0,3.2,175.8,50.2,0,0,0,90,90,180,180,90,90,789,14,0,0
6,32,0.0,6.552,0.0,3.2,175.6,50.2,0,0,0,90,90,180,180,90,90,789,11,0,0
7,32,0.0,0.0,0.0,3.2,175.7,50.2,0,0,0,90,90,180,180,90,90,789,14,0,0
8,32,0.0,0.0,0.0,3.1,175.8,50.2,0,0,0,90,90,180,180,90,90,789,15,0,0
9,31,0.0,0.0,0.0,2.8,175.7,50.2,0,0,0,90,90,180,180,90,90,789,15,0,0
10,31,0.0,0.0,0.0,3.2,175.6,50.2,0,0,0,90,90,180,180,90,90,789,15,0,0
11,31,0.0,0.0,0.0,3.2,176.0,0.5,0,0,56,90,90,180,180,90,90,788,14,0,0
12,31,0.0,0.0,0.0,3.2,176.0,0.5,0,0,56,90,90,180,180,90,90,789,14,0,0
13,31,0.0,0.0,0.0,3.0,175.9,0.5,0,0,56,90,90,180,180,90,90,789,15,0,0
14,31,0.0,0.0,0.0,3.1,175.9,0.5,0,0,56,90,90,180,180,90,90,788,15,0,0
15,31,0.0,0.0,0.0,3.1,175.9,0.5,0,0,56,90,90,180,180,90,90,789,16,0,0
16,31,0.0,0.0,0.0,3.0,176.0,0.5,0,0,56,90,90,180,180,90,90,788,15,0,0
17,31,0.0,0.0,0.0,3.1,176.1,0.5,0,0,56,90,90,180,180,90,90,789,14,0,0
18,29,0.0,0.0,0.0,3.2,176.0,0.5,0,0,56,90,90,180,180,90,90,789,14,0,0
19,29,0.0,0.0,0.0,3.0,175.9,0.5,0,0,56,90,90,180,180,90,90,789,13,0,0
20,44,0.0,0.0,0.0,3.1,176.0,0.5,0,0,56,90,90,180,180,90,90,789,16,0,0
21,44,0.0,0.0,0.0,3.1,175.8,0.5,0,0,56,90,90,180,180,90,90,789,14,0,0
22,44,0.0,0.0,0.0,3.1,175.8,0.5,0,0,56,90,90,180,180,90,90,789,17,0,0
23,41,0.0,0.0,0.0,3.0,176.0,0.5,0,0,56,90,90,180,180,90,90,789,15,0,0
24,41,0.0,0.0,0.0,3.0,176.1,0.5,0,0,56,90,90,180,180,90,90,788,13,0,0
25,41,0.0,0.0,0.0,2.9,176.2,0.5,0,0,56,90,90,180,180,90,90,789,13,0,0
26,526,0.0,0.0,0.0,3.1,176.1,0.5,0,0,56,90,90,180,180,90,90,789,11,0,0
27,526,0.0,0.0,0.0,3.1,176.0,0.5,0,0,56,90,90,180,180,90,90,789,15,0,0
28,36,0.0,0.0,0.0,3.1,176.1,0.5,0,0,56,90,90,180,180,90,90,789,14,0,0
29,36,0.0,0.0,0.0,3.0,176.0,0.5,0,0,56,90,90,180,180,90,90,789,15,0,0
30,36,0.0,0.0,0.0,3.1,175.7,0.5,0,0,56,90,90,180,180,90,90,788,15,0,0
31,39,0.0,0.0,0.0,3.1,176.1,0.5,0,0,56,90,90,180,180,90,90,789,12,0,0
32,39,0.0,0.0,0.0,3.1,176.2,0.5,0,0,56,90,90,180,180,90,90,788,14,0,0
33,39,0.0,0.0,0.0,3.2,176.0,0.5,0,0,56,90,90,180,180,90,90,789,15,0,0
34,42,0.0,0.0,0.0,3.0,175.7,0.6,0,0,56,90,90,180,180,90,90,789,8,0,0
35,42,0.0,0.0,0.0,2.9,175.9,0.6,0,0,56,90,90,180,180,90,90,789,9,0,0
36,42,0.0,0.0,0.0,3.0,176.1,0.6,0,0,56,90,90,180,180,90,90,788,15,0,0
37,39,0.0,0.0,0.0,3.1,175.8,0.6,0,0,56,90,90,180,180,90,90,788,16,0,0
38,39,0.0,0.0,0.0,3.1,176.0,0.6,0,0,56,90,90,180,180,90,90,789,15,0,0
39,39,0.0,0.0,0.0,3.1,175.9,0.6,0,0,56,90,90,180,180,90,90,788,16,0,0
40,41,0.0,0.0,0.0,3.1,175.9,0.6,0,0,567,90,90,180,180,90,90,789,15,0,0
41,41,0.0,0.0,0.0,3.1,176.0,0.6,0,0,567,90,90,180,180,90,90,788,15,0,0
42,44,0.0,0.0,0.0,3.0,176.0,0.6,0,0,567,90,90,180,180,90,90,789,15,0,0
43,44,0.0,0.0,0.0,3.0,175.7,0.6,0,0,0,90,90,180,180,90,90,789,12,0,0
44,44,0.0,0.0,0.0,3.0,175.9,0.6,0,0,0,90,90,180,180,90,90,788,14,0,0
45,39,0.0,0.0,0.0,3.0,176.1,0.6,0,0,0,90,90,180,180,90,90,789,14,0,0
46,39,0.0,0.0,0.0,3.0,176.2,0.6,0,0,0,90,90,180,180,90,90,789,15,0,0
47,39,0.0,0.0,0.0,3.2,176.1,0.6,0,0,567,90,90,180,180,90,90,789,13,0,0
48,44,0.0,0.0,0.0,3.0,175.9,0.6,0,0,567,90,90,180,180,90,90,789,13,0,0
49,44,0.0,0.0,0.0,2.9,176.4,0.6,0,0,567,90,90,180,180,90,90,789,14,0,0
50,44,0.0,0.0,0.0,2.9,176.1,0.6,0,0,567,90,90,180,180,90,90,789,16,0,0
51,39,0.0,0.0,0.0,3.0,176.2,0.6,0,0,567,90,90,180,180,90,90,788,16,0,0
52,39,0.0,0.0,0.0,2.9,176.0,0.6,0,0,0,90,90,180,180,90,90,788,14,0,0
53,39,0.0,0.0,0.0,2.9,175.8,0.6,0,0,0,90,90,180,180,90,90,788,15,0,0
54,39,0.0,0.0,0.0,3.0,176.1,0.6,0,0,0,90,90,180,180,90,90,789,16,0,0
55,39,0.0,0.0,0.0,3.0,176.4,0.6,0,0,0,90,90,180,180,90,90,789,19,0,0
56,41,0.0,0.0,0.0,3.0,176.6,0.6,0,0,0,90,90,180,180,90,90,788,15,0,0
57,41,0.0,0.0,0.0,3.1,176.3,0.6,0,0,0,90,90,180,180,90,90,788,14,0,0
58,41,0.0,0.0,0.0,3.0,175.8,0.6,0,0,0,90,90,180,180,90,90,788,14,0,0
59,39,0.0,0.0,0.0,3.2,176.1,0.6,0,0,0,90,90,180,180,90,90,789,14,0,0
60,39,0.0,0.0,0.0,3.2,176.1,0.6,0,0,0,90,90,180,180,90,90,789,14,0,0
61,39,0.0,0.0,0.0,3.1,176.3,0.6,0,0,0,90,90,180,180,90,90,789,15,0,0
62,39,0.0,0.0,0.0,3.0,176.6,0.6,0,0,0,90,90,180,180,90,90,788,14,0,0
63,39,0.0,0.0,0.0,3.2,176.3,0.6,0,0,0,90,90,180,180,90,90,789,6,0,0
64,39,0.0,0.0,0.0,3.0,176.1,0.6,0,0,0,90,90,180,180,90,90,788,15,0,0
65,39,0.0,0.0,0.0,3.1,175.6,0.6,0,0,0,90,90,180,180,90,90,788,14,0,0
66,39,0.0,0.0,0.0,3.1,175.9,0.6,0,0,0,90,90,180,180,90,90,788,16,0,0
67,42,0.0,0.0,0.0,2.9,176.1,0.6,0,0,0,90,90,180,180,90,90,789,14,0,0
68,42,0.0,0.0,0.0,3.1,175.9,0.6,0,0,0,90,90,180,180,90,90,788,21,0,0
69,42,0.0,0.0,0.0,2.5,175.5,0.6,0,0,0,90,90,180,180,90,90,788,15,0,0
70,39,0.0,0.0,0.0,2.4,176.2,0.0,0,0,0,90,90,180,180,90,90,789,15,0,0
71,39,0.0,0.0,0.0,2.4,176.0,0.0,0,0,0,90,90,180,180,90,90,789,9,0,0
72,39,0.0,0.0,0.0,2.7,175.5,0.4,0,0,0,90,90,180,180,90,90,786,40,0,0
73,40,0.0,0.0,0.0,2.0,175.4,0.4,0,0,0,90,90,180,180,90,90,788,26,0,0
74,40,0.0,0.0,0.0,2.2,176.1,0.0,0,0,0,90,90,180,180,90,90,785,48,0,0
75,40,0.0,0.0,0.0,0.4,175.6,0.0,0,0,0,90,90,180,180,90,90,786,32,0,0
76,40,0.0,0.0,0.0,0.3,174.9,0.0,0,0,0,90,90,180,180,90,90,785,48,0,0
77,40,0.0,0.0,0.0,-0.1,174.9,0.0,0,0,0,90,90,180,180,90,90,785,53,0,0
78,36,0.0,0.0,0.0,-0.4,174.7,106.4,0,0,0,90,90,180,180,90,90,788,37,0,0
79,36,0.0,6.074,0.0,-0.8,174.8,0.1,0,0,0,90,90,180,180,90,90,789,6,0,0
80,41,0.0,6.074,0.0,0.4,174.9,0.1,0,0,0,90,90,180,180,90,90,789,6,0,0
81,41,0.0,6.074,0.0,-0.1,175.2,0.0,0,0,0,90,90,180,180,90,90,789,10,0,0
82,40,0.0,0.321,0.0,0.1,175.7,0.1,0,0,0,90,90,180,180,90,90,789,5,0,0
83,40,0.0,0.655,0.0,0.9,176.8,1.4,0,0,0,90,90,180,180,90,90,784,38,0,0
84,40,0.0,0.09,0.0,1.6,177.9,0.1,0,0,0,90,90,180,180,90,90,786,17,0,0
85,40,0.0,1.101,0.0,1.7,178.3,0.1,0,0,0,90,90,180,180,90,90,789,14,0,0
86,40,0.0,1.329,0.0,0.0,176.7,1.4,0,0,0,90,90,180,180,90,90,786,29,0,0
87,40,0.0,0.238,0.0,-1.5,175.9,0.1,0,0,0,90,90,180,180,90,90,789,21,0,0
88,40,0.0,2.195,0.0,-0.7,176.5,153.6,0,567,3642,90,90,180,180,90,90,786,28,0,0
89,44,0.0,2.951,0.0,-3.7,178.6,154.9,0,566,6563,90,90,180,180,90,90,789,5,0,0
90,44,0.0,0.057,0.0,-4.9,-35.5,156.9,0,566,8086,90,90,180,180,90,90,786,29,0,0
91,44,0.0,0.124,0.0,-3.6,-178.5,159.2,0,566,6738,90,90,180,180,90,90,788,10,0,0
92,39,0.0,0.242,0.0,-2.9,-178.2,159.2,0,566,6738,90,90,180,180,90,90,788,6,0,0
93,39,0.0,0.51,0.0,-2.0,-177.4,161.9,0,566,701,90,90,180,180,90,90,789,10,0,0
94,39,0.0,4.397,0.0,-3.4,-106.6,160.0,0,565,8653,90,90,180,180,90,90,788,9,0,0
95,35,0.0,3.908,0.0,-4.3,-35.7,161.9,0,568,1410,90,90,180,180,90,90,789,5,0,0
96,35,0.0,3.908,0.0,-5.5,-178.2,161.9,0,568,1410,90,90,180,180,90,90,789,11,0,0
97,35,0.0,3.637,0.0,-8.0,-177.6,166.6,0,5,6706,90,90,180,180,90,90,789,5,0,0
98,35,0.0,4.445,0.0,-7.2,-176.7,166.6,0,5,6706,90,90,180,180,90,90,788,12,0,0
99,35,0.0,0.521,0.0,-6.0,-175.2,62.8,0,0,0,90,90,180,180,90,90,786,31,0,0
100,40,0.0,0.211,0.0,-7.6,-174.8,1.6,0,0,0,90,90,180,180,90,90,789,5,0,0
101,40,0.0,0.028,0.0,-9.4,-173.5,1.6,0,0,0,90,90,180,180,90,90,789,5,0,0
102,40,0.0,0.116,0.0,-11.2,-172.5,1.6,0,0,0,90,90,180,180,90,90,789,5,0,0
103,40,0.0,5.735,0.0,-12.5,-174.4,1.6,0,0,0,90,90,180,180,90,90,789,5,0,0
104,40,0.0,3.82,0.0,-10.5,-175.3,1.6,0,0,0,90,90,180,180,90,90,788,23,0,0
105,40,0.0,2.32,0.0,-8.8,-176.4,1.6,0,0,0,90,90,180,180,90,90,786,31,0,0
106,40,0.0,2.195,0.0,-8.9,-175.9,1.6,0,0,0,90,90,180,180,90,90,789,5,0,0
107,40,0.0,2.453,0.0,-11.1,-175.3,1.6,0,0,0,90,90,180,180,90,90,789,11,0,0
108,40,0.0,0.289,0.0,-14.0,-174.0,0.1,0,0,0,90,90,180,180,90,90,789,5,0,0
109,40,0.0,0.018,0.0,-14.7,-173.4,0.1,0,0,0,90,90,180,180,90,90,789,6,0,0
110,40,0.0,0.072,0.0,-15.7,-172.4,0.0,0,0,0,90,90,180,180,90,90,789,5,0,0
111,41,0.0,0.845,0.0,-14.6,-172.5,6.2,0,0,0,90,108,180,180,90,90,789,16,0,0
112,41,0.0,0.087,0.0,-15.0,-171.6,16.2,0,0,0,90,90,180,180,90,90,789,6,0,0
113,41,0.0,0.148,0.0,-15.7,-170.5,158.1,0,0,8,90,90,180,180,90,90,789,5,0,0
114,41,0.0,0.678,0.0,-18.2,-170.8,158.8,0,0,0,90,90,180,180,90,90,788,10,0,0
115,39,0.0,0.03,0.0,-18.9,-170.2,165.8,0,0,0,90,90,180,180,90,90,788,17,0,0
116,39,0.0,0.116,0.0,-16.5,-169.2,165.8,0,0,0,90,90,180,180,90,90,789,5,0,0
117,39,0.0,0.381,0.0,-17.2,-169.0,162.8,0,0,0,90,90,180,180,90,90,789,5,0,0
118,524,0.0,0.462,0.0,-16.8,-168.9,160.0,0,0,0,90,90,180,180,90,90,789,8,0,0
119,524,0.0,1.947,0.0,-15.2,-170.5,160.0,0,0,0,90,90,180,180,90,90,788,19,0,0
120,39,0.0,0.058,0.0,-10.9,-171.3,160.0,0,0,0,90,90,180,180,90,90,789,5,0,0
121,39,0.0,0.028,0.0,-7.1,-172.7,16.5,0,0,0,90,90,180,180,90,90,789,6,0,0
122,39,0.0,0.014,0.0,-5.6,-175.9,16.5,0,0,0,90,90,180,180,90,90,788,8,0,0
123,39,0.0,0.319,0.0,-2.9,-176.5,16.5,0,0,0,90,90,180,180,90,90,789,8,0,0
124,39,0.0,0.018,0.0,-2.4,-177.4,16.5,0,0,0,90,90,180,180,90,90,788,21,0,0
125,39,0.0,2.357,0.0,-3.4,-177.7,16.3,0,0,0,90,90,180,180,90,90,788,18,0,0
126,41,0.0,0.003,0.0,-1.4,-176.5,16.3,0,0,0,90,90,180,180,90,90,788,20,0,0
127,41,0.0,0.378,0.0,0.2,-176.3,16.1,0,0,0,90,90,180,180,90,90,789,5,0,0
128,41,0.0,1.288,0.0,-0.9,-176.3,16.1,0,0,0,90,90,180,180,90,90,789,5,0,0
129,44,0.0,0.845,0.0,-1.1,-176.5,10.2,0,0,0,90,90,180,180,90,90,789,10,0,0
130,44,0.0,0.106,0.0,-3.5,-174.7,8.5,0,0,0,90,90,180,180,90,90,789,10,0,0
131,44,0.0,0.112,0.0,-5.2,-174.2,79.2,0,0,64,90,131,180,180,90,90,782,103,0,0
132,38,0.0,0.131,0.0,-3.9,-173.6,75.0,0,0,56,90,170,180,180,90,90,789,9,0,0
133,38,0.0,0.003,0.0,-3.1,-173.2,75.4,0,0,0,90,170,180,180,90,90,788,15,0,0
134,38,0.0,0.159,0.0,-4.3,-172.9,65.3,0,0,0,90,170,180,180,90,90,788,13,0,0
135,528,0.0,2.096,0.0,-1.9,-171.4,63.7,0,0,56,90,178,180,180,90,90,788,12,0,0
136,528,0.0,3.738,0.0,-1.1,-172.2,63.7,0,0,56,90,178,180,180,90,90,788,17,0,0
137,42,0.0,0.017,0.0,-1.4,-172.4,0.0,0,0,0,90,178,180,180,90,90,788,19,0,0
138,42,0.0,0.103,0.0,-2.1,-171.3,0.0,0,0,0,90,178,180,180,90,90,788,20,0,0
139,42,0.0,0.025,0.0,-1.9,-170.2,39.7,0,0,56,90,178,180,180,90,90,788,17,0,0
140,40,0.0,0.041,0.0,1.3,-171.5,40.9,0,0,56,90,178,180,180,90,90,788,15,0,0
141,40,0.0,0.089,0.0,3.4,-172.4,0.0,0,0,0,90,178,180,180,90,90,788,17,0,0
142,39,0.0,1.922,0.0,5.5,-175.9,43.8,0,0,56,90,178,180,180,90,90,788,16,0,0
143,39,0.0,1.984,0.0,5.3,-174.6,37.9,0,0,56,90,178,180,180,90,90,788,20,0,0
144,39,0.0,0.078,0.0,4.3,-176.2,19.9,0,0,56,90,178,180,180,90,90,788,20,0,0
145,39,0.0,0.087,0.0,5.2,-35.3,15.5,0,568,1900,91,178,180,180,90,90,789,11,0,0
146,39,0.0,1.303,0.0,5.1,176.7,12.1,0,567,9783,92,178,180,180,90,90,788,18,0,0
147,41,0.0,1.156,0.0,5.1,173.6,11.8,0,0,56,96,178,180,180,90,90,786,22,0,0
148,41,0.0,0.766,0.0,6.1,173.5,15.4,0,568,276,94,164,180,180,90,90,789,11,0,0
149,41,0.0,0.443,0.0,4.4,174.6,16.6,0,0,5,96,130,180,180,90,90,789,5,0,0
150,41,0.0,0.215,0.0,1.5,174.9,16.4,0,0,5,94,104,180,180,90,90,788,13,0,0
151,41,0.0,0.3,0.0,3.7,172.7,16.4,0,568,4572,90,91,180,180,90,90,786,28,0,0
152,41,0.0,0.3,0.0,6.0,171.9,16.4,0,568,4572,90,90,180,180,90,90,789,8,0,0
153,41,0.0,0.64,0.0,7.2,172.3,16.4,0,0,5,90,90,180,180,90,90,788,15,0,0
154,38,0.0,0.64,0.0,7.6,171.8,16.4,0,0,5,90,90,180,180,90,90,788,14,0,0
155,38,0.0,1.241,0.0,6.1,171.1,16.4,0,568,3476,90,90,180,180,90,90,788,17,0,0
156,38,0.0,1.241,0.0,5.5,171.5,16.4,0,568,3476,90,90,180,180,90,90,788,16,0,0
157,41,0.0,1.351,0.0,4.7,171.8,16.4,0,568,3476,90,90,180,180,90,90,788,18,0,0
158,41,0.0,1.351,0.0,3.2,171.8,16.4,0,568,3476,90,90,180,180,90,90,789,5,0,0
159,41,0.0,1.351,0.0,3.1,172.2,16.4,0,568,3476,90,90,180,180,90,90,788,20,0,0
160,40,0.0,0.0,0.0,3.1,172.5,9.2,0,568,381,90,90,180,180,90,90,788,11,0,0
161,40,0.0,0.0,0.0,3.2,173.0,9.2,0,568,381,90,90,180,180,90,90,788,13,0,0
162,40,0.0,0.0,0.0,3.2,173.4,9.2,0,568,381,90,90,180,180,90,90,786,20,0,0
163,41,0.0,0.0,0.0,3.2,173.4,9.2,0,568,381,90,90,180,180,90,90,788,18,0,0
164,41,0.0,0.0,0.0,3.1,173.3,9.2,0,0,0,90,90,180,180,90,90,788,19,0,0
165,41,0.0,0.0,0.0,3.2,173.7,9.2,0,0,0,90,90,180,180,90,90,788,15,0,0
166,41,0.0,0.0,0.0,3.2,174.0,9.2,0,567,9507,90,90,180,180,90,90,788,14,0,0
167,41,0.0,0.0,0.0,3.3,174.0,9.2,0,567,9507,90,90,180,180,90,90,788,21,0,0
168,41,0.0,0.0,0.0,3.1,173.9,9.2,0,567,9507,90,90,180,180,90,90,788,14,0,0
169,41,0.0,0.0,0.0,3.2,173.9,8.3,0,0,0,90,90,180,180,90,90,788,16,0,0
170,41,0.0,0.0,0.0,3.3,173.8,8.3,0,0,0,90,90,180,180,90,90,788,13,0,0
171,37,0.0,0.0,0.0,3.2,174.1,8.3,0,568,219,90,90,180,180,90,90,788,13,0,0
172,37,0.0,0.0,0.0,3.3,173.7,8.3,0,568,219,90,90,180,180,90,90,788,11,0,0
173,37,0.0,0.0,0.0,3.3,173.1,8.3,0,568,219,90,90,180,180,90,90,788,17,0,0
174,41,0.0,0.0,0.0,3.2,173.3,8.3,0,568,219,90,90,180,180,90,90,788,12,0,0
175,41,0.0,0.0,0.0,3.2,173.4,8.3,0,568,219,90,90,180,180,90,90,788,11,0,0
176,41,0.0,0.0,0.0,3.2,173.6,3.7,0,567,8494,90,90,180,180,90,90,788,12,0,0
177,41,0.0,0.0,0.0,3.3,173.6,3.7,0,567,8494,90,90,180,180,90,90,788,13,0,0
178,41,0.0,0.0,0.0,3.1,173.6,3.7,0,567,8494,90,90,180,180,90,90,788,14,0,0
179,41,0.0,0.0,0.0,3.2,173.5,3.7,0,567,8494,90,90,180,180,90,90,788,12,0,0
180,41,0.0,0.0,0.0,3.3,173.3,3.7,0,0,0,90,90,180,180,90,90,788,15,0,0
181,41,0.0,0.0,0.0,3.2,173.5,3.7,0,0,0,90,90,180,180,90,90,788,12,0,0
182,41,0.0,0.0,0.0,3.2,173.5,3.7,0,567,7730,90,90,180,180,90,90,788,16,0,0
183,41,0.0,0.0,0.0,3.1,173.6,3.7,0,567,7730,90,90,180,180,90,90,788,14,0,0
184,41,0.0,0.0,0.0,3.1,173.7,3.7,0,567,7730,90,90,180,180,90,90,788,15,0,0
185,41,0.0,0.0,0.0,3.1,173.4,3.7,0,567,7730,90,90,180,180,90,90,788,25,0,0
186,41,0.0,0.0,0.0,3.2,173.4,3.7,0,567,7730,90,90,180,180,90,90,788,15,0,0
187,41,0.0,0.0,0.0,3.2,173.7,3.7,0,0,0,90,90,180,180,90,90,788,13,0,0
188,41,0.0,0.0,0.0,3.2,173.9,3.7,0,0,0,90,90,180,180,90,90,788,14,0,0
189,41,0.0,0.0,0.0,3.2,173.8,3.7,0,567,7679,90,90,180,180,90,90,788,15,0,0
190,41,0.0,0.0,0.0,3.2,173.5,3.7,0,567,7679,90,90,180,180,90,90,788,11,0,0
191,41,0.0,0.0,0.0,3.2,173.8,3.7,0,567,7679,90,90,180,180,90,90,788,18,0,0
192,41,0.0,0.0,0.0,3.2,173.8,3.7,0,567,7679,90,90,180,180,90,90,788,13,0,0
193,41,0.0,0.0,0.0,3.1,173.7,3.7,0,567,7679,90,90,180,180,90,90,788,14,0,0
194,41,0.0,0.0,0.0,3.2,173.8,0.0,0,0,0,90,90,180,180,90,90,788,15,0,0
195,41,0.0,0.0,0.0,3.2,174.0,0.0,0,0,0,90,90,180,180,90,90,788,15,0,0
196,41,0.0,0.0,0.0,3.3,173.8,3.7,0,567,7687,90,90,180,180,90,90,788,17,0,0
197,41,0.0,0.0,0.0,3.3,173.5,3.7,0,567,7687,90,90,180,180,90,90,788,15,0,0
198,41,0.0,0.0,0.0,3.2,173.5,3.7,0,567,7687,90,90,180,180,90,90,788,13,0,0
199,41,0.0,0.0,0.0,3.1,173.4,0.0,0,0,0,90,90,180,180,90,90,788,12,0,0
200,41,0.0,0.0,0.0,3.2,173.5,0.0,0,0,0,90,90,180,180,90,90,788,16,0,0
201,41,0.0,0.0,0.0,3.2,173.5,3.7,0,567,7359,90,90,180,180,90,90,788,20,0,0
202,41,0.0,0.0,0.0,3.2,173.7,3.7,0,567,7359,90,90,180,180,90,90,788,14,0,0
203,41,0.0,0.0,0.0,3.2,173.6,3.7,0,567,7359,90,90,180,180,90,90,788,14,0,0
204,41,0.0,0.0,0.0,3.2,173.4,3.7,0,567,7359,90,90,180,180,90,90,788,13,0,0
205,41,0.0,0.0,0.0,3.2,173.4,0.0,0,0,1,90,90,180,180,90,90,788,7,0,0
206,41,0.0,0.0,0.0,3.1,173.3,0.0,0,0,1,90,90,180,180,90,90,788,14,0,0
207,41,0.0,0.0,0.0,3.2,173.3,0.0,0,0,1,90,90,180,180,90,90,788,15,0,0
208,41,0.0,0.0,0.0,3.2,173.2,3.7,0,0,0,90,90,180,180,90,90,788,11,0,0
209,41,0.0,0.0,0.0,3.2,173.4,3.7,0,0,0,90,90,180,180,90,90,788,13,0,0
210,42,0.0,0.0,0.0,3.2,173.7,3.7,0,0,0,90,90,180,180,90,90,788,14,0,0
211,42,0.0,0.0,0.0,3.3,173.5,3.7,0,0,0,90,90,180,180,90,90,789,13,0,0
212,41,0.0,0.0,0.0,3.3,173.4,3.7,0,0,0,90,90,180,180,90,90,788,12,0,0
213,41,0.0,0.0,0.0,3.2,173.2,3.7,0,0,0,90,90,180,180,90,90,788,15,0,0
214,41,0.0,0.0,0.0,3.3,173.3,3.7,0,0,0,90,90,180,180,90,90,788,13,0,0
215,41,0.0,0.0,0.0,3.2,173.3,3.7,0,0,0,90,90,180,180,90,90,788,14,0,0
216,41,0.0,0.0,0.0,3.2,173.2,3.7,0,0,0,90,90,180,180,90,90,788,13,0,0
217,41,0.0,0.0,0.0,3.2,173.1,3.7,0,0,0,90,90,180,180,90,90,788,16,0,0
218,41,0.0,0.0,0.0,3.2,173.0,3.7,0,0,0,90,90,180,180,90,90,788,13,0,0
219,40,0.0,0.0,0.0,3.1,173.1,3.7,0,0,0,90,90,180,180,90,90,788,14,0,0
220,40,0.0,0.0,0.0,3.2,173.1,3.7,0,0,0,90,90,180,180,90,90,788,13,0,0
221,40,0.0,0.0,0.0,3.2,173.1,3.7,0,0,0,90,90,180,180,90,90,788,14,0,0
222,40,0.0,0.0,0.0,3.2,173.2,3.7,0,0,0,90,90,180,180,90,90,788,12,0,0
223,40,0.0,0.0,0.0,3.2,173.2,3.7,0,0,0,90,90,180,180,90,90,788,11,0,0
224,41,0.0,0.0,0.0,3.2,173.3,3.7,0,0,0,90,90,180,180,90,90,788,14,0,0
225,41,0.0,0.0,0.0,3.1,173.3,3.7,0,0,0,90,90,180,180,90,90,788,14,0,0
226,40,0.0,0.0,0.0,3.2,173.3,3.7,0,0,0,90,90,180,180,90,90,788,12,0,0
227,40,0.0,0.0,0.0,3.2,173.1,3.7,0,0,0,90,90,180,180,90,90,789,14,0,0
228,40,0.0,0.0,0.0,3.3,172.9,3.7,0,0,0,90,90,180,180,90,90,788,15,0,0
229,40,0.0,0.0,0.0,3.3,172.8,3.7,0,0,0,90,90,180,180,90,90,789,5,0,0
230,40,0.0,0.0,0.0,3.2,173.2,3.7,0,0,0,90,90,180,180,90,90,788,13,0,0
231,41,0.0,0.0,0.0,3.2,173.4,3.7,0,0,0,90,90,180,180,90,90,788,14,0,0
232,41,0.0,0.0,0.0,3.2,173.2,3.7,0,0,0,90,90,180,180,90,90,788,10,0,0
233,41,0.0,0.0,0.0,3.2,173.2,1.6,0,0,0,90,90,180,180,90,90,788,10,0,0
234,41,0.0,0.0,0.0,3.3,173.2,1.6,0,0,0,90,90,180,180,90,90,788,10,0,0
235,41,0.0,0.0,0.0,3.2,173.1,1.6,0,0,0,90,90,180,180,90,90,788,14,0,0
236,41,0.0,0.0,0.0,3.3,173.1,1.6,0,0,0,90,90,180,180,90,90,788,11,0,0
237,41,0.0,0.0,0.0,3.2,173.1,1.6,0,0,5,90,90,180,180,90,90,788,13,0,0
238,41,0.0,0.0,0.0,3.1,173.0,1.6,0,0,5,90,90,180,180,90,90,788,13,0,0
239,41,0.0,0.0,0.0,3.2,173.1,1.6,0,0,5,90,90,180,180,90,90,788,13,0,0
240,41,0.0,0.0,0.0,3.2,172.9,1.6,0,0,5,90,90,180,180,90,90,788,11,0,0
241,41,0.0,0.0,0.0,3.3,173.5,1.6,0,0,5,90,90,180,180,90,90,788,11,0,0
242,41,0.0,0.0,0.0,3.3,174.0,0.1,0,0,0,90,90,180,180,90,90,788,12,0,0
243,41,0.0,0.0,0.0,3.2,173.9,0.1,0,0,0,90,90,180,180,90,90,789,13,0,0
244,41,0.0,0.0,0.0,3.2,174.1,1.6,0,0,5,90,90,180,180,90,90,788,16,0,0
245,41,0.0,0.0,0.0,3.2,174.1,1.6,0,0,5,90,90,180,180,90,90,788,14,0,0
246,41,0.0,0.0,0.0,3.3,174.1,1.6,0,0,5,90,90,180,180,90,90,788,14,0,0
247,41,0.0,0.0,0.0,3.2,174.2,1.6,0,0,5,90,90,180,180,90,90,788,15,0,0
248,41,0.0,0.0,0.0,3.3,174.1,0.1,0,0,0,90,90,180,180,90,90,788,15,0,0
249,36,0.0,0.0,0.0,3.2,174.1,0.1,0,0,0,90,90,180,180,90,90,788,14,0,0
250,36,0.0,0.0,0.0,3.2,174.0,0.1,0,0,0,90,90,180,180,90,90,789,14,0,0
251,41,0.0,0.0,0.0,3.2,174.1,1.6,0,0,0,90,90,180,180,90,90,788,13,0,0
252,41,0.0,0.0,0.0,3.2,174.2,1.6,0,0,0,90,90,180,180,90,90,788,12,0,0
253,36,0.0,0.0,0.0,3.2,174.2,1.6,0,0,0,90,90,180,180,90,90,788,13,0,0
254,36,0.0,0.0,0.0,3.2,174.3,1.6,0,0,0,90,90,180,180,90,90,789,11,0,0
255,36,0.0,0.0,0.0,3.1,174.2,0.0,0,0,0,90,90,180,180,90,90,788,11,0,0
256,36,0.0,0.0,0.0,3.1,174.3,0.0,0,0,0,90,90,180,180,90,90,788,13,0,0
257,36,0.0,0.0,0.0,3.2,174.2,0.0,0,0,0,90,90,180,180,90,90,788,14,0,0
258,1072,0.0,0.0,0.0,3.2,174.4,0.0,0,0,0,90,90,180,180,90,90,788,15,0,0
259,1072,0.0,0.0,0.0,3.2,174.3,0.7,0,0,0,90,90,180,180,90,90,788,15,0,0
260,42,0.0,0.0,0.0,3.2,174.5,0.7,0,0,0,90,90,180,180,90,90,788,14,0,0
261,42,0.0,0.0,0.0,3.1,174.5,0.7,0,0,0,90,90,180,180,90,90,788,11,0,0
262,42,0.0,0.0,0.0,3.2,174.7,0.0,0,0,0,90,90,180,180,90,90,788,14,0,0
263,44,0.0,0.0,0.0,3.1,174.7,0.0,0,0,0,90,90,180,180,90,90,788,12,0,0
264,44,0.0,0.0,0.0,3.1,175.0,0.0,0,0,0,90,90,180,180,90,90,788,12,0,0
265,44,0.0,0.0,0.0,3.2,174.8,0.0,0,0,0,90,90,180,180,90,90,788,15,0,0
266,36,0.0,0.0,0.0,3.3,174.6,0.7,0,0,0,90,90,180,180,90,90,788,11,0,0
267,36,0.0,0.0,0.0,3.2,174.7,0.7,0,0,0,90,90,180,180,90,90,789,10,0,0
268,36,0.0,0.0,0.0,3.3,174.5,0.7,0,0,0,90,90,180,180,90,90,788,15,0,0
269,36,0.0,0.0,0.0,3.2,174.6,0.7,0,0,0,90,90,180,180,90,90,788,16,0,0
270,36,0.0,0.0,0.0,3.2,174.4,0.7,0,0,0,90,90,180,180,90,90,788,14,0,0
271,42,0.0,0.0,0.0,3.1,174.4,0.0,0,0,0,90,90,180,180,90,90,788,13,0,0
272,42,0.0,0.0,0.0,3.1,174.4,0.0,0,0,0,90,90,180,180,90,90,788,13,0,0
273,42,0.0,0.0,0.0,3.2,174.5,0.5,0,0,0,90,90,180,180,90,90,788,15,0,0
274,42,0.0,0.0,0.0,3.2,174.5,0.5,0,0,0,90,90,180,180,90,90,788,14,0,0
275,42,0.0,0.0,0.0,3.2,174.5,0.5,0,0,0,90,90,180,180,90,90,788,14,0,0
276,42,0.0,0.0,0.0,3.2,174.4,0.5,0,0,0,90,90,180,180,90,90,788,12,0,0
277,42,0.0,0.0,0.0,3.2,174.9,0.5,0,0,0,90,90,180,180,90,90,788,14,0,0
278,45,0.0,0.0,0.0,3.1,174.8,0.5,0,0,0,90,90,180,180,90,90,788,13,0,0
279,45,0.0,0.0,0.0,3.1,174.6,0.5,0,0,0,90,90,180,180,90,90,788,13,0,0
280,45,0.0,0.0,0.0,3.2,174.9,0.5,0,0,0,90,90,180,180,90,90,788,13,0,0
281,43,0.0,0.0,0.0,3.2,174.8,0.5,0,0,0,90,90,180,180,90,90,788,12,0,0
282,43,0.0,0.0,0.0,3.2,174.7,0.5,0,0,0,90,90,180,180,90,90,788,11,0,0
283,43,0.0,0.0,0.0,3.2,174.9,0.5,0,0,0,90,90,180,180,90,90,789,11,0,0
284,36,0.0,0.0,0.0,3.1,174.9,0.5,0,0,0,90,90,180,180,90,90,788,13,0,0
285,36,0.0,0.0,0.0,3.2,174.8,0.5,0,0,0,90,90,180,180,90,90,789,7,0,0
286,45,0.0,0.0,0.0,3.1,174.8,0.5,0,0,0,90,90,180,180,90,90,788,10,0,0
287,45,0.0,0.0,0.0,3.3,174.7,0.5,0,0,0,90,90,180,180,90,90,788,12,0,0
288,45,0.0,0.0,0.0,3.2,174.9,0.5,0,0,0,90,90,180,180,90,90,788,15,0,0
289,45,0.0,0.0,0.0,3.2,174.9,0.7,0,0,0,90,90,180,180,90,90,788,15,0,0
290,45,0.0,0.0,0.0,3.2,174.6,0.7,0,0,0,90,90,180,180,90,90,789,13,0,0
291,41,0.0,0.0,0.0,3.1,173.8,0.7,0,0,0,90,90,180,180,90,90,788,22,0,0
292,41,0.0,0.0,0.0,3.3,173.9,0.7,0,0,0,90,90,180,180,90,90,788,19,0,0
293,43,0.0,0.0,0.0,3.4,174.2,0.7,0,0,0,90,90,180,180,90,90,788,19,0,0
294,43,0.0,0.0,0.0,3.5,174.3,0.5,0,0,0,90,90,180,180,90,90,788,16,0,0
295,41,0.0,0.0,0.0,3.4,174.6,0.5,0,0,0,90,90,180,180,90,90,788,16,0,0
296,41,0.0,0.0,0.0,3.6,174.5,0.5,0,0,0,90,90,180,180,90,90,788,6,0,0
297,41,0.0,0.0,0.0,3.6,174.4,0.5,0,0,0,90,90,180,180,90,90,788,16,0,0
298,42,0.0,0.0,0.0,3.5,174.1,0.5,0,0,0,90,90,180,180,90,90,789,5,0,0
299,42,0.0,0.0,0.0,3.6,174.2,0.5,0,0,0,90,90,180,180,90,90,788,19,0,0
300,42,0.0,0.0,0.0,3.6,174.5,0.5,0,0,0,90,90,180,180,90,90,788,13,0,0
301,39,0.0,0.0,0.0,3.3,175.0,0.4,0,0,0,90,90,180,180,90,90,788,18,0,0
302,39,0.0,0.0,0.0,3.3,174.9,0.4,0,0,0,90,90,180,180,90,90,788,21,0,0
303,39,0.0,0.0,0.0,3.4,174.7,0.4,0,0,0,90,90,180,180,90,90,788,19,0,0
304,41,0.0,0.0,0.0,3.3,174.2,0.4,0,0,0,90,90,180,180,90,90,788,7,0,0
305,41,0.0,0.0,0.0,3.4,173.9,0.4,0,0,0,90,90,180,180,90,90,788,13,0,0
306,41,0.0,0.0,0.0,3.3,173.9,0.4,0,0,0,90,90,180,180,90,90,788,18,0,0
307,41,0.0,0.0,0.0,3.3,174.0,0.4,0,0,0,90,90,180,180,90,90,788,11,0,0
308,41,0.0,0.0,0.0,3.3,173.9,0.4,0,0,0,90,90,180,180,90,90,789,5,0,0
309,41,0.0,0.0,0.0,3.3,174.3,0.4,0,0,0,90,90,180,180,90,90,786,26,0,0
310,41,0.0,0.0,0.0,3.3,174.6,0.5,0,0,0,90,90,180,180,90,90,788,11,0,0
311,41,0.0,0.0,0.0,3.2,174.0,0.5,0,0,0,90,90,180,180,90,90,788,10,0,0
312,42,0.0,0.0,0.0,3.1,174.4,0.5,0,0,0,90,90,180,180,90,90,788,17,0,0
313,42,0.0,0.0,0.0,3.2,174.1,0.5,0,0,0,90,90,180,180,90,90,788,14,0,0
314,41,0.0,0.0,0.0,3.2,174.7,0.5,0,0,0,90,90,180,180,90,90,788,15,0,0
315,41,0.0,0.0,0.0,3.5,174.7,0.5,0,0,0,90,90,180,180,90,90,788,16,0,0
316,41,0.0,0.0,0.0,3.3,174.6,0.6,0,0,0,90,90,180,180,90,90,789,9,0,0
317,41,0.0,0.0,0.0,3.3,174.4,0.0,0,0,0,90,90,180,180,90,90,788,13,0,0
318,41,0.0,0.0,0.0,3.4,174.1,0.0,0,0,0,90,90,180,180,90,90,786,27,0,0
319,37,0.0,0.0,0.0,3.5,175.1,0.0,0,0,0,90,90,180,180,90,90,788,13,0,0
320,37,0.0,0.0,0.0,3.3,175.5,0.0,0,0,0,90,90,180,180,90,90,788,11,0,0
321,37,0.0,0.0,0.0,3.4,175.2,0.0,0,0,0,90,90,180,180,90,90,788,16,0,0
322,42,0.0,0.0,0.0,3.3,174.8,0.0,0,0,0,90,90,180,180,90,90,788,25,0,0
323,42,0.0,0.0,0.0,3.4,174.6,0.6,0,0,5,90,90,180,180,90,90,788,12,0,0
324,41,0.0,0.0,0.0,3.5,174.9,0.6,0,0,5,90,90,180,180,90,90,786,23,0,0
325,41,0.0,0.0,0.0,3.4,175.3,0.6,0,0,5,90,90,180,180,90,90,788,13,0,0
326,39,0.0,0.0,0.0,3.2,175.8,0.0,0,0,0,90,90,180,180,90,90,786,30,0,0
327,39,0.0,0.0,0.0,3.4,175.6,0.0,0,0,0,90,90,180,180,90,90,788,14,0,0
328,39,0.0,0.0,0.0,4.3,174.4,0.0,0,0,0,90,90,180,180,90,90,788,12,0,0
329,41,0.0,0.0,0.0,5.0,173.8,0.0,0,0,0,90,90,180,180,90,90,788,13,0,0
330,41,0.0,0.0,0.0,4.6,173.8,0.6,0,0,567,90,90,180,180,90,90,788,12,0,0
331,41,0.0,0.0,0.0,4.1,174.4,0.6,0,0,567,90,90,180,180,90,90,789,5,0,0
332,44,0.0,0.0,0.0,4.1,174.7,0.0,0,0,0,90,90,180,180,90,90,788,13,0,0
333,44,0.0,0.0,0.0,4.2,174.7,0.0,0,0,0,90,90,180,180,90,90,788,18,0,0
334,44,0.0,0.0,0.0,4.1,174.6,0.0,0,0,0,90,90,180,180,90,90,788,13,0,0
335,40,0.0,0.0,0.0,3.8,175.0,0.0,0,0,0,90,90,180,180,90,90,785,41,0,0
336,40,0.0,0.0,0.0,4.2,174.8,0.0,0,0,0,90,90,180,180,90,90,788,13,0,0
337,40,0.0,0.0,0.0,4.4,174.3,0.8,0,0,56,90,90,180,180,90,90,788,11,0,0
338,40,0.0,0.0,0.0,4.2,174.3,0.8,0,0,56,90,90,180,180,90,90,788,13,0,0
339,40,0.0,0.0,0.0,4.2,174.3,0.0,0,0,0,90,90,180,180,90,90,789,5,0,0
340,40,0.0,0.0,0.0,4.2,174.2,0.0,0,0,0,90,90,180,180,90,90,788,15,0,0
341,40,0.0,0.0,0.0,4.3,174.1,0.0,0,0,0,90,90,180,180,90,90,788,13,0,0
342,40,0.0,0.0,0.0,4.0,174.2,0.0,0,0,0,90,90,180,180,90,90,788,14,0,0
343,39,0.0,0.0,0.0,3.7,174.7,0.0,0,0,0,90,90,180,180,90,90,786,25,0,0
344,39,0.0,0.0,0.0,3.4,175.0,0.8,0,0,56,90,90,180,180,90,90,786,29,0,0
345,39,0.0,0.0,0.0,3.3,175.3,0.8,0,0,56,90,90,180,180,90,90,788,13,0,0
346,40,0.0,0.0,0.0,3.4,175.8,0.0,0,0,91,90,90,180,180,90,90,788,14,0,0
347,40,0.0,0.0,0.0,3.3,175.9,0.0,0,0,91,90,90,180,180,90,90,788,13,0,0
348,40,0.0,0.0,0.0,3.4,175.4,0.0,0,0,91,90,90,180,180,90,90,788,15,0,0
349,39,0.0,0.0,0.0,3.5,175.1,0.0,0,0,91,90,90,180,180,90,90,788,14,0,0
350,39,0.0,0.0,0.0,3.5,174.9,0.0,0,0,91,90,90,180,180,90,90,788,12,0,0
351,40,0.0,0.0,0.0,3.7,175.0,0.0,0,0,91,90,90,180,180,90,90,788,15,0,0
352,40,0.0,0.0,0.0,3.8,175.1,0.0,0,0,0,90,90,180,180,90,90,788,11,0,0
353,40,0.0,0.0,0.0,3.8,175.5,0.8,0,0,0,90,90,180,180,90,90,789,6,0,0
354,37,0.0,0.0,0.0,3.7,175.8,0.8,0,0,0,90,90,180,180,90,90,788,16,0,0
355,37,0.0,0.0,0.0,3.8,175.8,0.8,0,0,0,90,90,180,180,90,90,786,25,0,0
356,39,0.0,0.0,0.0,3.9,175.8,0.8,0,0,0,90,90,180,180,90,90,788,13,0,0
357,39,0.0,0.0,0.0,4.2,175.7,0.8,0,0,0,90,90,180,180,90,90,788,16,0,0
358,42,0.0,0.0,0.0,4.5,175.9,0.8,0,0,0,90,90,180,180,90,90,786,23,0,0
359,42,0.0,0.0,0.0,4.8,175.5,0.0,0,0,0,90,90,180,180,90,90,786,21,0,0
360,42,0.0,0.0,0.0,4.4,174.4,0.0,0,0,0,90,90,180,180,90,90,788,23,0,0
361,39,0.0,0.0,0.0,4.6,175.3,0.0,0,0,0,90,90,180,180,90,90,786,23,0,0
362,39,0.0,0.0,0.0,4.6,175.9,0.9,0,0,0,90,90,180,180,90,90,786,24,0,0
363,39,0.0,0.0,0.0,3.3,175.6,0.9,0,0,0,90,90,180,180,90,90,786,24,0,0
364,40,0.0,0.0,0.0,3.1,175.6,0.9,0,0,0,90,90,180,180,90,90,786,34,0,0
365,40,0.0,0.0,0.0,3.3,175.9,0.9,0,0,0,90,90,180,180,90,90,788,25,0,0
366,40,0.0,0.0,0.0,3.9,176.4,0.0,0,0,0,90,90,180,180,90,90,786,22,0,0
367,41,0.0,0.0,0.0,3.4,175.6,0.0,0,0,0,90,90,180,180,90,90,788,9,0,0
368,41,0.0,0.0,0.0,1.9,175.3,1.0,0,0,0,90,90,180,180,90,90,786,34,0,0
369,41,0.0,0.0,0.0,1.5,175.4,1.0,0,0,0,90,90,180,180,90,90,786,32,0,0
370,36,0.0,0.0,0.0,2.2,175.7,1.0,0,0,0,90,90,180,180,90,90,785,33,0,0
371,36,0.0,0.0,0.0,4.0,176.8,1.0,0,0,0,90,90,180,180,90,90,788,11,0,0
372,36,0.0,0.0,0.0,3.9,177.1,1.0,0,0,0,90,90,180,180,90,90,788,8,0,0
373,40,0.0,0.0,0.0,4.1,176.8,0.0,0,0,0,90,90,180,180,90,90,786,26,0,0
374,40,0.0,0.0,0.0,4.1,177.0,0.0,0,0,0,90,90,180,180,90,90,786,18,0,0
375,40,0.0,0.0,0.0,3.9,176.7,0.9,0,0,0,90,90,180,180,90,90,786,16,0,0
376,43,0.0,0.0,0.0,3.3,176.2,0.9,0,0,0,90,90,180,180,90,90,786,21,0,0
377,43,0.0,0.0,0.0,3.9,176.3,0.9,0,0,0,90,90,180,180,90,90,788,13,0,0
378,43,0.0,0.0,0.0,3.5,176.8,0.9,0,0,0,90,90,180,180,90,90,788,21,0,0
379,38,0.0,6.552,0.0,3.8,177.9,0.9,0,0,0,90,90,180,180,90,90,788,18,0,0
380,38,0.0,6.552,0.0,4.4,178.3,0.9,0,0,0,90,90,180,180,90,90,789,5,0,0
381,38,0.0,6.552,0.0,4.1,176.8,0.0,0,0,0,90,90,180,180,90,90,786,22,0,0
382,42,0.0,6.552,0.0,3.7,176.0,0.0,0,0,0,90,90,180,180,90,90,788,15,0,0
383,42,0.0,6.552,0.0,3.1,175.7,1.0,0,0,0,90,90,180,180,90,90,789,7,0,0
384,42,0.0,6.552,0.0,3.4,176.6,1.0,0,0,0,90,90,180,180,90,90,788,21,0,0
385,37,0.0,6.552,0.0,4.4,176.9,1.0,0,0,0,90,90,180,180,90,90,788,11,0,0
386,37,0.0,6.552,0.0,4.9,176.8,1.0,0,0,0,90,90,180,180,90,90,788,15,0,0
387,40,0.0,6.552,0.0,5.4,176.8,1.0,0,0,0,90,90,180,180,90,90,785,34,0,0
388,40,0.0,0.0,0.0,5.1,176.8,6.5,0,0,87,90,90,180,180,90,90,789,5,0,0
389,39,0.0,0.0,0.0,3.5,176.4,6.5,0,0,87,90,90,180,180,90,90,788,11,0,0
390,39,0.0,0.0,0.0,1.6,175.6,6.5,0,0,87,90,90,180,180,90,90,788,15,0,0
391,41,0.0,0.0,0.0,1.3,175.2,0.9,0,0,0,90,90,180,180,90,90,788,15,0,0
392,41,0.0,0.0,0.0,2.4,175.2,0.9,0,0,0,90,90,180,180,90,90,788,12,0,0
393,41,0.0,0.0,0.0,3.4,175.3,0.9,0,0,0,90,90,180,180,90,90,788,11,0,0
394,42,0.0,0.0,0.0,3.2,175.2,0.9,0,0,0,90,90,180,180,90,90,788,15,0,0
395,42,0.0,0.0,0.0,3.3,175.6,0.9,0,0,0,90,90,180,180,90,90,789,6,0,0
396,42,0.0,0.0,0.0,3.7,176.1,0.9,0,0,0,90,90,180,180,90,90,789,5,0,0
397,42,0.0,0.0,0.0,3.8,176.0,0.9,0,0,0,90,90,180,180,90,90,788,7,0,0
398,42,0.0,0.0,0.0,3.8,176.6,0.9,0,0,0,90,90,180,180,90,90,789,5,0,0
399,42,0.0,0.0,0.0,5.1,177.4,0.9,0,0,0,90,90,180,180,90,90,789,5,0,0
400,44,0.0,0.0,0.0,5.2,177.0,0.9,0,0,0,90,90,180,180,90,90,788,8,0,0
401,44,0.0,0.0,0.0,4.8,175.9,0.9,0,0,0,90,90,180,180,90,90,788,8,0,0
402,42,0.0,0.0,0.0,4.3,176.2,0.9,0,0,0,90,90,180,180,90,90,788,14,0,0
403,42,0.0,0.0,0.0,4.7,176.5,0.9,0,0,0,90,90,180,180,90,90,786,23,0,0
404,42,0.0,0.0,0.0,4.7,176.7,0.9,0,0,0,90,90,180,180,90,90,786,20,0,0
405,35,0.0,0.0,0.0,4.6,177.8,0.9,0,0,0,90,90,180,180,90,90,788,14,0,0
406,35,0.0,0.0,0.0,4.1,178.1,0.9,0,0,0,90,90,180,180,90,90,788,13,0,0
407,35,0.0,0.0,0.0,4.3,178.1,0.9,0,0,0,90,90,180,180,90,90,788,19,0,0
408,38,0.0,0.0,0.0,5.3,178.0,0.9,0,0,0,90,90,180,180,90,90,788,17,0,0
409,38,0.0,0.0,0.0,5.0,177.5,0.8,0,0,0,90,90,180,180,90,90,788,15,0,0
410,38,0.0,0.0,0.0,4.8,176.9,0.8,0,0,0,90,90,180,180,90,90,786,19,0,0
411,41,0.0,0.0,0.0,4.9,177.3,0.8,0,0,0,90,90,180,180,90,90,786,13,0,0
412,41,0.0,0.0,0.0,5.1,177.3,0.8,0,0,0,90,90,180,180,90,90,788,15,0,0
413,41,0.0,0.0,0.0,4.6,176.8,0.8,0,0,0,90,90,180,180,90,90,788,12,0,0
414,38,0.0,0.0,0.0,4.2,177.1,0.8,0,0,0,90,90,180,180,90,90,788,20,0,0
415,38,0.0,0.0,0.0,3.7,176.8,0.8,0,0,0,90,90,180,180,90,90,786,21,0,0
416,38,0.0,0.0,0.0,4.0,177.2,0.8,0,0,0,90,90,180,180,90,90,788,16,0,0
417,40,0.0,0.0,0.0,3.5,176.6,0.8,0,0,0,90,90,180,180,90,90,788,5,0,0
418,40,0.0,0.0,0.0,3.4,176.5,0.8,0,0,0,90,90,180,180,90,90,788,15,0,0
419,39,0.0,0.0,0.0,3.6,176.0,0.8,0,0,0,90,90,180,180,90,90,788,11,0,0
420,39,0.0,0.0,0.0,3.2,175.8,0.8,0,0,0,90,90,180,180,90,90,789,8,0,0
421,42,0.0,0.0,0.0,2.8,175.7,0.8,0,0,0,90,90,180,180,90,90,788,12,0,0
422,42,0.0,0.0,0.0,2.6,175.8,0.8,0,0,0,90,90,180,180,90,90,788,14,0,0
423,42,0.0,0.0,0.0,2.6,175.7,0.8,0,0,0,90,90,180,180,90,90,788,12,0,0
424,416,0.0,0.0,0.0,2.6,175.5,0.8,0,0,0,90,90,180,180,90,90,788,15,0,0
425,416,0.0,0.0,0.0,2.6,176.1,0.8,0,0,0,90,90,180,180,90,90,788,15,0,0
426,39,0.0,0.0,0.0,2.7,175.7,0.8,0,0,0,90,90,180,180,90,90,786,22,0,0
427,39,0.0,0.0,0.0,3.0,175.3,0.8,0,0,5,90,90,180,180,90,90,788,15,0,0
428,39,0.0,0.0,0.0,3.2,175.6,0.8,0,0,5,90,90,180,180,90,90,788,7,0,0
429,41,0.0,0.0,0.0,3.7,175.8,0.8,0,0,0,90,90,180,180,90,90,789,5,0,0
430,41,0.0,0.0,0.0,4.4,176.3,0.8,0,0,0,90,90,180,180,90,90,788,6,0,0
431,41,0.0,0.0,0.0,4.2,176.2,0.8,0,0,0,90,90,180,180,90,90,786,23,0,0
432,43,0.0,0.0,0.0,4.0,176.2,0.8,0,0,0,90,90,180,180,90,90,789,5,0,0
433,43,0.0,0.0,0.0,4.2,176.1,0.8,0,0,0,90,90,180,180,90,90,789,5,0,0
434,43,0.0,0.0,0.0,4.4,176.6,0.8,0,0,0,90,90,180,180,90,90,788,6,0,0
435,40,0.0,0.0,0.0,3.8,177.1,0.8,0,0,0,90,90,180,180,90,90,786,29,0,0
436,40,0.0,0.0,0.0,3.6,177.1,0.9,0,0,0,90,90,180,180,90,90,788,17,0,0
437,40,0.0,0.0,0.0,3.0,176.4,0.9,0,0,0,90,90,180,180,90,90,786,25,0,0
438,40,0.0,0.0,0.0,3.2,176.3,0.9,0,0,0,90,90,180,180,90,90,786,24,0,0
439,41,0.0,0.0,0.0,4.3,177.0,0.9,0,0,0,90,90,180,180,90,90,788,5,0,0
440,41,0.0,0.0,0.0,5.2,177.2,1.0,0,0,0,90,90,180,180,90,90,788,15,0,0
441,41,0.0,0.0,0.0,5.3,176.8,1.0,0,0,0,90,90,180,180,90,90,788,11,0,0
442,36,0.0,0.0,0.0,3.6,176.5,1.0,0,0,0,90,90,180,180,90,90,788,19,0,0
443,36,0.0,0.0,0.0,2.8,175.8,1.0,0,0,0,90,90,180,180,90,90,786,27,0,0
444,45,0.0,0.0,0.0,3.4,176.3,1.0,0,0,0,90,90,180,180,90,90,788,17,0,0
445,45,0.0,0.0,0.0,3.6,176.6,1.0,0,0,0,90,90,180,180,90,90,786,19,0,0
446,45,0.0,0.0,0.0,3.3,176.2,1.0,0,0,0,90,90,180,180,90,90,788,20,0,0
447,37,0.0,0.0,0.0,3.6,175.9,1.0,0,0,0,90,90,180,180,90,90,784,35,0,0
448,37,0.0,0.0,0.0,3.5,175.9,1.0,0,0,0,90,90,180,180,90,90,786,29,0,0
449,37,0.0,0.0,0.0,3.5,176.5,1.0,0,0,0,90,90,180,180,90,90,786,23,0,0
450,37,0.0,0.0,0.0,3.2,176.7,1.0,0,0,0,90,90,180,180,90,90,788,14,0,0
451,42,0.0,0.0,0.0,2.8,176.7,1.0,0,0,0,90,90,180,180,90,90,786,14,0,0
452,42,0.0,0.0,0.0,3.0,176.5,1.0,0,0,0,90,90,180,180,90,90,788,15,0,0
453,42,0.0,0.0,0.0,3.2,176.4,1.0,0,0,0,90,90,180,180,90,90,789,6,0,0
454,41,0.0,0.0,0.0,3.0,176.5,1.0,0,0,0,90,90,180,180,90,90,788,16,0,0
455,41,0.0,0.0,0.0,2.0,176.3,1.0,0,0,0,90,90,180,180,90,90,786,23,0,0
456,39,0.0,0.0,0.0,2.1,175.7,1.0,0,0,0,90,90,180,180,90,90,786,12,0,0
457,39,0.0,0.0,0.0,1.3,175.1,1.0,0,0,0,90,90,180,180,90,90,786,32,0,0
458,42,0.0,2.428,0.0,1.8,175.1,1.1,0,0,0,90,90,180,180,90,90,788,7,0,0
459,42,0.0,2.428,0.0,2.1,176.3,1.1,0,0,0,90,90,180,180,90,90,785,32,0,0
460,42,0.0,2.428,0.0,4.0,176.6,1.1,0,0,0,90,90,180,180,90,90,788,10,0,0
461,42,0.0,2.428,0.0,4.3,176.3,1.1,0,0,0,90,90,180,180,90,90,786,21,0,0
462,42,0.0,2.428,0.0,3.4,176.0,1.1,0,0,0,90,90,180,180,90,90,785,35,0,0
463,42,0.0,2.428,0.0,2.9,175.8,1.1,0,0,0,90,90,180,180,90,90,788,8,0,0
464,42,0.0,2.428,0.0,3.2,175.8,1.1,0,0,0,90,90,180,180,90,90,788,16,0,0
465,42,0.0,2.428,0.0,3.9,175.5,1.1,0,0,0,90,90,180,180,90,90,788,13,0,0
466,42,0.0,2.428,0.0,3.2,175.6,1.1,0,0,0,90,90,180,180,90,90,788,10,0,0
467,42,0.0,0.0,0.0,2.9,175.7,1.1,0,2,9,90,90,180,180,90,90,788,18,0,0
468,42,0.0,0.0,0.0,2.7,175.3,1.1,0,2,9,90,90,180,180,90,90,786,19,0,0
469,42,0.0,0.0,0.0,3.0,175.4,1.1,0,2,9,90,90,180,180,90,90,788,21,0,0
470,42,0.0,0.0,0.0,2.8,174.9,1.1,0,2,9,90,90,180,180,90,90,786,22,0,0
471,41,0.0,0.0,0.0,2.8,174.6,1.1,0,2,9,90,90,180,180,90,90,788,12,0,0
472,41,0.0,0.0,0.0,2.7,174.5,1.1,0,2,9,90,90,180,180,90,90,788,10,0,0
473,41,0.0,0.0,0.0,2.3,173.9,1.1,0,2,9,90,90,180,180,90,90,786,16,0,0
474,40,0.0,0.0,0.0,1.8,173.8,1.1,0,2,9,90,90,180,180,90,90,786,22,0,0
475,40,0.0,0.0,0.0,1.2,175.1,1.1,0,2,9,90,90,180,180,90,90,788,17,0,0
476,42,0.0,0.0,0.0,1.5,176.1,1.2,0,0,5,90,90,180,180,90,90,788,16,0,0
477,42,0.0,0.0,0.0,2.1,176.0,1.2,0,0,5,90,90,180,180,90,90,788,14,0,0
478,42,0.0,0.0,0.0,2.6,175.8,1.2,0,0,5,90,90,180,180,90,90,788,16,0,0
479,42,0.0,0.0,0.0,2.8,176.0,1.2,0,0,5,90,90,180,180,90,90,788,15,0,0
480,42,0.0,0.0,0.0,3.2,175.9,1.2,0,0,5,90,90,180,180,90,90,786,25,0,0
481,42,0.0,0.0,0.0,3.1,175.7,1.2,0,0,5,90,90,180,180,90,90,786,19,0,0
482,42,0.0,0.0,0.0,3.2,175.7,1.2,0,0,5,90,90,180,180,90,90,788,14,0,0
483,42,0.0,0.0,0.0,3.3,175.7,1.2,0,0,5,90,90,180,180,90,90,786,20,0,0
484,42,0.0,0.0,0.0,3.4,175.6,1.2,0,0,5,90,90,180,180,90,90,788,15,0,0
485,42,0.0,0.0,0.0,3.3,175.7,1.2,0,0,5,90,90,180,180,90,90,788,14,0,0
486,42,0.0,0.0,0.0,3.3,175.6,1.2,0,0,5,90,90,180,180,90,90,788,15,0,0
487,42,0.0,0.0,0.0,3.3,175.8,1.3,0,0,56,90,90,180,180,90,90,788,15,0,0
488,42,0.0,0.0,0.0,3.3,175.9,1.3,0,0,56,90,90,180,180,90,90,788,13,0,0
489,42,0.0,0.0,0.0,3.2,175.8,1.3,0,0,56,90,90,180,180,90,90,788,12,0,0
490,42,0.0,0.0,0.0,3.2,175.7,1.3,0,0,56,90,90,180,180,90,90,788,12,0,0
491,42,0.0,0.0,0.0,3.4,175.5,1.3,0,0,56,90,90,180,180,90,90,786,15,0,0
492,42,0.0,0.0,0.0,3.4,175.4,1.3,0,0,56,90,90,180,180,90,90,788,15,0,0
493,42,0.0,0.0,0.0,3.4,175.5,1.3,0,0,56,90,90,180,180,90,90,788,13,0,0
494,42,0.0,0.0,0.0,3.4,175.5,1.3,0,0,56,90,90,180,180,90,90,788,14,0,0
495,42,0.0,0.0,0.0,3.5,175.4,1.3,0,0,56,90,90,180,180,90,90,788,16,0,0
496,42,0.0,0.0,0.0,3.5,175.3,1.3,0,0,56,90,90,180,180,90,90,786,14,0,0
497,42,0.0,0.0,0.0,3.4,175.3,1.3,0,0,56,90,90,180,180,90,90,788,14,0,0
498,42,0.0,0.0,0.0,3.4,175.5,1.4,0,0,5,90,90,180,180,90,90,788,15,0,0
499,42,0.0,0.0,0.0,3.4,175.5,1.4,0,0,5,90,90,180,180,90,90,788,17,0,0
500,1072,0.0,0.0,0.0,3.3,175.5,1.4,0,0,5,90,90,180,180,90,90,788,15,0,0
501,1072,0.0,0.0,0.0,3.2,175.7,1.4,0,0,5,90,90,180,180,90,90,788,16,0,0
502,1072,0.0,0.0,0.0,3.3,175.7,1.4,0,0,5,90,90,180,180,90,90,788,15,0,0
503,1072,0.0,0.0,0.0,3.5,175.5,1.4,0,0,5,90,90,180,180,90,90,786,20,0,0
504,1072,0.0,0.0,0.0,3.4,175.0,1.4,0,0,5,90,90,180,180,90,90,788,13,0,0
505,1072,0.0,0.0,0.0,3.4,175.2,1.4,0,0,5,90,90,180,180,90,90,788,13,0,0
506,1072,0.0,0.0,0.0,3.5,175.3,1.4,0,0,5,90,90,180,180,90,90,786,14,0,0
507,1072,0.0,0.0,0.0,3.5,175.6,1.4,0,0,5,90,90,180,180,90,90,788,16,0,0
508,1072,0.0,0.0,0.0,3.4,175.7,1.4,0,0,5,90,90,180,180,90,90,786,20,0,0
509,1072,0.0,0.0,0.0,3.5,175.3,1.3,0,0,5,90,90,180,180,90,90,788,15,0,0
510,1072,0.0,0.0,0.0,3.6,175.4,1.3,0,0,5,90,90,180,180,90,90,788,15,0,0
511,1072,0.0,0.0,0.0,3.5,175.4,1.3,0,0,5,90,90,180,180,90,90,788,15,0,0
512,1072,0.0,0.0,0.0,3.5,175.4,1.3,0,0,5,90,90,180,180,90,90,786,17,0,0
513,1072,0.0,0.0,0.0,3.5,175.5,1.3,0,0,5,90,90,180,180,90,90,788,15,0,0
514,1072,0.0,0.0,0.0,3.4,175.5,1.3,0,0,5,90,90,180,180,90,90,786,17,0,0
515,1072,0.0,0.0,0.0,3.4,175.4,1.3,0,0,5,90,90,180,180,90,90,786,17,0,0
516,1072,0.0,0.0,0.0,3.2,175.3,1.3,0,0,5,90,90,180,180,90,90,789,5,0,0
517,1072,0.0,0.0,0.0,3.2,175.3,1.3,0,0,5,90,90,180,180,90,90,788,16,0,0
518,1072,0.0,0.0,0.0,3.4,175.3,1.3,0,0,5,90,90,180,180,90,90,788,9,0,0
519,39,0.0,0.0,0.0,3.5,175.4,1.3,0,0,5,90,90,180,180,90,90,788,15,0,0
520,39,0.0,0.0,0.0,3.6,175.4,1.3,0,0,5,90,90,180,180,90,90,788,13,0,0
521,39,0.0,0.0,0.0,3.5,175.6,0.9,0,0,5,90,90,180,180,90,90,786,15,0,0
522,39,0.0,0.0,0.0,3.4,175.7,0.9,0,0,5,90,90,180,180,90,90,788,16,0,0
523,39,0.0,0.0,0.0,3.4,175.8,0.9,0,0,5,90,90,180,180,90,90,788,15,0,0
524,39,0.0,0.0,0.0,3.4,175.9,0.9,0,0,5,90,90,180,180,90,90,788,15,0,0
525,39,0.0,0.0,0.0,3.4,175.7,0.9,0,0,5,90,90,180,180,90,90,788,14,0,0
526,39,0.0,0.0,0.0,3.3,175.5,0.9,0,0,5,90,90,180,180,90,90,788,15,0,0
527,39,0.0,0.0,0.0,3.3,175.3,0.9,0,0,5,90,90,180,180,90,90,788,14,0,0
528,39,0.0,0.0,0.0,3.3,175.8,0.9,0,0,5,90,90,180,180,90,90,788,15,0,0
529,39,0.0,0.0,0.0,3.3,175.8,0.9,0,0,5,90,90,180,180,90,90,788,15,0,0
530,39,0.0,0.0,0.0,3.4,175.3,0.9,0,0,56,90,90,180,180,90,90,788,14,0,0
531,39,0.0,0.0,0.0,3.4,175.5,0.9,0,0,56,90,90,180,180,90,90,788,15,0,0
532,39,0.0,0.0,0.0,3.3,175.7,0.9,0,0,56,90,90,180,180,90,90,788,15,0,0
533,39,0.0,0.0,0.0,3.2,175.8,0.9,0,0,56,90,90,180,180,90,90,786,15,0,0
534,39,0.0,0.0,0.0,3.2,175.8,0.9,0,0,56,90,90,180,180,90,90,788,5,0,0
535,41,0.0,0.0,0.0,3.3,175.6,0.9,0,0,56,90,90,180,180,90,90,788,15,0,0
536,41,0.0,0.0,0.0,3.3,175.9,0.9,0,0,56,90,90,180,180,90,90,788,14,0,0
537,41,0.0,0.0,0.0,3.3,176.2,0.9,0,0,56,90,90,180,180,90,90,786,15,0,0
538,31,0.0,0.0,0.0,3.3,176.0,0.9,0,0,56,90,90,180,180,90,90,788,21,0,0
539,31,0.0,0.0,0.0,3.4,176.0,0.9,0,0,56,90,90,180,180,90,90,786,16,0,0
540,31,0.0,0.0,0.0,3.4,176.1,0.9,0,0,56,90,90,180,180,90,90,788,15,0,0
541,31,0.0,0.0,0.0,3.4,176.0,0.9,0,0,56,90,90,180,180,90,90,788,14,0,0
542,31,0.0,0.0,0.0,3.4,175.8,0.9,0,0,56,90,90,180,180,90,90,786,15,0,0
543,31,0.0,0.0,0.0,3.5,175.8,0.9,0,0,56,90,90,180,180,90,90,788,14,0,0
544,31,0.0,0.0,0.0,3.3,176.1,0.9,0,0,56,90,90,180,180,90,90,788,17,0,0
545,31,0.0,0.0,0.0,3.2,176.1,0.9,0,0,56,90,90,180,180,90,90,788,14,0,0
546,31,0.0,0.0,0.0,3.3,176.2,0.9,0,0,56,90,90,180,180,90,90,786,14,0,0
547,31,0.0,0.0,0.0,3.3,175.8,0.9,0,0,56,90,90,180,180,90,90,788,15,0,0
548,31,0.0,0.0,0.0,3.2,175.9,0.9,0,0,56,90,90,180,180,90,90,788,14,0,0
549,31,0.0,0.0,0.0,3.2,176.0,0.9,0,0,56,90,90,180,180,90,90,788,16,0,0
550,1072,0.0,0.0,0.0,3.3,176.1,0.9,0,0,56,90,90,180,180,90,90,788,8,0,0
551,1072,0.0,0.0,0.0,3.2,176.1,0.9,0,0,56,90,90,180,180,90,90,788,16,0,0
552,1072,0.0,0.0,0.0,3.3,176.1,1.0,0,0,5,90,90,180,180,90,90,786,14,0,0
553,1072,0.0,0.0,0.0,3.2,176.1,1.0,0,0,5,90,90,180,180,90,90,788,14,0,0
554,1072,0.0,0.0,0.0,3.2,176.0,1.0,0,0,5,90,90,180,180,90,90,786,15,0,0
555,42,0.0,0.0,0.0,3.2,175.9,1.0,0,0,5,90,90,180,180,90,90,786,15,0,0
556,42,0.0,0.0,0.0,3.2,175.9,1.0,0,0,5,90,90,180,180,90,90,788,15,0,0
557,42,0.0,0.0,0.0,3.3,175.9,1.0,0,0,5,90,90,180,180,90,90,786,16,0,0
558,32,0.0,0.0,0.0,3.2,176.1,1.0,0,0,5,90,90,180,180,90,90,786,14,0,0
559,32,0.0,0.0,0.0,3.3,176.1,1.0,0,0,5,90,90,180,180,90,90,786,15,0,0
560,32,0.0,0.0,0.0,3.3,176.1,1.0,0,0,5,90,90,180,180,90,90,786,16,0,0
561,32,0.0,0.0,0.0,3.4,176.1,1.0,0,0,5,90,90,180,180,90,90,788,16,0,0
562,32,0.0,0.0,0.0,3.4,176.1,1.0,0,0,5,90,90,180,180,90,90,788,16,0,0
563,32,0.0,0.0,0.0,3.4,176.1,0.8,0,0,5,90,90,180,180,90,90,788,16,0,0
564,1072,0.0,0.0,0.0,3.3,176.2,0.8,0,0,5,90,90,180,180,90,90,786,14,0,0
565,1072,0.0,0.0,0.0,3.3,176.2,0.8,0,0,5,90,90,180,180,90,90,788,15,0,0
566,32,0.0,0.0,0.0,3.4,176.2,0.8,0,0,5,90,90,180,180,90,90,786,16,0,0
567,32,0.0,0.0,0.0,3.4,176.2,0.8,0,0,5,90,90,180,180,90,90,788,14,0,0
568,32,0.0,0.0,0.0,3.3,176.3,0.8,0,0,5,90,90,180,180,90,90,788,15,0,0
569,32,0.0,0.0,0.0,3.2,176.3,0.8,0,0,5,90,90,180,180,90,90,786,14,0,0
570,32,0.0,0.0,0.0,3.2,176.3,0.8,0,0,5,90,90,180,180,90,90,788,14,0,0
571,32,0.0,0.0,0.0,3.2,176.3,0.8,0,0,5,90,90,180,180,90,90,788,15,0,0
572,32,0.0,0.0,0.0,3.2,176.3,0.8,0,0,5,90,90,180,180,90,90,788,15,0,0
573,32,0.0,0.0,0.0,3.2,176.1,0.8,0,0,5,90,90,180,180,90,90,788,15,0,0
574,32,0.0,0.0,0.0,3.1,176.3,0.8,0,0,5,90,90,180,180,90,90,788,15,0,0
575,32,0.0,0.0,0.0,3.2,176.3,0.6,0,0,5,90,90,180,180,90,90,786,18,0,0
576,32,0.0,0.0,0.0,3.3,176.4,0.6,0,0,5,90,90,180,180,90,90,788,15,0,0
577,32,0.0,0.0,0.0,3.3,176.4,0.6,0,0,5,90,90,180,180,90,90,788,15,0,0
578,32,0.0,0.0,0.0,3.3,176.3,0.6,0,0,5,90,90,180,180,90,90,786,13,0,0
579,32,0.0,0.0,0.0,3.2,176.2,0.6,0,0,5,90,90,180,180,90,90,788,15,0,0
580,32,0.0,0.0,0.0,3.1,176.2,0.6,0,0,5,90,90,180,180,90,90,786,15,0,0
581,41,0.0,0.0,0.0,3.1,176.2,0.6,0,0,5,90,90,180,180,90,90,786,16,0,0
582,41,0.0,0.0,0.0,3.2,176.2,0.6,0,0,5,90,90,180,180,90,90,786,15,0,0
583,41,0.0,0.0,0.0,3.1,176.1,0.6,0,0,5,90,90,180,180,90,90,788,16,0,0
584,1072,0.0,0.0,0.0,3.1,176.2,0.8,0,56,7279,90,90,180,180,90,90,786,18,0,0
585,1072,0.0,0.0,0.0,3.1,176.3,0.8,0,56,7279,90,90,180,180,90,90,788,14,0,0
586,1072,0.0,0.0,0.0,3.2,176.4,0.8,0,56,7279,90,90,180,180,90,90,788,14,0,0
587,1072,0.0,0.0,0.0,3.4,176.4,0.8,0,56,7279,90,90,180,180,90,90,788,15,0,0
588,1072,0.0,0.0,0.0,3.4,176.1,0.8,0,56,7279,90,90,180,180,90,90,788,15,0,0
589,1072,0.0,0.0,0.0,3.3,175.9,0.8,0,56,7279,90,90,180,180,90,90,788,15,0,0
590,1072,0.0,0.0,0.0,3.2,176.0,0.8,0,56,7279,90,90,180,180,90,90,788,14,0,0
591,1072,0.0,0.0,0.0,3.3,175.9,0.8,0,56,7279,90,90,180,180,90,90,788,14,0,0
592,1072,0.0,0.0,0.0,3.4,175.8,0.8,0,56,7279,90,90,180,180,90,90,788,15,0,0
593,1072,0.0,0.0,0.0,3.5,175.8,0.8,0,56,7203,90,90,180,180,90,90,788,15,0,0
594,1072,0.0,0.0,0.0,3.5,175.8,0.8,0,56,7203,90,90,180,180,90,90,786,15,0,0
595,1072,0.0,0.0,0.0,3.5,175.7,0.8,0,56,7203,90,90,180,180,90,90,788,15,0,0
596,1072,0.0,0.0,0.0,3.3,175.8,0.8,0,56,7203,90,90,180,180,90,90,788,10,0,0
597,1072,0.0,0.0,0.0,3.3,175.8,0.8,0,56,7203,90,90,180,180,90,90,788,16,0,0
598,1072,0.0,0.0,0.0,3.3,175.9,0.8,0,56,7203,90,90,180,180,90,90,788,14,0,0
599,1072,0.0,0.0,0.0,3.3,176.0,0.8,0,56,7203,90,90,180,180,90,90,786,14,0,0
600,1072,0.0,0.0,0.0,3.3,176.1,0.8,0,56,7203,90,90,180,180,90,90,788,15,0,0
601,1072,0.0,0.0,0.0,3.4,176.4,0.8,0,56,7203,90,90,180,180,90,90,786,14,0,0
602,1072,0.0,0.0,0.0,3.4,176.2,0.8,0,5,6723,90,90,180,180,90,90,788,16,0,0
603,1072,0.0,0.0,0.0,3.4,175.8,0.8,0,5,6723,90,90,180,180,90,90,788,13,0,0
604,1072,0.0,0.0,0.0,3.3,175.8,0.8,0,5,6723,90,90,180,180,90,90,786,15,0,0
605,1072,0.0,0.0,0.0,3.3,175.9,0.8,0,5,6723,90,90,180,180,90,90,786,14,0,0
606,32,0.0,0.0,0.0,3.3,175.9,0.8,0,5,6723,90,90,180,180,90,90,788,15,0,0
607,32,0.0,0.0,0.0,3.2,176.0,0.8,0,5,6723,90,90,180,180,90,90,788,15,0,0
608,32,0.0,0.0,0.0,3.2,176.0,0.8,0,5,6723,90,90,180,180,90,90,786,17,0,0
609,32,0.0,0.0,0.0,3.2,176.0,0.8,0,5,6723,90,90,180,180,90,90,788,16,0,0
610,32,0.0,0.0,0.0,3.2,175.9,0.8,0,5,6723,90,90,180,180,90,90,788,15,0,0
611,32,0.0,0.0,0.0,3.1,175.9,0.8,0,56,7213,90,90,180,180,90,90,786,15,0,0
612,32,0.0,0.0,0.0,3.2,176.0,0.8,0,56,7213,90,90,180,180,90,90,786,15,0,0
613,32,0.0,0.0,0.0,3.2,176.0,0.8,0,56,7213,90,90,180,180,90,90,788,15,0,0
614,32,0.0,0.0,0.0,3.2,176.0,0.8,0,56,7213,90,90,180,180,90,90,788,15,0,0
615,1072,0.0,0.0,0.0,3.1,176.4,0.8,0,56,7213,90,90,180,180,90,90,788,15,0,0
616,1072,0.0,0.0,0.0,3.2,176.3,0.8,0,56,7213,90,90,180,180,90,90,786,15,0,0
617,1072,0.0,0.0,0.0,3.3,176.3,0.8,0,56,7213,90,90,180,180,90,90,788,16,0,0
618,1072,0.0,0.0,0.0,3.3,176.4,0.8,0,56,7213,90,90,180,180,90,90,788,17,0,0
619,1072,0.0,0.0,0.0,3.3,176.3,0.8,0,56,7213,90,90,180,180,90,90,788,10,0,0
620,1072,0.0,0.0,0.0,3.3,176.3,0.8,0,0,0,90,90,180,180,90,90,788,9,0,0
621,1072,0.0,0.0,0.0,3.2,176.3,0.8,0,0,0,90,90,180,180,90,90,786,17,0,0
622,1072,0.0,0.0,0.0,3.3,176.3,0.8,0,0,0,90,90,180,180,90,90,788,14,0,0
623,1072,0.0,0.0,0.0,3.3,176.2,0.8,0,0,0,90,90,180,180,90,90,788,15,0,0
624,1072,0.0,0.0,0.0,3.4,176.2,0.8,0,0,0,90,90,180,180,90,90,786,15,0,0
625,1072,0.0,0.0,0.0,3.4,176.1,0.8,0,0,0,90,90,180,180,90,90,788,14,0,0
626,32,0.0,0.0,0.0,3.4,175.9,0.8,0,0,0,90,90,180,180,90,90,788,15,0,0
627,32,0.0,0.0,0.0,3.2,176.1,0.8,0,0,0,90,90,180,180,90,90,788,13,0,0
628,32,0.0,0.0,0.0,3.2,176.3,0.8,0,0,0,90,90,180,180,90,90,788,15,0,0
629,33,0.0,0.0,0.0,3.1,176.5,0.8,0,0,0,90,90,180,180,90,90,788,15,0,0
630,33,0.0,0.0,0.0,3.1,176.5,0.8,0,0,0,90,90,180,180,90,90,786,14,0,0
631,33,0.0,0.0,0.0,3.1,176.6,0.8,0,0,0,90,90,180,180,90,90,786,16,0,0
632,33,0.0,0.0,0.0,3.0,176.7,0.8,0,0,0,90,90,180,180,90,90,786,15,0,0
633,33,0.0,0.0,0.0,2.9,176.7,0.8,0,0,0,90,90,180,180,90,90,788,18,0,0
634,33,0.0,0.0,0.0,3.0,176.6,0.8,0,0,0,90,90,180,180,90,90,788,15,0,0
635,33,0.0,0.0,0.0,3.1,176.4,0.8,0,0,0,90,90,180,180,90,90,788,15,0,0
636,33,0.0,0.0,0.0,3.2,176.2,0.8,0,0,0,90,90,180,180,90,90,786,16,0,0
637,33,0.0,0.0,0.0,3.2,176.2,0.8,0,0,0,90,90,180,180,90,90,786,19,0,0
638,32,0.0,0.0,0.0,3.3,176.1,0.8,0,0,8,90,90,180,180,90,90,786,16,0,0
639,32,0.0,0.0,0.0,3.3,175.8,0.8,0,0,8,90,90,180,180,90,90,786,14,0,0
640,32,0.0,0.0,0.0,3.3,176.2,0.8,0,0,8,90,90,180,180,90,90,786,14,0,0
641,33,0.0,0.0,0.0,3.4,176.5,0.8,0,0,8,90,90,180,180,90,90,786,14,0,0
642,33,0.0,0.0,0.0,3.4,176.3,0.8,0,0,8,90,90,180,180,90,90,788,6,0,0
643,33,0.0,0.0,0.0,3.4,176.2,0.8,0,0,8,90,90,180,180,90,90,788,7,0,0
644,33,0.0,0.0,0.0,3.3,176.2,0.8,0,0,8,90,90,180,180,90,90,786,16,0,0
645,33,0.0,0.0,0.0,3.3,175.9,0.8,0,0,8,90,90,180,180,90,90,786,17,0,0
646,33,0.0,0.0,0.0,3.3,176.1,0.8,0,0,8,90,90,180,180,90,90,786,14,0,0
647,33,0.0,0.0,0.0,3.1,176.7,0.8,0,0,0,90,90,180,180,90,90,788,7,0,0
648,33,0.0,0.0,0.0,3.1,176.6,0.8,0,0,0,90,90,180,180,90,90,786,16,0,0
649,33,0.0,0.0,0.0,3.3,176.1,0.8,0,0,0,90,90,180,180,90,90,786,17,0,0
650,33,0.0,0.0,0.0,3.3,176.0,0.8,0,0,0,90,90,180,180,90,90,786,17,0,0
651,33,0.0,0.0,0.0,3.3,176.1,0.8,0,0,0,90,90,180,180,90,90,788,14,0,0
652,33,0.0,0.0,0.0,3.3,175.9,0.8,0,0,0,90,90,180,180,90,90,786,15,0,0
653,33,0.0,0.0,0.0,3.2,175.9,0.8,0,0,0,90,90,180,180,90,90,786,16,0,0
654,33,0.0,0.0,0.0,3.1,176.0,0.8,0,0,0,90,90,180,180,90,90,786,15,0,0
655,33,0.0,0.0,0.0,3.0,176.0,0.8,0,0,3,90,90,180,180,90,90,788,16,0,0
656,33,0.0,0.0,0.0,3.0,176.1,0.8,0,0,3,90,90,180,180,90,90,788,15,0,0
657,33,0.0,0.0,0.0,3.1,176.0,0.8,0,0,3,90,90,180,180,90,90,786,17,0,0
658,33,0.0,0.0,0.0,3.3,175.8,0.8,0,0,3,90,90,180,180,90,90,786,17,0,0
659,33,0.0,0.0,0.0,3.3,175.6,0.8,0,0,3,90,90,180,180,90,90,786,15,0,0
660,33,0.0,0.0,0.0,3.4,175.4,0.8,0,0,3,90,90,180,180,90,90,786,17,0,0
661,33,0.0,0.0,0.0,3.3,175.4,0.8,0,0,3,90,90,180,180,90,90,788,15,0,0
662,33,0.0,0.0,0.0,3.3,175.7,0.8,0,567,2262,90,90,180,180,90,90,786,14,0,0
663,33,0.0,0.0,0.0,3.3,175.8,0.8,0,567,2262,90,90,180,180,90,90,786,14,0,0
664,33,0.0,0.0,0.0,3.2,175.8,0.8,0,567,2262,90,90,180,180,90,90,788,13,0,0
665,33,0.0,0.0,0.0,3.2,175.7,0.8,0,567,2262,90,90,180,180,90,90,786,16,0,0
666,33,0.0,0.0,0.0,3.4,175.8,0.8,0,567,2262,90,90,180,180,90,90,788,7,0,0
667,33,0.0,0.0,0.0,3.2,175.9,0.8,0,567,2262,90,90,180,180,90,90,788,15,0,0
668,32,0.0,0.0,0.0,3.1,175.8,0.8,0,567,2262,90,90,180,180,90,90,786,17,0,0
669,32,0.0,0.0,0.0,3.1,175.8,0.8,0,567,1369,90,90,180,180,90,90,788,17,0,0
670,32,0.0,0.0,0.0,3.0,176.1,0.8,0,567,1369,90,90,180,180,90,90,788,15,0,0
671,33,0.0,0.0,0.0,3.0,176.1,0.8,0,567,1369,90,90,180,180,90,90,786,15,0,0
672,33,0.0,0.0,0.0,3.1,176.0,0.8,0,567,1369,90,90,180,180,90,90,788,16,0,0
673,33,0.0,0.0,0.0,3.0,176.2,0.8,0,567,1369,90,90,180,180,90,90,786,15,0,0
674,33,0.0,0.0,0.0,3.0,176.3,0.8,0,567,1369,90,90,180,180,90,90,788,15,0,0
675,33,0.0,0.0,0.0,3.1,176.2,0.8,0,567,1369,90,90,180,180,90,90,786,14,0,0
676,33,0.0,0.0,0.0,3.2,176.1,0.8,0,567,1668,90,90,180,180,90,90,788,16,0,0
677,613,0.0,0.0,0.0,3.2,176.0,0.8,0,567,1668,90,90,180,180,90,90,788,17,0,0
678,613,0.0,0.0,0.0,3.3,176.1,0.8,0,567,1668,90,90,180,180,90,90,786,15,0,0
679,32,0.0,0.0,0.0,3.3,176.1,0.8,0,567,1668,90,90,180,180,90,90,786,16,0,0
680,32,0.0,0.0,0.0,3.3,176.2,0.8,0,567,1668,90,90,180,180,90,90,786,15,0,0
681,32,0.0,0.0,0.0,3.4,176.1,0.8,0,567,1668,90,90,180,180,90,90,788,11,0,0
682,32,0.0,0.0,0.0,3.4,176.1,0.8,0,567,1668,90,90,180,180,90,90,786,15,0,0
683,32,0.0,0.0,0.0,3.4,176.1,0.8,0,567,2238,90,90,180,180,90,90,786,15,0,0
684,33,0.0,0.0,0.0,3.3,176.1,0.8,0,567,2238,90,90,180,180,90,90,786,15,0,0
685,33,0.0,0.0,0.0,3.4,176.0,0.8,0,567,2238,90,90,180,180,90,90,788,15,0,0
686,33,0.0,0.0,0.0,3.4,176.0,0.8,0,567,2238,90,90,180,180,90,90,788,18,0,0
687,33,0.0,0.0,0.0,3.4,176.0,0.8,0,567,2238,90,90,180,180,90,90,786,15,0,0
688,33,0.0,0.0,0.0,3.2,176.0,0.8,0,567,2238,90,90,180,180,90,90,786,15,0,0
689,32,0.0,0.0,0.0,3.1,176.0,0.8,0,567,2238,90,90,180,180,90,90,786,16,0,0
690,32,0.0,0.0,0.0,3.1,176.2,0.8,0,567,2238,90,90,180,180,90,90,788,14,0,0
691,32,0.0,0.0,0.0,3.2,176.4,0.8,0,567,2238,90,90,180,180,90,90,788,15,0,0
692,33,0.0,0.0,0.0,3.2,176.3,0.9,0,56,7141,90,90,180,180,90,90,786,16,0,0
693,33,0.0,0.0,0.0,3.2,176.3,0.9,0,56,7141,90,90,180,180,90,90,786,15,0,0
694,33,0.0,0.0,0.0,3.2,176.2,0.9,0,56,7141,90,90,180,180,90,90,786,15,0,0
695,33,0.0,0.0,0.0,3.1,176.2,0.9,0,56,7141,90,90,180,180,90,90,786,14,0,0
696,33,0.0,0.0,0.0,3.1,176.1,0.9,0,56,7141,90,90,180,180,90,90,786,15,0,0
697,33,0.0,0.0,0.0,3.2,176.2,0.9,0,56,7141,90,90,180,180,90,90,788,15,0,0
698,32,0.0,0.0,0.0,3.0,176.2,0.9,0,56,7146,90,90,180,180,90,90,786,15,0,0
699,32,0.0,0.0,0.0,3.0,176.2,0.9,0,56,7146,90,90,180,180,90,90,786,15,0,0
700,32,0.0,0.0,0.0,3.0,176.4,0.9,0,56,7146,90,90,180,180,90,90,788,15,0,0
701,32,0.0,0.0,0.0,3.0,176.1,0.9,0,56,7146,90,90,180,180,90,90,788,15,0,0
702,32,0.0,0.0,0.0,3.3,175.9,0.9,0,56,7146,90,90,180,180,90,90,786,17,0,0
703,32,0.0,0.0,0.0,3.2,176.0,0.9,0,56,7146,90,90,180,180,90,90,786,15,0,0
704,33,0.0,0.0,0.0,3.1,176.2,0.9,0,56,7146,90,90,180,180,90,90,786,15,0,0
705,33,0.0,0.0,0.0,3.1,176.2,0.9,0,56,7111,90,90,180,180,90,90,786,16,0,0
706,33,0.0,0.0,0.0,3.1,176.3,0.9,0,56,7111,90,90,180,180,90,90,788,16,0,0
707,33,0.0,0.0,0.0,3.0,176.2,0.9,0,56,7111,90,90,180,180,90,90,786,15,0,0
708,33,0.0,0.0,0.0,3.1,176.3,0.9,0,56,7111,90,90,180,180,90,90,786,15,0,0
709,33,0.0,0.0,0.0,3.2,176.3,0.9,0,56,7111,90,90,180,180,90,90,786,17,0,0
710,33,0.0,0.0,0.0,3.2,176.4,0.9,0,56,7111,90,90,180,180,90,90,788,16,0,0
711,33,0.0,0.0,0.0,3.1,176.4,0.9,0,56,7111,90,90,180,180,90,90,788,12,0,0
712,33,0.0,0.0,0.0,3.0,176.4,0.9,0,567,1163,90,90,180,180,90,90,786,16,0,0
713,32,0.0,0.0,0.0,3.1,176.2,0.9,0,567,1163,90,90,180,180,90,90,788,14,0,0
714,32,0.0,0.0,0.0,3.3,176.1,0.9,0,567,1163,90,90,180,180,90,90,786,15,0,0
715,32,0.0,0.0,0.0,3.3,176.2,0.9,0,567,1163,90,90,180,180,90,90,786,15,0,0
716,33,0.0,0.0,0.0,3.2,176.4,0.9,0,567,1163,90,90,180,180,90,90,786,18,0,0
717,33,0.0,0.0,0.0,3.2,176.3,0.9,0,567,1163,90,90,180,180,90,90,786,16,0,0
718,32,0.0,0.0,0.0,3.2,176.1,0.9,0,567,1163,90,90,180,180,90,90,788,15,0,0
719,32,0.0,0.0,0.0,3.0,176.1,0.4,0,0,0,90,90,180,180,90,90,788,15,0,0
720,33,0.0,0.0,0.0,2.9,176.2,0.4,0,0,0,90,90,180,180,90,90,788,15,0,0
721,33,0.0,0.0,0.0,3.1,176.0,0.9,0,567,1134,90,90,180,180,90,90,786,16,0,0
722,33,0.0,0.0,0.0,3.2,175.9,0.9,0,567,1134,90,90,180,180,90,90,786,18,0,0
723,33,0.0,0.0,0.0,3.3,176.0,0.9,0,567,1134,90,90,180,180,90,90,786,16,0,0
724,33,0.0,0.0,0.0,3.3,176.2,0.9,0,567,1134,90,90,180,180,90,90,786,17,0,0
725,33,0.0,0.0,0.0,3.3,176.3,0.9,0,567,1134,90,90,180,180,90,90,786,17,0,0
726,33,0.0,0.0,0.0,3.3,176.0,0.9,0,567,1134,90,90,180,180,90,90,786,15,0,0
727,33,0.0,0.0,0.0,3.2,175.9,0.9,0,567,1134,90,90,180,180,90,90,786,15,0,0
728,32,0.0,0.0,0.0,3.2,175.9,0.0,0,0,0,90,90,180,180,90,90,788,15,0,0
729,32,0.0,0.0,0.0,3.2,175.9,0.0,0,0,0,90,90,180,180,90,90,788,16,0,0
730,32,0.0,0.0,0.0,3.3,175.7,0.0,0,0,0,90,90,180,180,90,90,788,15,0,0
731,33,0.0,0.0,0.0,3.2,176.3,0.0,0,0,0,90,90,180,180,90,90,786,15,0,0
732,33,0.0,0.0,0.0,3.2,176.4,0.9,0,567,194,90,90,180,180,90,90,786,15,0,0
733,33,0.0,0.0,0.0,3.1,176.1,0.9,0,567,194,90,90,180,180,90,90,786,15,0,0
734,33,0.0,0.0,0.0,3.1,175.7,0.9,0,567,194,90,90,180,180,90,90,788,15,0,0
735,33,0.0,0.0,0.0,3.1,175.8,0.9,0,567,194,90,90,180,180,90,90,786,15,0,0
736,33,0.0,0.0,0.0,3.1,176.2,0.9,0,567,194,90,90,180,180,90,90,786,17,0,0
737,32,0.0,0.0,0.0,3.1,176.2,0.0,0,0,0,90,90,180,180,90,90,786,15,0,0
738,32,0.0,0.0,0.0,3.0,176.2,0.0,0,0,0,90,90,180,180,90,90,786,15,0,0
739,32,0.0,0.0,0.0,3.0,176.5,0.9,0,567,2608,90,90,180,180,90,90,788,15,0,0
740,33,0.0,0.0,0.0,3.1,176.2,0.9,0,567,2608,90,90,180,180,90,90,786,15,0,0
741,33,0.0,0.0,0.0,3.1,176.1,0.9,0,567,2608,90,90,180,180,90,90,786,15,0,0
742,33,0.0,0.0,0.0,3.2,176.2,0.9,0,567,2608,90,90,180,180,90,90,788,16,0,0
743,32,0.0,0.0,0.0,3.2,176.4,0.9,0,0,0,90,90,180,180,90,90,786,16,0,0
744,32,0.0,0.0,0.0,3.2,176.5,0.9,0,0,0,90,90,180,180,90,90,786,18,0,0
745,32,0.0,0.0,0.0,3.2,176.2,0.9,0,0,0,90,90,180,180,90,90,786,16,0,0
746,33,0.0,0.0,0.0,3.3,176.0,0.9,0,567,1040,90,90,180,180,90,90,786,17,0,0
747,33,0.0,0.0,0.0,3.2,176.0,0.9,0,567,1040,90,90,180,180,90,90,786,15,0,0
748,33,0.0,0.0,0.0,3.3,176.2,0.9,0,567,1040,90,90,180,180,90,90,786,16,0,0
749,33,0.0,0.0,0.0,3.2,176.4,0.9,0,567,1040,90,90,180,180,90,90,786,15,0,0
750,33,0.0,0.0,0.0,3.1,176.1,0.9,0,0,0,90,90,180,180,90,90,786,15,0,0
751,32,0.0,0.0,0.0,3.1,175.8,0.9,0,0,0,90,90,180,180,90,90,788,9,0,0
752,32,0.0,0.0,0.0,3.2,175.9,0.9,0,567,1267,90,90,180,180,90,90,786,15,0,0
753,32,0.0,0.0,0.0,3.2,175.6,0.9,0,567,1267,90,90,180,180,90,90,786,17,0,0
754,32,0.0,0.0,0.0,3.3,175.3,0.9,0,567,1267,90,90,180,180,90,90,786,14,0,0
755,32,0.0,0.0,0.0,3.2,175.6,0.9,0,567,1267,90,90,180,180,90,90,786,17,0,0
756,32,0.0,0.0,0.0,3.2,175.5,0.9,0,567,1267,90,90,180,180,90,90,786,16,0,0
757,32,0.0,0.0,0.0,3.2,175.7,0.9,0,0,0,90,90,180,180,90,90,785,15,0,0
758,32,0.0,0.0,0.0,3.3,175.9,0.9,0,0,0,90,90,180,180,90,90,788,15,0,0
759,32,0.0,0.0,0.0,3.3,175.9,0.9,0,567,1555,90,90,180,180,90,90,786,15,0,0
760,32,0.0,0.0,0.0,3.4,175.9,0.9,0,567,1555,90,90,180,180,90,90,786,16,0,0
761,32,0.0,0.0,0.0,3.2,175.8,0.9,0,567,1555,90,90,180,180,90,90,786,15,0,0
762,32,0.0,0.0,0.0,3.1,175.7,0.9,0,567,1555,90,90,180,180,90,90,786,14,0,0
763,32,0.0,0.0,0.0,3.1,175.8,0.9,0,567,1555,90,90,180,180,90,90,788,17,0,0
764,33,0.0,0.0,0.0,3.0,176.2,0.9,0,567,1555,90,90,180,180,90,90,786,16,0,0
765,33,0.0,0.0,0.0,2.9,176.3,0.9,0,567,1555,90,90,180,180,90,90,786,16,0,0
766,33,0.0,0.0,0.0,2.9,176.4,0.9,0,0,0,90,90,180,180,90,90,786,18,0,0
767,33,0.0,0.0,0.0,3.0,176.3,0.9,0,0,0,90,90,180,180,90,90,786,15,0,0
768,33,0.0,0.0,0.0,3.1,176.3,0.9,0,0,0,90,90,180,180,90,90,786,18,0,0
769,33,0.0,0.0,0.0,3.0,176.4,0.9,0,0,0,90,90,180,180,90,90,788,15,0,0
770,32,0.0,0.0,0.0,3.2,176.3,0.9,0,0,0,90,90,180,180,90,90,786,17,0,0
771,32,0.0,0.0,0.0,3.2,176.4,0.9,0,0,0,90,90,180,180,90,90,786,16,0,0
772,32,0.0,0.0,0.0,3.2,176.5,0.9,0,0,0,90,90,180,180,90,90,786,14,0,0
773,33,0.0,0.0,0.0,3.3,176.3,0.9,0,0,0,90,90,180,180,90,90,786,15,0,0
774,33,0.0,0.0,0.0,3.3,176.3,0.9,0,0,0,90,90,180,180,90,90,786,16,0,0
775,33,0.0,0.0,0.0,3.4,176.4,0.9,0,0,567,90,90,180,180,90,90,788,11,0,0
776,33,0.0,0.0,0.0,3.4,176.4,0.9,0,0,567,90,90,180,180,90,90,788,17,0,0
777,33,0.0,0.0,0.0,3.3,176.0,0.9,0,0,567,90,90,180,180,90,90,786,16,0,0
778,33,0.0,0.0,0.0,3.2,175.9,0.9,0,0,567,90,90,180,180,90,90,788,16,0,0
779,33,0.0,0.0,0.0,3.2,176.1,0.9,0,0,81,90,90,180,180,90,90,786,16,0,0
780,33,0.0,0.0,0.0,3.3,176.2,0.9,0,0,81,90,90,180,180,90,90,786,15,0,0
781,33,0.0,0.0,0.0,3.3,176.2,0.9,0,0,81,90,90,180,180,90,90,786,15,0,0
782,33,0.0,0.0,0.0,3.2,176.2,0.9,0,0,81,90,90,180,180,90,90,788,15,0,0
783,33,0.0,0.0,0.0,3.2,176.1,0.9,0,0,81,90,90,180,180,90,90,786,16,0,0
784,33,0.0,0.0,0.0,3.0,176.1,0.9,0,0,0,90,90,180,180,90,90,786,16,0,0
785,33,0.0,0.0,0.0,3.1,176.3,0.9,0,0,0,90,90,180,180,90,90,786,16,0,0
786,33,0.0,0.0,0.0,3.1,176.5,0.9,0,0,0,90,90,180,180,90,90,786,15,0,0
787,33,0.0,0.0,0.0,3.1,176.4,0.9,0,0,0,90,90,180,180,90,90,786,15,0,0
788,33,0.0,0.0,0.0,3.2,176.2,0.9,0,56,7140,90,90,180,180,90,90,788,15,0,0
789,33,0.0,0.0,0.0,3.1,175.9,0.9,0,56,7140,90,90,180,180,90,90,788,16,0,0
790,33,0.0,0.0,0.0,3.1,175.8,0.9,0,0,0,90,90,180,180,90,90,786,15,0,0
791,33,0.0,0.0,0.0,3.1,175.7,0.9,0,0,0,90,90,180,180,90,90,788,13,0,0
792,32,0.0,0.0,0.0,3.1,176.0,0.9,0,0,0,90,90,180,180,90,90,788,7,0,0
793,32,0.0,0.0,0.0,3.1,176.0,0.2,0,0,56,90,90,180,180,90,90,788,15,0,0
794,32,0.0,0.0,0.0,3.0,176.2,0.2,0,0,56,90,90,180,180,90,90,786,15,0,0
795,32,0.0,0.0,0.0,3.0,176.2,0.2,0,0,0,90,90,180,180,90,90,786,15,0,0
796,32,0.0,0.0,0.0,2.9,176.2,0.2,0,0,0,90,90,180,180,90,90,788,9,0,0
797,32,0.0,0.0,0.0,2.9,176.2,0.2,0,0,0,90,90,180,180,90,90,786,17,0,0
798,32,0.0,0.0,0.0,3.1,176.2,0.2,0,0,0,90,90,180,180,90,90,786,18,0,0
799,32,0.0,0.0,0.0,3.2,176.0,0.2,0,560,751,90,90,180,180,90,90,786,15,0,0
800,32,0.0,0.0,0.0,3.3,175.9,0.2,0,560,751,90,90,180,180,90,90,788,8,0,0
801,32,0.0,0.0,0.0,3.3,175.9,0.2,0,560,751,90,90,180,180,90,90,786,11,0,0
802,32,0.0,0.0,0.0,3.3,176.0,0.0,0,0,0,90,90,180,180,90,90,786,16,0,0
803,32,0.0,0.0,0.0,3.3,176.1,0.0,0,0,0,90,90,180,180,90,90,786,15,0,0
804,32,0.0,0.0,0.0,3.3,176.0,0.2,0,567,1462,90,90,180,180,90,90,786,15,0,0
805,32,0.0,0.0,0.0,3.2,176.1,0.2,0,567,1462,90,90,180,180,90,90,786,12,0,0
806,32,0.0,0.0,0.0,3.2,176.2,0.0,0,0,0,90,90,180,180,90,90,788,15,0,0
807,32,0.0,0.0,0.0,3.2,176.0,0.0,0,0,0,90,90,180,180,90,90,786,16,0,0
808,32,0.0,0.0,0.0,3.2,176.1,0.0,0,0,0,90,90,180,180,90,90,786,19,0,0
809,32,0.0,0.0,0.0,3.1,176.2,0.0,0,0,0,90,90,180,180,90,90,788,15,0,0
810,32,0.0,0.0,0.0,3.1,176.2,0.0,0,0,0,90,90,180,180,90,90,786,16,0,0
811,32,0.0,0.0,0.0,3.1,176.1,0.0,0,0,0,90,90,180,180,90,90,786,15,0,0
812,32,0.0,0.0,0.0,3.2,176.0,0.0,0,0,0,90,90,180,180,90,90,786,16,0,0
813,32,0.0,0.0,0.0,3.1,176.1,0.0,0,0,0,90,90,180,180,90,90,786,15,0,0
814,32,0.0,0.0,0.0,3.1,176.2,0.0,0,0,0,90,90,180,180,90,90,786,17,0,0
815,32,0.0,0.0,0.0,3.2,176.0,0.2,0,567,1226,90,90,180,180,90,90,786,18,0,0
816,32,0.0,0.0,0.0,3.2,176.0,0.2,0,567,1226,90,90,180,180,90,90,786,14,0,0
817,32,0.0,0.0,0.0,3.2,176.1,0.2,0,567,1226,90,90,180,180,90,90,786,15,0,0
818,1072,0.0,0.0,0.0,3.2,176.3,0.2,0,567,1226,90,90,180,180,90,90,786,15,0,0
819,1072,0.0,0.0,0.0,3.1,176.4,0.2,0,567,1226,90,90,180,180,90,90,786,14,0,0
820,1072,0.0,0.0,0.0,3.1,176.4,0.0,0,0,0,90,90,180,180,90,90,786,15,0,0
821,1072,0.0,0.0,0.0,3.0,176.4,0.0,0,0,0,90,90,180,180,90,90,788,15,0,0
822,1072,0.0,0.0,0.0,3.0,176.3,0.2,0,567,908,90,90,180,180,90,90,786,16,0,0
823,1072,0.0,0.0,0.0,3.2,176.3,0.2,0,567,908,90,90,180,180,90,90,786,15,0,0
824,1072,0.0,0.0,0.0,3.2,176.3,0.2,0,567,908,90,90,180,180,90,90,786,17,0,0
825,1072,0.0,0.0,0.0,3.3,176.2,0.2,0,567,908,90,90,180,180,90,90,786,11,0,0
826,1072,0.0,0.0,0.0,3.3,176.3,0.0,0,0,0,90,90,180,180,90,90,788,20,0,0
827,1072,0.0,0.0,0.0,3.2,176.3,0.0,0,0,0,90,90,180,180,90,90,786,16,0,0
828,1072,0.0,0.0,0.0,3.1,176.3,0.0,0,0,0,90,90,180,180,90,90,788,15,0,0
829,1072,0.0,0.0,0.0,3.1,176.3,0.2,0,567,712,90,90,180,180,90,90,786,17,0,0
830,1072,0.0,0.0,0.0,3.1,176.3,0.2,0,567,712,90,90,180,180,90,90,786,15,0,0
831,1072,0.0,0.0,0.0,3.3,176.3,0.2,0,567,712,90,90,180,180,90,90,788,16,0,0
832,1072,0.0,0.0,0.0,3.3,176.4,0.2,0,567,712,90,90,180,180,90,90,786,15,0,0
833,1072,0.0,0.0,0.0,3.3,176.3,0.0,0,0,0,90,90,180,180,90,90,786,15,0,0
