time*0.5 [s],altitude [cm],rot_old [rpm],airspeed [m/s],yaw [deg],pitch [deg],roll [deg],rot_twe [rpm],thrust_h,thrust_m,thrust_l,rudder,elevator,rudderFB,elevatorFB,rudderTrim,elevatortrim,battVoltage,battCurrent,nunchuckC,nunchuckZ
1,19,0.0,0.0,0.0,3.1,176.4,0.0,0,0,0,90,90,180,180,90,90,790,15,0,0
2,19,0.0,1.753,0.0,2.9,176.6,0.4,0,0,5,90,90,180,180,90,90,790,15,0,0
3,19,0.0,1.753,0.0,2.8,176.5,0.4,0,0,5,90,90,180,180,90,90,790,14,0,0
4,19,0.0,3.076,0.0,2.9,176.2,0.0,0,0,0,90,90,180,180,90,90,790,15,0,0
5,19,0.0,3.076,0.0,2.9,176.1,0.0,0,0,0,90,90,180,180,90,90,791,14,0,0
6,19,0.0,3.076,0.0,3.1,175.9,0.0,0,0,0,90,90,180,180,90,90,790,13,0,0
7,19,0.0,0.0,0.0,3.1,175.9,0.4,0,0,0,90,90,180,180,90,90,790,13,0,0
8,19,0.0,0.0,0.0,3.1,176.3,0.4,0,0,0,90,90,180,180,90,90,790,14,0,0
9,19,0.0,0.0,0.0,3.1,176.1,0.0,0,0,0,90,90,180,180,90,90,790,16,0,0
10,19,0.0,0.0,0.0,3.0,176.0,0.0,0,0,0,90,90,180,180,90,90,790,10,0,0
11,19,0.0,0.0,0.0,3.0,176.1,0.4,0,6500,6087,90,90,180,180,90,90,790,15,0,0
12,19,0.0,0.0,0.0,3.1,176.2,0.4,0,6500,6087,90,90,180,180,90,90,790,15,0,0
13,19,0.0,0.0,0.0,3.1,176.0,0.0,0,0,0,90,90,180,180,90,90,790,23,0,0
14,19,0.0,0.0,0.0,2.8,176.0,0.0,0,0,0,90,90,180,180,90,90,791,13,0,0
15,19,0.0,0.0,0.0,2.7,176.0,0.0,0,0,0,90,90,180,180,90,90,789,23,0,0
16,19,0.0,0.0,0.0,3.1,175.4,0.4,0,0,56,90,90,180,180,90,90,791,14,0,0
17,19,0.0,0.0,0.0,2.9,175.3,0.4,0,0,56,90,90,180,180,90,90,790,16,0,0
18,19,0.0,0.0,0.0,2.8,175.1,0.0,0,0,0,90,90,180,180,90,90,791,8,0,0
19,19,0.0,0.0,0.0,2.4,174.9,0.0,0,0,0,90,90,180,180,90,90,788,39,0,0
20,19,0.0,0.0,0.0,1.1,174.1,0.2,0,0,0,90,90,180,180,90,90,788,28,0,0
21,19,0.0,0.0,0.0,0.7,174.0,0.2,0,0,0,90,93,180,180,90,90,790,19,0,0
22,19,0.0,0.0,0.0,0.0,174.6,107.5,0,0,5,90,90,180,180,90,90,789,26,0,0
23,19,0.0,0.0,0.0,-1.0,174.3,107.5,0,0,5,90,90,180,180,90,90,790,17,0,0
24,19,0.0,0.0,0.0,-0.5,174.4,107.5,0,0,5,90,90,180,180,90,90,791,5,0,0
25,19,0.0,7.369,0.0,-0.2,174.9,106.4,0,0,810,90,90,180,180,90,90,790,12,0,0
26,19,0.0,1.84,0.0,-0.9,174.8,310.6,0,0,588,90,90,180,180,90,90,789,21,0,0
27,19,0.0,0.851,0.0,0.0,175.1,138.0,0,0,0,90,90,180,180,90,90,791,18,0,0
28,19,0.0,0.012,0.0,0.1,174.4,138.6,0,0,0,90,90,180,180,90,90,790,14,0,0
29,19,0.0,0.029,0.0,0.0,173.7,137.7,0,0,0,90,90,180,180,90,90,789,33,0,0
30,19,0.0,0.526,0.0,0.4,174.2,135.9,0,0,810,90,90,180,180,90,90,789,16,0,0
31,19,0.0,0.093,0.0,-0.4,174.0,147.8,0,0,56,90,90,180,180,90,90,791,13,0,0
32,19,0.0,0.006,0.0,-0.9,173.8,150.6,0,0,56,90,90,180,180,90,90,790,13,0,0
33,19,0.0,0.402,0.0,-0.2,174.2,151.5,0,0,0,90,90,180,180,90,90,790,17,0,0
34,19,0.0,0.012,0.0,-1.5,175.9,151.8,0,0,56,90,90,180,180,90,90,790,22,0,0
35,19,0.0,0.126,0.0,-3.8,177.5,150.9,0,0,56,90,90,180,180,90,90,789,24,0,0
36,19,0.0,0.087,0.0,-4.9,35.6,155.0,0,567,3935,90,90,180,180,90,90,789,31,0,0
37,19,0.0,1.425,0.0,-5.9,106.7,160.7,0,567,8337,90,90,180,180,90,90,789,28,0,0
38,19,0.0,0.462,0.0,-8.4,178.0,159.1,0,0,0,90,90,180,180,90,90,791,10,0,0
39,19,0.0,0.006,0.0,-9.2,178.3,160.4,0,5,6676,90,90,180,180,90,90,790,13,0,0
40,19,0.0,0.925,0.0,-9.2,-35.7,159.2,0,5,6732,90,90,180,180,90,90,789,33,0,0
41,19,0.0,0.02,0.0,-10.1,-177.7,157.8,0,0,56,90,90,180,180,90,90,790,12,0,0
42,19,0.0,0.328,0.0,-13.1,-178.1,161.3,0,0,56,90,90,180,180,90,90,790,11,0,0
43,19,0.0,0.007,0.0,-14.6,-177.1,163.8,0,0,0,90,90,180,180,90,90,790,7,0,0
44,19,0.0,0.417,0.0,-15.1,-174.8,162.5,0,0,56,90,177,180,180,90,90,791,5,0,0
45,19,0.0,3.137,0.0,-15.5,-173.8,0.0,0,0,0,92,168,180,180,90,90,790,15,0,0
46,19,0.0,0.608,0.0,-16.9,-173.9,157.4,0,0,0,90,171,180,180,90,90,791,7,0,0
47,19,0.0,1.0,0.0,-17.4,-176.0,154.3,0,568,467,90,92,180,180,90,90,769,363,0,0
48,19,0.0,1.067,0.0,-14.2,-35.2,156.6,0,0,0,90,172,180,180,90,90,790,13,0,0
49,19,0.0,0.083,0.0,-15.5,-177.8,161.8,0,0,0,90,158,180,180,90,90,789,23,0,0
50,19,0.0,0.257,0.0,-19.7,-175.8,155.8,0,0,568,90,101,180,180,90,90,778,170,0,0
51,19,0.0,0.065,0.0,-21.7,-174.6,152.6,0,0,56,90,7,180,180,90,90,788,35,0,0
52,19,0.0,0.542,0.0,-20.2,-174.8,144.5,0,568,5685,90,90,180,180,90,90,782,151,0,0
53,19,0.0,0.1,0.0,-19.3,-171.8,142.1,0,0,0,88,7,180,180,90,90,788,16,0,0
54,19,0.0,0.627,0.0,-18.9,-169.6,0.0,0,0,0,90,7,180,180,90,90,790,8,0,0
55,19,0.0,0.552,0.0,-17.9,-171.1,139.6,0,568,7887,80,85,180,180,90,90,786,41,0,0
56,19,0.0,0.16,0.0,-17.1,-171.1,145.2,0,568,983,80,11,180,180,90,90,788,40,0,0
57,19,0.0,0.264,0.0,-16.6,-170.7,145.1,0,567,5642,82,10,180,180,90,90,790,15,0,0
58,19,0.0,0.3,0.0,-17.5,-171.8,144.5,0,567,6122,82,10,180,180,90,90,788,33,0,0
59,19,0.0,0.308,0.0,-16.4,-172.3,1.5,0,0,0,90,90,180,180,90,90,789,22,0,0
60,19,0.0,0.025,0.0,-13.5,-172.6,151.6,0,560,6287,90,90,180,180,90,90,790,21,0,0
61,19,0.0,0.029,0.0,-12.4,-173.4,155.8,0,0,56,90,90,180,180,90,90,790,5,0,0
62,19,0.0,0.035,0.0,-11.8,-175.5,157.5,0,568,5105,90,90,180,180,90,90,790,5,0,0
63,19,0.0,0.359,0.0,-9.9,-176.8,160.4,0,567,2959,90,90,180,180,90,90,790,18,0,0
64,19,0.0,0.026,0.0,-9.0,-176.2,159.3,0,0,5,90,57,180,180,90,90,785,72,0,0
65,19,0.0,0.832,0.0,-9.4,-176.8,147.8,0,568,6535,94,156,180,180,90,90,790,9,0,0
66,19,0.0,0.252,0.0,-9.8,-176.5,145.6,0,568,388,92,161,180,180,90,90,786,67,0,0
67,35,0.0,0.072,0.0,-9.5,-177.8,149.0,0,568,1851,93,176,180,180,90,90,790,14,0,0
68,35,0.0,0.057,0.0,-9.5,-177.8,148.0,0,568,4245,90,178,180,180,90,90,790,7,0,0
69,35,0.0,0.023,0.0,-9.1,-176.8,150.1,0,568,3507,90,90,180,180,90,90,770,274,0,0
70,35,0.0,0.159,0.0,-6.7,-175.8,138.5,0,570,1511,90,90,180,180,90,90,789,15,0,0
71,35,0.0,2.548,0.0,-5.3,-176.3,107.5,0,568,2619,90,90,180,180,90,90,790,13,0,0
72,35,0.0,3.637,0.0,-5.3,-175.8,92.5,0,569,374,90,90,180,180,90,90,790,19,0,0
73,35,0.0,0.178,0.0,-6.4,-175.1,67.0,0,0,56,90,90,180,180,90,90,789,11,0,0
74,35,0.0,0.129,0.0,-6.8,-175.3,63.5,0,0,0,90,90,180,180,90,90,788,38,0,0
75,35,0.0,0.819,0.0,-6.5,-175.3,66.6,0,1,53,94,164,180,180,90,90,790,5,0,0
76,619,0.0,2.715,0.0,-6.8,-174.9,63.8,0,0,0,102,106,180,180,90,90,788,34,0,0
77,619,0.0,1.922,0.0,-6.9,-174.6,57.8,0,0,0,90,90,180,180,90,90,790,10,0,0
78,36,0.0,3.544,0.0,-5.4,-172.2,55.9,0,0,0,90,90,180,180,90,90,791,8,0,0
79,36,0.0,2.77,0.0,-2.8,-173.2,5.3,0,0,0,90,90,180,180,90,90,790,8,0,0
80,36,0.0,3.019,0.0,-2.0,-174.8,4.1,0,0,0,90,90,180,180,90,90,790,8,0,0
81,37,0.0,4.996,0.0,0.3,-176.1,0.3,0,0,0,90,90,180,180,90,90,790,12,0,0
82,37,0.0,4.996,0.0,1.2,-177.7,39.4,0,568,6086,90,90,180,180,90,90,790,6,0,0
83,37,0.0,3.712,0.0,0.4,-177.6,34.3,0,568,4898,90,90,180,180,90,90,790,17,0,0
84,35,0.0,4.109,0.0,-0.3,-176.7,25.6,0,568,4449,90,90,180,180,90,90,790,5,0,0
85,35,0.0,1.219,0.0,0.3,-178.1,22.5,0,568,3670,90,90,180,180,90,90,789,13,0,0
86,35,0.0,0.288,0.0,1.5,-178.3,17.0,0,568,4003,90,90,180,180,90,90,790,5,0,0
87,34,0.0,1.077,0.0,0.5,-106.8,13.1,0,568,4912,90,90,180,180,90,90,788,34,0,0
88,34,0.0,3.047,0.0,0.3,179.2,14.3,0,0,5685,90,90,180,180,90,90,790,20,0,0
89,37,0.0,2.964,0.0,0.5,-34.8,15.1,0,0,5685,90,90,180,180,90,90,790,6,0,0
90,37,0.0,3.398,0.0,0.2,-107.2,15.1,0,0,5685,90,90,180,180,90,90,790,11,0,0
91,37,0.0,0.016,0.0,1.8,35.7,15.1,0,0,5685,90,90,180,180,90,90,789,27,0,0
92,38,0.0,1.963,0.0,2.0,107.0,15.1,0,0,5685,90,90,180,180,90,90,790,5,0,0
93,38,0.0,0.594,0.0,2.4,178.9,14.3,0,0,5682,90,90,180,180,90,90,790,21,0,0
94,37,0.0,0.049,0.0,1.6,177.6,9.8,0,0,5685,90,90,180,180,90,90,790,5,0,0
95,37,0.0,0.049,0.0,2.3,177.1,9.8,0,0,5685,90,90,180,180,90,90,790,16,0,0
96,37,0.0,0.05,0.0,3.5,176.3,9.8,0,0,5685,90,90,180,180,90,90,789,23,0,0
97,37,0.0,0.05,0.0,4.5,175.5,9.8,0,0,5685,90,90,180,180,90,90,791,5,0,0
98,37,0.0,0.056,0.0,4.5,175.4,9.8,0,0,5685,90,90,180,180,90,90,790,14,0,0
99,39,0.0,0.056,0.0,4.8,174.8,9.8,0,0,5685,90,90,180,180,90,90,790,16,0,0
100,39,0.0,0.056,0.0,4.5,174.6,9.8,0,0,5685,90,90,180,180,90,90,790,14,0,0
101,39,0.0,0.073,0.0,4.9,175.0,8.0,0,56,8520,90,90,180,180,90,90,790,13,0,0
102,525,0.0,0.073,0.0,5.2,175.3,8.0,0,56,8520,90,90,180,180,90,90,790,11,0,0
103,525,0.0,0.0,0.0,5.0,174.6,8.0,0,56,8520,90,90,180,180,90,90,790,14,0,0
104,38,0.0,0.0,0.0,5.1,174.6,8.0,0,56,8520,90,90,180,180,90,90,790,10,0,0
105,38,0.0,0.0,0.0,5.0,174.4,8.0,0,56,8520,90,90,180,180,90,90,790,10,0,0
106,38,0.0,0.0,0.0,4.7,174.3,8.0,0,56,8520,90,90,180,180,90,90,790,19,0,0
107,37,0.0,0.0,0.0,4.5,174.6,8.0,0,56,8520,90,90,180,180,90,90,790,11,0,0
108,37,0.0,0.0,0.0,3.9,175.2,8.0,0,56,8520,90,90,180,180,90,90,790,13,0,0
109,37,0.0,0.0,0.0,3.6,174.8,8.0,0,56,8520,90,90,180,180,90,90,790,12,0,0
110,39,0.0,0.0,0.0,3.5,174.2,4.3,0,5,6814,90,90,180,180,90,90,790,14,0,0
111,39,0.0,0.0,0.0,3.3,174.7,4.3,0,5,6814,90,90,180,180,90,90,790,15,0,0
112,39,0.0,0.0,0.0,3.2,175.0,4.3,0,5,6814,90,90,180,180,90,90,790,14,0,0
113,37,0.0,0.0,0.0,3.3,174.8,4.3,0,5,6814,90,90,180,180,90,90,790,12,0,0
114,37,0.0,0.0,0.0,3.3,175.0,4.3,0,5,6814,90,90,180,180,90,90,790,17,0,0
115,37,0.0,0.0,0.0,3.3,174.3,4.3,0,5,6814,90,90,180,180,90,90,790,14,0,0
116,37,0.0,0.0,0.0,3.2,174.3,4.3,0,5,6814,90,90,180,180,90,90,790,10,0,0
117,37,0.0,0.0,0.0,3.3,174.3,4.3,0,5,6814,90,90,180,180,90,90,790,15,0,0
118,37,0.0,0.0,0.0,3.5,174.2,4.3,0,5,6814,90,90,180,180,90,90,790,15,0,0
119,37,0.0,0.0,0.0,3.3,174.2,3.7,0,567,8381,90,90,180,180,90,90,790,18,0,0
120,37,0.0,0.0,0.0,3.2,174.3,3.7,0,567,8381,90,90,180,180,90,90,790,12,0,0
121,37,0.0,0.0,0.0,3.2,174.5,3.7,0,567,8381,90,90,180,180,90,90,790,14,0,0
122,41,0.0,0.0,0.0,3.4,174.5,3.7,0,567,8381,90,90,180,180,90,90,790,13,0,0
123,41,0.0,0.0,0.0,3.4,174.8,3.7,0,567,8381,90,90,180,180,90,90,790,14,0,0
124,37,0.0,0.0,0.0,3.4,174.6,3.7,0,567,8381,90,90,180,180,90,90,790,9,0,0
125,37,0.0,0.0,0.0,3.5,174.1,3.8,0,567,8606,90,90,180,180,90,90,790,12,0,0
126,37,0.0,0.0,0.0,3.5,174.3,3.8,0,567,8606,90,90,180,180,90,90,790,14,0,0
127,37,0.0,0.0,0.0,3.4,174.6,3.8,0,567,8606,90,90,180,180,90,90,790,16,0,0
128,37,0.0,0.0,0.0,3.4,174.6,3.8,0,567,8606,90,90,180,180,90,90,790,15,0,0
129,37,0.0,0.0,0.0,3.4,174.6,3.8,0,567,8606,90,90,180,180,90,90,789,14,0,0
130,37,0.0,0.0,0.0,3.4,174.9,3.8,0,567,8606,90,90,180,180,90,90,790,12,0,0
131,40,0.0,0.0,0.0,3.3,174.9,3.8,0,567,8606,90,90,180,180,90,90,790,16,0,0
132,40,0.0,0.0,0.0,3.2,175.0,2.0,0,567,8448,90,90,180,180,90,90,790,18,0,0
133,41,0.0,0.0,0.0,3.3,175.1,2.0,0,567,8448,90,90,180,180,90,90,790,14,0,0
134,41,0.0,0.0,0.0,3.4,174.9,2.0,0,567,8448,90,90,180,180,90,90,789,16,0,0
135,41,0.0,0.0,0.0,3.4,174.9,2.0,0,567,8448,90,90,180,180,90,90,790,8,0,0
136,37,0.0,0.0,0.0,3.3,175.0,2.0,0,567,8448,90,90,180,180,90,90,790,14,0,0
137,37,0.0,0.0,0.0,3.3,174.9,2.0,0,567,8448,90,90,180,180,90,90,790,16,0,0
138,37,0.0,0.0,0.0,3.4,174.8,2.0,0,567,8448,90,90,180,180,90,90,789,16,0,0
139,42,0.0,0.0,0.0,3.5,175.0,2.0,0,567,8193,90,90,180,180,90,90,790,13,0,0
140,42,0.0,0.0,0.0,3.4,175.0,2.0,0,567,8193,90,90,180,180,90,90,790,9,0,0
141,42,0.0,0.0,0.0,3.5,174.7,2.0,0,567,8193,90,90,180,180,90,90,790,15,0,0
142,43,0.0,0.0,0.0,3.6,174.6,2.0,0,567,8193,90,90,180,180,90,90,789,16,0,0
143,43,0.0,0.0,0.0,3.6,174.6,2.0,0,567,8193,90,90,180,180,90,90,790,15,0,0
144,42,0.0,0.0,0.0,3.6,174.3,2.0,0,567,8193,90,90,180,180,90,90,790,14,0,0
145,42,0.0,0.0,0.0,3.5,174.5,2.0,0,567,8193,90,90,180,180,90,90,790,13,0,0
146,42,0.0,0.0,0.0,3.5,174.6,2.0,0,567,7718,90,90,180,180,90,90,790,16,0,0
147,37,0.0,0.0,0.0,3.3,174.3,2.0,0,567,7718,90,90,180,180,90,90,790,13,0,0
148,37,0.0,0.0,0.0,3.2,174.7,2.0,0,567,7718,90,90,180,180,90,90,790,15,0,0
149,37,0.0,0.0,0.0,3.2,174.9,2.0,0,567,7718,90,90,180,180,90,90,789,15,0,0
150,37,0.0,0.0,0.0,3.4,175.0,2.0,0,567,7718,90,90,180,180,90,90,790,16,0,0
151,37,0.0,0.0,0.0,3.5,175.0,2.0,0,567,7718,90,90,180,180,90,90,790,14,0,0
152,37,0.0,0.0,0.0,3.5,175.1,2.0,0,567,7718,90,90,180,180,90,90,790,14,0,0
153,37,0.0,0.0,0.0,3.3,175.4,2.0,0,567,7383,90,90,180,180,90,90,790,12,0,0
154,37,0.0,0.0,0.0,3.3,175.4,2.0,0,567,7383,90,90,180,180,90,90,790,7,0,0
155,37,0.0,0.0,0.0,3.3,175.2,2.0,0,567,7383,90,90,180,180,90,90,790,14,0,0
156,39,0.0,0.0,0.0,3.4,175.5,2.0,0,567,7383,90,90,180,180,90,90,790,15,0,0
157,39,0.0,0.0,0.0,3.3,175.7,2.0,0,567,7383,90,90,180,180,90,90,790,15,0,0
158,39,0.0,0.0,0.0,3.4,175.5,2.0,0,567,7383,90,90,180,180,90,90,790,13,0,0
159,39,0.0,0.0,0.0,3.4,175.5,2.0,0,567,7383,90,90,180,180,90,90,789,17,0,0
160,39,0.0,0.0,0.0,3.3,175.6,2.0,0,567,6850,90,90,180,180,90,90,790,14,0,0
161,34,0.0,0.0,0.0,3.1,175.9,2.0,0,567,6850,90,90,180,180,90,90,790,16,0,0
162,34,0.0,0.0,0.0,3.2,175.8,2.0,0,567,6850,90,90,180,180,90,90,790,16,0,0
163,32,0.0,0.0,0.0,3.3,175.6,2.0,0,567,6850,90,90,180,180,90,90,790,16,0,0
164,32,0.0,0.0,0.0,3.3,175.5,2.0,0,567,6850,90,90,180,180,90,90,790,15,0,0
165,32,0.0,0.0,0.0,3.2,175.7,2.0,0,567,6850,90,90,180,180,90,90,790,14,0,0
166,33,0.0,0.0,0.0,3.2,175.8,2.0,0,567,6850,90,90,180,180,90,90,790,15,0,0
167,33,0.0,0.0,0.0,3.2,175.6,2.0,0,567,6553,90,90,180,180,90,90,790,15,0,0
168,33,0.0,0.0,0.0,3.3,175.7,2.0,0,567,6553,90,90,180,180,90,90,790,13,0,0
169,41,0.0,0.0,0.0,3.3,175.7,2.0,0,567,6553,90,90,180,180,90,90,790,13,0,0
170,41,0.0,0.0,0.0,3.3,176.0,2.0,0,567,6553,90,90,180,180,90,90,790,15,0,0
171,41,0.0,0.0,0.0,3.3,176.0,2.0,0,567,6553,90,90,180,180,90,90,790,13,0,0
172,33,0.0,0.0,0.0,3.3,175.6,2.0,0,567,6553,90,90,180,180,90,90,789,15,0,0
173,33,0.0,0.0,0.0,3.4,175.0,2.0,0,567,6553,90,90,180,180,90,90,790,14,0,0
174,33,0.0,0.0,0.0,3.4,175.1,2.0,0,567,6553,90,90,180,180,90,90,789,17,0,0
175,32,0.0,0.0,0.0,3.4,175.7,2.0,0,567,6553,90,90,180,180,90,90,790,11,0,0
176,32,0.0,0.0,0.0,3.5,175.8,2.0,0,567,7433,90,90,180,180,90,90,790,14,0,0
177,32,0.0,0.0,0.0,3.5,175.9,2.0,0,567,7433,90,90,180,180,90,90,790,14,0,0
178,39,0.0,0.0,0.0,3.5,176.0,2.0,0,567,7433,90,90,180,180,90,90,790,15,0,0
179,39,0.0,0.0,0.0,3.4,175.5,2.0,0,567,7433,90,90,180,180,90,90,790,15,0,0
180,39,0.0,0.0,0.0,3.3,175.4,2.0,0,567,7433,90,90,180,180,90,90,790,17,0,0
181,39,0.0,0.0,0.0,3.3,175.1,2.0,0,567,7433,90,90,180,180,90,90,790,13,0,0
182,40,0.0,0.0,0.0,3.1,174.9,2.0,0,567,7433,86,87,180,180,90,90,789,26,0,0
183,40,0.0,0.0,0.0,3.1,175.4,2.0,0,567,7433,90,90,180,180,90,90,789,27,0,0
184,40,0.0,0.0,0.0,3.3,175.8,2.0,0,567,7433,90,90,180,180,90,90,790,12,0,0
185,40,0.0,0.0,0.0,3.5,175.3,2.0,0,567,6918,90,90,180,180,90,90,790,13,0,0
186,40,0.0,0.0,0.0,3.5,175.4,2.0,0,567,6918,90,90,180,180,90,90,790,14,0,0
187,40,0.0,0.0,0.0,3.3,175.3,2.0,0,567,6918,90,90,180,180,90,90,790,13,0,0
188,37,0.0,0.0,0.0,3.2,175.3,2.0,0,567,6918,90,90,180,180,90,90,790,15,0,0
189,37,0.0,0.0,0.0,3.3,175.1,2.0,0,567,6918,90,90,180,180,90,90,790,14,0,0
190,32,0.0,0.0,0.0,3.3,175.2,2.0,0,567,6918,90,90,180,180,90,90,789,15,0,0
191,32,0.0,0.0,0.0,3.2,175.2,2.0,0,567,6918,90,90,180,180,90,90,790,13,0,0
192,32,0.0,0.0,0.0,3.2,174.9,2.0,0,567,6918,90,90,180,180,90,90,790,14,0,0
193,32,0.0,0.0,0.0,3.3,174.9,2.0,0,567,6918,90,90,180,180,90,90,790,15,0,0
194,43,0.0,0.0,0.0,3.3,174.8,1.7,0,567,6984,90,90,180,180,90,90,790,14,0,0
195,43,0.0,0.0,0.0,3.2,174.7,1.7,0,567,6984,90,90,180,180,90,90,790,14,0,0
196,43,0.0,0.0,0.0,3.2,174.7,1.7,0,567,6984,90,90,180,180,90,90,789,13,0,0
197,35,0.0,0.0,0.0,3.2,174.7,1.7,0,567,6984,90,90,180,180,90,90,790,17,0,0
198,35,0.0,0.0,0.0,3.1,175.2,1.7,0,567,6984,90,90,180,180,90,90,790,14,0,0
199,35,0.0,0.0,0.0,3.1,175.5,1.7,0,567,6984,90,90,180,180,90,90,790,14,0,0
200,33,0.0,0.0,0.0,3.3,175.0,1.7,0,567,6984,90,90,180,180,90,90,790,13,0,0
201,33,0.0,0.0,0.0,3.4,174.8,0.0,0,0,0,90,90,180,180,90,90,790,13,0,0
202,33,0.0,0.0,0.0,3.4,174.6,0.0,0,0,0,90,90,180,180,90,90,790,12,0,0
203,35,0.0,0.0,0.0,3.3,174.5,1.7,0,567,7311,90,90,180,180,90,90,790,12,0,0
204,35,0.0,0.0,0.0,3.2,174.6,1.7,0,567,7311,90,90,180,180,90,90,790,13,0,0
205,35,0.0,0.0,0.0,3.2,174.6,1.7,0,567,7311,90,90,180,180,90,90,790,13,0,0
206,35,0.0,0.0,0.0,3.2,174.4,1.7,0,567,7311,90,90,180,180,90,90,790,14,0,0
207,35,0.0,0.0,0.0,3.1,174.4,1.7,0,567,7311,90,90,180,180,90,90,790,14,0,0
208,35,0.0,0.0,0.0,3.1,174.4,1.7,0,567,7311,90,90,180,180,90,90,790,14,0,0
209,39,0.0,0.0,0.0,3.1,174.5,1.7,0,567,7311,90,90,180,180,90,90,790,14,0,0
210,39,0.0,0.0,0.0,3.0,174.4,1.7,0,567,7311,90,90,180,180,90,90,790,16,0,0
211,39,0.0,0.0,0.0,2.9,174.3,1.7,0,567,7311,90,90,180,180,90,90,790,12,0,0
212,524,0.0,0.0,0.0,2.8,174.5,1.7,0,567,7472,90,90,180,180,90,90,790,14,0,0
213,524,0.0,0.0,0.0,2.8,174.3,1.7,0,567,7472,90,90,180,180,90,90,790,13,0,0
214,40,0.0,0.0,0.0,2.8,174.0,1.7,0,567,7472,90,90,180,180,90,90,790,15,0,0
215,40,0.0,0.0,0.0,2.9,174.2,1.7,0,567,7472,90,90,180,180,90,90,790,14,0,0
216,40,0.0,0.0,0.0,3.0,174.2,1.7,0,567,7472,90,90,180,180,90,90,790,13,0,0
217,34,0.0,0.0,0.0,2.9,174.1,1.7,0,567,7472,90,90,180,180,90,90,791,13,0,0
218,34,0.0,0.0,0.0,3.5,174.3,1.7,0,567,7472,90,90,180,180,90,90,790,12,0,0
219,34,0.0,0.0,0.0,3.5,174.4,1.7,0,567,7472,90,90,180,180,90,90,790,13,0,0
220,33,0.0,0.0,0.0,3.5,174.3,1.7,0,567,7472,90,90,180,180,90,90,790,13,0,0
221,33,0.0,0.0,0.0,3.5,174.2,1.7,0,567,7472,90,90,180,180,90,90,790,11,0,0
222,32,0.0,0.0,0.0,3.5,174.4,0.5,0,56,7833,90,90,180,180,90,90,790,15,0,0
223,32,0.0,0.0,0.0,3.2,173.9,0.5,0,56,7833,90,90,180,180,90,90,790,12,0,0
224,33,0.0,0.0,0.0,3.2,174.1,0.5,0,56,7833,90,90,180,180,90,90,791,5,0,0
225,33,0.0,0.0,0.0,3.3,174.2,0.5,0,56,7833,90,90,180,180,90,90,791,6,0,0
226,34,0.0,0.0,0.0,3.3,174.3,0.5,0,56,7833,90,90,180,180,90,90,790,12,0,0
227,34,0.0,0.0,0.0,3.3,174.3,0.5,0,56,7833,90,90,180,180,90,90,790,5,0,0
228,34,0.0,0.0,0.0,3.4,174.1,0.5,0,56,7833,90,90,180,180,90,90,789,16,0,0
229,33,0.0,0.0,0.0,3.6,174.1,0.5,0,56,7833,90,90,180,180,90,90,790,14,0,0
230,33,0.0,0.0,0.0,3.6,174.3,0.5,0,56,7833,90,90,180,180,90,90,790,14,0,0
231,34,0.0,0.0,0.0,3.6,174.2,0.4,0,56,7839,90,90,180,180,90,90,789,15,0,0
232,34,0.0,0.0,0.0,3.5,174.3,0.4,0,56,7839,90,90,180,180,90,90,790,13,0,0
233,39,0.0,0.0,0.0,3.5,174.4,0.4,0,56,7839,90,90,180,180,90,90,790,15,0,0
234,39,0.0,0.0,0.0,3.3,174.5,0.4,0,56,7839,90,90,180,180,90,90,790,12,0,0
235,39,0.0,0.0,0.0,3.3,174.4,0.4,0,56,7839,90,90,180,180,90,90,790,13,0,0
236,34,0.0,0.0,0.0,3.5,174.3,0.4,0,56,7839,90,90,180,180,90,90,790,13,0,0
237,34,0.0,0.0,0.0,3.4,174.2,0.4,0,56,7839,90,90,180,180,90,90,790,13,0,0
238,34,0.0,0.0,0.0,3.2,174.2,0.4,0,56,7839,90,90,180,180,90,90,789,13,0,0
239,37,0.0,0.0,0.0,3.1,174.5,0.4,0,56,7839,90,90,180,180,90,90,790,13,0,0
240,37,0.0,0.0,0.0,3.1,174.3,0.4,0,56,7667,90,90,180,180,90,90,789,14,0,0
241,37,0.0,0.0,0.0,3.3,174.2,0.4,0,56,7667,90,90,180,180,90,90,790,14,0,0
242,33,0.0,0.0,0.0,3.3,174.3,0.4,0,56,7667,90,90,180,180,90,90,790,12,0,0
243,33,0.0,0.0,0.0,3.3,174.3,0.4,0,56,7667,90,90,180,180,90,90,790,13,0,0
244,33,0.0,0.0,0.0,3.2,174.4,0.4,0,56,7667,90,90,180,180,90,90,790,15,0,0
245,34,0.0,0.0,0.0,3.2,174.5,0.4,0,56,7667,90,90,180,180,90,90,790,14,0,0
246,34,0.0,0.0,0.0,3.3,174.4,0.4,0,56,7667,90,90,180,180,90,90,790,14,0,0
247,34,0.0,0.0,0.0,3.3,174.2,0.4,0,56,7667,90,90,180,180,90,90,790,12,0,0
248,34,0.0,0.0,0.0,3.2,174.3,0.4,0,56,7667,90,90,180,180,90,90,790,15,0,0
249,34,0.0,0.0,0.0,3.2,174.2,0.4,0,56,7926,90,90,180,180,90,90,790,7,0,0
250,34,0.0,0.0,0.0,3.3,174.3,0.4,0,56,7926,90,90,180,180,90,90,790,7,0,0
251,34,0.0,0.0,0.0,3.3,174.4,0.4,0,56,7926,90,90,180,180,90,90,790,13,0,0
252,34,0.0,0.0,0.0,3.4,174.4,0.4,0,56,7926,90,90,180,180,90,90,790,16,0,0
253,34,0.0,0.0,0.0,3.4,174.3,0.0,0,0,0,90,90,180,180,90,90,790,12,0,0
254,34,0.0,0.0,0.0,3.4,174.2,0.0,0,0,0,90,90,180,180,90,90,790,13,0,0
255,34,0.0,0.0,0.0,3.5,174.0,0.4,0,567,8322,90,90,180,180,90,90,790,14,0,0
256,34,0.0,0.0,0.0,3.5,174.1,0.4,0,567,8322,90,90,180,180,90,90,790,12,0,0
257,34,0.0,0.0,0.0,3.6,174.2,0.4,0,567,8322,90,90,180,180,90,90,789,13,0,0
258,39,0.0,0.0,0.0,3.5,174.2,0.4,0,567,8322,90,90,180,180,90,90,790,14,0,0
259,39,0.0,0.0,0.0,3.4,174.2,0.4,0,567,8322,90,90,180,180,90,90,790,13,0,0
260,39,0.0,0.0,0.0,3.3,174.3,0.0,0,0,0,90,90,180,180,90,90,790,15,0,0
261,34,0.0,0.0,0.0,3.2,174.2,0.0,0,0,0,90,90,180,180,90,90,789,14,0,0
262,34,0.0,0.0,0.0,3.2,174.1,0.4,0,56,7507,90,90,180,180,90,90,790,8,0,0
263,41,0.0,0.0,0.0,3.3,174.1,0.4,0,56,7507,90,90,180,180,90,90,790,15,0,0
264,41,0.0,0.0,0.0,3.4,174.2,0.4,0,56,7507,90,90,180,180,90,90,790,15,0,0
265,35,0.0,0.0,0.0,3.4,174.2,0.4,0,56,7507,90,90,180,180,90,90,789,15,0,0
266,35,0.0,0.0,0.0,3.5,174.3,0.4,0,56,7507,90,90,180,180,90,90,790,13,0,0
267,35,0.0,0.0,0.0,3.2,174.4,0.4,0,56,7507,90,90,180,180,90,90,790,12,0,0
268,37,0.0,0.0,0.0,3.2,174.4,0.4,0,56,7507,90,90,180,180,90,90,790,14,0,0
269,37,0.0,0.0,0.0,3.2,174.5,0.4,0,0,567,90,90,180,180,90,90,790,14,0,0
270,37,0.0,0.0,0.0,3.2,174.4,0.4,0,0,567,90,90,180,180,90,90,790,14,0,0
271,37,0.0,0.0,0.0,3.1,174.2,0.4,0,0,567,90,90,180,180,90,90,790,13,0,0
272,37,0.0,0.0,0.0,3.1,174.5,0.4,0,0,567,90,90,180,180,90,90,790,13,0,0
273,35,0.0,0.0,0.0,3.0,174.5,0.4,0,0,567,90,90,180,180,90,90,789,12,0,0
274,35,0.0,0.0,0.0,3.4,173.8,0.4,0,0,567,90,90,180,180,90,90,790,14,0,0
275,35,0.0,0.0,0.0,3.5,174.2,0.4,0,0,567,90,90,180,180,90,90,790,16,0,0
276,35,0.0,0.0,0.0,3.5,174.4,0.4,0,0,0,90,90,180,180,90,90,790,13,0,0
277,39,0.0,0.0,0.0,3.5,174.1,0.4,0,0,0,90,90,180,180,90,90,790,11,0,0
278,39,0.0,0.0,0.0,3.5,174.1,0.4,0,0,0,90,90,180,180,90,90,790,13,0,0
279,39,0.0,0.0,0.0,3.3,174.3,0.4,0,0,0,90,90,180,180,90,90,790,12,0,0
280,39,0.0,0.0,0.0,3.1,174.0,0.4,0,0,0,90,90,180,180,90,90,790,15,0,0
281,39,0.0,0.0,0.0,3.1,174.1,0.4,0,0,0,90,90,180,180,90,90,790,14,0,0
282,39,0.0,0.0,0.0,3.1,174.3,0.4,0,0,0,90,90,180,180,90,90,790,9,0,0
283,39,0.0,0.0,0.0,3.2,174.4,0.0,0,0,0,90,90,180,180,90,90,790,15,0,0
284,39,0.0,0.0,0.0,3.2,174.3,0.0,0,0,0,90,90,180,180,90,90,790,16,0,0
285,39,0.0,0.0,0.0,3.3,174.5,0.0,0,0,0,90,90,180,180,90,90,790,15,0,0
286,39,0.0,0.0,0.0,3.4,174.4,0.0,0,0,0,90,90,180,180,90,90,789,15,0,0
287,39,0.0,0.0,0.0,3.6,174.3,0.3,0,0,0,90,90,180,180,90,90,790,13,0,0
288,39,0.0,0.0,0.0,3.4,174.2,0.3,0,0,0,90,90,180,180,90,90,790,15,0,0
289,39,0.0,0.0,0.0,3.3,174.3,0.3,0,0,0,90,90,180,180,90,90,790,13,0,0
290,42,0.0,0.0,0.0,3.3,174.0,0.3,0,0,0,90,90,180,180,90,90,790,12,0,0
291,42,0.0,0.0,0.0,3.4,173.8,0.3,0,0,0,90,90,180,180,90,90,789,17,0,0
292,42,0.0,0.0,0.0,3.3,174.0,0.3,0,0,0,90,90,180,180,90,90,790,11,0,0
293,42,0.0,0.0,0.0,3.3,173.9,0.3,0,0,0,90,90,180,180,90,90,789,20,0,0
294,42,0.0,0.0,0.0,3.3,173.9,0.3,0,0,56,90,90,180,180,90,90,790,14,0,0
295,42,0.0,0.0,0.0,3.1,174.4,0.3,0,0,56,90,90,180,180,90,90,790,14,0,0
296,42,0.0,0.0,0.0,3.1,174.3,0.3,0,0,56,90,90,180,180,90,90,790,15,0,0
297,42,0.0,0.0,0.0,3.4,173.9,0.3,0,0,0,90,90,180,180,90,90,790,14,0,0
298,42,0.0,0.0,0.0,3.2,174.2,0.3,0,0,0,90,90,180,180,90,90,790,15,0,0
299,42,0.0,0.0,0.0,3.3,173.8,0.3,0,0,5,90,90,180,180,90,90,790,14,0,0
300,42,0.0,0.0,0.0,3.5,173.4,0.3,0,0,5,90,90,180,180,90,90,790,15,0,0
301,40,0.0,0.0,0.0,3.4,173.3,0.3,0,0,5,90,90,180,180,90,90,790,15,0,0
302,40,0.0,0.0,0.0,3.6,173.3,0.3,0,0,5,90,90,180,180,90,90,790,15,0,0
303,40,0.0,0.0,0.0,3.7,174.4,0.4,0,0,0,90,90,180,180,90,90,789,18,0,0
304,40,0.0,0.0,0.0,3.8,174.6,0.4,0,0,0,90,90,180,180,90,90,790,7,0,0
305,42,0.0,0.0,0.0,3.7,174.3,0.4,0,0,0,90,90,180,180,90,90,790,13,0,0
306,42,0.0,0.0,0.0,3.7,173.8,0.3,0,0,5,90,90,180,180,90,90,789,19,0,0
307,42,0.0,0.0,0.0,4.1,174.0,0.3,0,0,5,90,90,180,180,90,90,789,18,0,0
308,42,0.0,0.0,0.0,3.8,173.9,0.3,0,0,0,90,90,180,180,90,90,790,11,0,0
309,42,0.0,0.0,0.0,3.6,173.8,0.3,0,0,0,90,90,180,180,90,90,789,23,0,0
310,40,0.0,0.0,0.0,3.9,174.2,0.3,0,0,5,90,90,180,180,90,90,790,15,0,0
311,40,0.0,0.0,0.0,3.8,174.3,0.3,0,0,5,90,90,180,180,90,90,790,16,0,0
312,40,0.0,0.0,0.0,3.8,174.1,0.3,0,0,5,90,90,180,180,90,90,789,14,0,0
313,41,0.0,0.0,0.0,3.7,174.0,0.3,0,0,5,90,90,180,180,90,90,790,6,0,0
314,41,0.0,0.0,0.0,3.5,173.8,0.4,0,0,6,90,90,180,180,90,90,790,17,0,0
315,41,0.0,0.0,0.0,3.4,174.1,0.4,0,0,6,90,90,180,180,90,90,789,25,0,0
316,41,0.0,0.0,0.0,3.9,174.1,0.4,0,0,6,90,90,180,180,90,90,789,27,0,0
317,41,0.0,0.0,0.0,4.2,174.1,0.0,0,0,0,90,90,180,180,90,90,790,16,0,0
318,41,0.0,0.0,0.0,4.0,173.8,0.0,0,0,0,90,90,180,180,90,90,790,11,0,0
319,41,0.0,0.0,0.0,3.8,174.2,0.0,0,0,0,90,90,180,180,90,90,790,16,0,0
320,41,0.0,0.0,0.0,3.7,174.5,0.0,0,0,0,90,90,180,180,90,90,790,12,0,0
321,41,0.0,0.0,0.0,3.8,174.3,0.4,0,0,6,90,90,180,180,90,90,790,15,0,0
322,42,0.0,0.0,0.0,3.7,174.2,0.4,0,0,6,90,90,180,180,90,90,791,5,0,0
323,42,0.0,0.0,0.0,3.5,174.2,0.4,0,0,6,90,90,180,180,90,90,790,11,0,0
324,42,0.0,0.0,0.0,3.5,174.3,0.0,0,0,0,90,90,180,180,90,90,790,12,0,0
325,42,0.0,0.0,0.0,3.4,174.0,0.0,0,0,0,90,90,180,180,90,90,789,25,0,0
326,40,0.0,0.0,0.0,3.5,174.2,0.0,0,0,0,90,90,180,180,90,90,790,10,0,0
327,40,0.0,0.0,0.0,3.7,174.0,0.0,0,0,0,90,90,180,180,90,90,790,12,0,0
328,40,0.0,0.0,0.0,3.6,174.3,0.4,0,0,5,90,90,180,180,90,90,789,19,0,0
329,41,0.0,0.0,0.0,3.4,174.4,0.4,0,0,5,90,90,180,180,90,90,790,16,0,0
330,41,0.0,0.0,0.0,3.8,173.9,0.4,0,0,5,90,90,180,180,90,90,790,12,0,0
331,41,0.0,0.0,0.0,3.5,174.1,0.4,0,0,5,90,90,180,180,90,90,789,24,0,0
332,41,0.0,0.0,0.0,3.4,174.4,0.4,0,0,5,90,90,180,180,90,90,790,16,0,0
333,41,0.0,0.0,0.0,3.2,174.4,0.0,0,0,0,90,90,180,180,90,90,789,22,0,0
334,40,0.0,0.0,0.0,3.4,174.5,0.0,0,0,0,90,90,180,180,90,90,789,20,0,0
335,40,0.0,0.0,0.0,2.9,174.5,0.4,0,0,5,90,90,180,180,90,90,790,14,0,0
336,40,0.0,0.0,0.0,3.2,174.3,0.4,0,0,5,90,90,180,180,90,90,790,14,0,0
337,41,0.0,0.0,0.0,3.4,174.5,0.4,0,0,5,90,90,180,180,90,90,790,14,0,0
338,41,0.0,0.0,0.0,3.3,174.9,0.4,0,0,5,90,90,180,180,90,90,790,7,0,0
339,41,0.0,0.0,0.0,3.3,175.2,0.0,0,0,0,90,90,180,180,90,90,790,13,0,0
340,40,0.0,0.0,0.0,3.2,175.0,0.0,0,0,0,90,90,180,180,90,90,790,10,0,0
341,40,0.0,0.0,0.0,3.4,175.0,0.0,0,0,0,90,90,180,180,90,90,790,19,0,0
342,42,0.0,0.0,0.0,3.6,175.2,0.5,0,0,5,90,90,180,180,90,90,790,14,0,0
343,42,0.0,0.0,0.0,3.4,175.1,0.5,0,0,5,90,90,180,180,90,90,789,18,0,0
344,40,0.0,0.0,0.0,3.3,175.3,0.5,0,0,5,90,90,180,180,90,90,790,11,0,0
345,40,0.0,0.0,0.0,3.8,175.1,0.5,0,0,5,90,90,180,180,90,90,789,26,0,0
346,40,0.0,0.0,0.0,3.7,175.1,0.8,0,0,0,90,90,180,180,90,90,790,13,0,0
347,40,0.0,0.0,0.0,3.7,175.2,0.8,0,0,0,90,90,180,180,90,90,790,13,0,0
348,41,0.0,0.0,0.0,3.9,175.0,0.8,0,0,0,90,90,180,180,90,90,789,15,0,0
349,41,0.0,0.0,0.0,4.0,174.8,0.8,0,0,0,90,90,180,180,90,90,789,17,0,0
350,41,0.0,0.0,0.0,3.7,175.2,0.8,0,0,0,90,90,180,180,90,90,790,16,0,0
351,41,0.0,0.0,0.0,3.5,175.4,0.5,0,0,56,90,90,180,180,90,90,790,13,0,0
352,41,0.0,0.0,0.0,3.4,175.1,0.5,0,0,56,90,90,180,180,90,90,790,11,0,0
353,41,0.0,0.0,0.0,3.7,175.4,0.5,0,0,51,90,90,180,180,90,90,789,17,0,0
354,41,0.0,0.0,0.0,3.8,175.3,0.5,0,0,51,90,90,180,180,90,90,790,15,0,0
355,41,0.0,0.0,0.0,3.6,174.8,0.5,0,0,51,90,90,180,180,90,90,790,16,0,0
356,41,0.0,0.0,0.0,2.5,174.5,0.5,0,0,51,90,90,180,180,90,90,790,13,0,0
357,1072,0.0,0.0,0.0,2.4,174.2,0.5,0,0,51,90,90,180,180,90,90,790,7,0,0
358,1072,0.0,0.0,0.0,3.0,174.5,0.5,0,0,51,90,90,180,180,90,90,790,14,0,0
359,1072,0.0,0.0,0.0,3.2,174.7,0.5,0,0,51,90,90,180,180,90,90,790,16,0,0
360,1072,0.0,0.0,0.0,3.4,174.8,0.5,0,0,56,90,90,180,180,90,90,790,15,0,0
361,1072,0.0,0.0,0.0,3.2,174.4,0.5,0,0,56,90,90,180,180,90,90,790,8,0,0
362,1072,0.0,0.0,0.0,3.0,174.1,0.5,0,0,1,90,90,180,180,90,90,789,17,0,0
363,1072,0.0,0.0,0.0,3.0,174.6,0.5,0,0,1,90,90,180,180,90,90,789,13,0,0
364,1072,0.0,0.0,0.0,3.2,174.4,0.5,0,0,1,90,90,180,180,90,90,790,14,0,0
365,1072,0.0,0.0,0.0,3.1,174.3,0.5,0,0,1,90,90,180,180,90,90,790,14,0,0
366,1072,0.0,0.0,0.0,3.2,174.5,0.5,0,0,5,90,90,180,180,90,90,790,12,0,0
367,1072,0.0,0.0,0.0,3.5,174.7,0.5,0,0,5,90,90,180,180,90,90,790,16,0,0
368,1072,0.0,0.0,0.0,3.3,174.7,0.5,0,0,5,90,90,180,180,90,90,790,12,0,0
369,1072,0.0,0.0,0.0,3.2,174.8,0.5,0,0,5,90,90,180,180,90,90,790,15,0,0
370,1072,0.0,0.0,0.0,3.0,174.7,0.5,0,0,5,90,90,180,180,90,90,789,16,0,0
371,1072,0.0,0.0,0.0,3.1,174.5,0.5,0,0,5,90,90,180,180,90,90,790,15,0,0
372,1072,0.0,0.0,0.0,3.1,174.6,0.5,0,0,5,90,90,180,180,90,90,790,15,0,0
373,1072,0.0,0.0,0.0,3.0,174.5,0.5,0,0,5,90,90,180,180,90,90,790,14,0,0
374,1072,0.0,0.0,0.0,2.9,174.5,0.5,0,0,5,90,90,180,180,90,90,790,13,0,0
375,1072,0.0,0.0,0.0,3.1,174.4,0.5,0,0,5,90,90,180,180,90,90,790,12,0,0
376,1072,0.0,0.0,0.0,3.2,174.4,0.5,0,0,5,90,90,180,180,90,90,789,16,0,0
377,1072,0.0,0.0,0.0,3.1,174.5,0.0,0,0,0,90,90,180,180,90,90,789,15,0,0
378,1072,0.0,0.0,0.0,3.1,174.3,0.0,0,0,0,90,90,180,180,90,90,790,15,0,0
379,1072,0.0,0.0,0.0,2.9,174.3,0.0,0,0,0,90,90,180,180,90,90,790,11,0,0
380,1072,0.0,0.0,0.0,2.9,174.3,0.5,0,0,5,90,90,180,180,90,90,790,13,0,0
381,1072,0.0,0.0,0.0,3.0,174.3,0.5,0,0,5,90,90,180,180,90,90,790,16,0,0
382,1072,0.0,0.0,0.0,3.0,174.3,0.5,0,0,5,90,90,180,180,90,90,789,14,0,0
383,1072,0.0,0.0,0.0,3.0,174.2,0.5,0,0,5,90,90,180,180,90,90,790,15,0,0
384,1072,0.0,0.0,0.0,3.0,174.2,0.0,0,0,0,90,90,180,180,90,90,789,16,0,0
385,1072,0.0,0.0,0.0,3.1,174.3,0.0,0,0,0,90,90,180,180,90,90,790,14,0,0
386,1072,0.0,0.0,0.0,3.1,174.3,0.0,0,0,0,90,90,180,180,90,90,790,14,0,0
387,1072,0.0,0.0,0.0,3.1,174.3,0.0,0,0,0,90,90,180,180,90,90,790,13,0,0
388,1072,0.0,0.0,0.0,3.0,174.4,0.0,0,0,0,90,90,180,180,90,90,788,14,0,0
389,1072,0.0,0.0,0.0,3.2,174.4,0.6,0,0,5,90,90,180,180,90,90,790,14,0,0
390,1072,0.0,0.0,0.0,3.1,174.4,0.6,0,0,5,90,90,180,180,90,90,790,12,0,0
391,1072,0.0,0.0,0.0,3.0,174.4,0.0,0,0,0,90,90,180,180,90,90,790,12,0,0
392,1072,0.0,0.0,0.0,3.0,174.6,0.0,0,0,0,90,90,180,180,90,90,790,14,0,0
393,1072,0.0,0.0,0.0,3.2,174.7,0.0,0,0,0,90,90,180,180,90,90,789,15,0,0
394,1072,0.0,0.0,0.0,3.0,174.6,0.0,0,0,0,90,90,180,180,90,90,790,16,0,0
395,1072,0.0,0.0,0.0,3.2,174.4,0.6,0,0,5,90,90,180,180,90,90,789,19,0,0
396,1072,0.0,0.0,0.0,3.1,174.1,0.6,0,0,5,90,90,180,180,90,90,790,15,0,0
397,1072,0.0,0.0,0.0,3.0,174.2,0.6,0,0,5,90,90,180,180,90,90,789,15,0,0
398,1072,0.0,0.0,0.0,3.2,174.5,0.0,0,0,0,90,90,180,180,90,90,790,13,0,0
399,415,0.0,0.0,0.0,3.1,174.6,0.0,0,0,0,90,90,180,180,90,90,789,14,0,0
400,415,0.0,0.0,0.0,3.2,174.4,0.0,0,0,0,90,90,180,180,90,90,790,11,0,0
401,415,0.0,0.0,0.0,3.1,174.2,0.0,0,0,0,90,90,180,180,90,90,790,13,0,0
402,415,0.0,0.0,0.0,3.2,174.3,0.5,0,0,0,90,90,180,180,90,90,789,16,0,0
403,415,0.0,0.0,0.0,3.0,174.2,0.5,0,0,0,90,90,180,180,90,90,790,13,0,0
404,415,0.0,0.0,0.0,2.9,174.4,0.5,0,0,0,90,90,180,180,90,90,790,15,0,0
405,415,0.0,0.0,0.0,3.4,174.3,0.5,0,0,0,90,90,180,180,90,90,790,16,0,0
406,415,0.0,0.0,0.0,3.2,174.4,0.5,0,0,0,90,90,180,180,90,90,789,16,0,0
407,417,0.0,0.0,0.0,3.0,173.8,0.0,0,0,0,90,90,180,180,90,90,789,22,0,0
408,417,0.0,0.0,0.0,2.9,174.3,0.0,0,0,0,90,90,180,180,90,90,790,14,0,0
409,417,0.0,0.0,0.0,3.0,174.6,0.4,0,0,0,90,90,180,180,90,90,789,16,0,0
410,417,0.0,0.0,0.0,3.1,174.2,0.4,0,0,0,90,90,180,180,90,90,790,13,0,0
411,417,0.0,0.0,0.0,3.1,174.1,0.4,0,0,0,90,90,180,180,90,90,789,15,0,0
412,417,0.0,0.0,0.0,3.2,174.2,0.4,0,0,0,90,90,180,180,90,90,790,15,0,0
413,417,0.0,0.0,0.0,3.0,174.2,0.0,0,0,0,90,90,180,180,90,90,790,14,0,0
414,1072,0.0,0.0,0.0,2.8,174.3,0.0,0,0,0,90,90,180,180,90,90,790,13,0,0
415,1072,0.0,0.0,0.0,2.9,174.5,0.0,0,0,0,90,90,180,180,90,90,789,13,0,0
416,1072,0.0,0.0,0.0,3.0,174.6,0.0,0,0,0,90,90,180,180,90,90,790,14,0,0
417,1072,0.0,0.0,0.0,3.1,174.5,0.0,0,0,0,90,90,180,180,90,90,790,13,0,0
418,1072,0.0,0.0,0.0,3.2,174.4,0.0,0,0,0,90,90,180,180,90,90,790,14,0,0
419,417,0.0,0.0,0.0,3.1,174.5,0.0,0,0,0,90,90,180,180,90,90,790,13,0,0
420,417,0.0,0.0,0.0,3.1,174.3,0.0,0,0,0,90,90,180,180,90,90,790,11,0,0
421,417,0.0,0.0,0.0,2.9,174.2,0.0,0,0,0,90,90,180,180,90,90,790,14,0,0
422,417,0.0,0.0,0.0,2.8,174.1,0.0,0,0,0,90,90,180,180,90,90,790,13,0,0
423,417,0.0,0.0,0.0,3.0,174.0,0.0,0,0,0,90,90,180,180,90,90,790,12,0,0
424,1072,0.0,0.0,0.0,3.0,174.1,0.0,0,0,0,90,90,180,180,90,90,790,13,0,0
425,1072,0.0,0.0,0.0,3.1,173.9,0.0,0,0,0,90,90,180,180,90,90,790,14,0,0
426,1072,0.0,0.0,0.0,3.2,174.2,0.0,0,0,0,90,90,180,180,90,90,790,12,0,0
427,1072,0.0,0.0,0.0,3.0,174.3,0.0,0,0,0,90,90,180,180,90,90,790,13,0,0
428,1072,0.0,0.0,0.0,3.0,174.3,0.0,0,0,0,90,90,180,180,90,90,790,11,0,0
429,1072,0.0,0.0,0.0,3.1,174.1,0.0,0,0,0,90,90,180,180,90,90,790,15,0,0
430,1072,0.0,0.0,0.0,3.1,174.1,0.0,0,0,0,90,90,180,180,90,90,789,13,0,0
431,417,0.0,0.0,0.0,2.8,174.3,0.0,0,0,0,90,90,180,180,90,90,789,12,0,0
432,417,0.0,0.0,0.0,2.7,174.5,0.0,0,0,0,90,90,180,180,90,90,790,12,0,0
433,417,0.0,0.0,0.0,3.0,174.5,0.0,0,0,0,90,90,180,180,90,90,790,11,0,0
434,417,0.0,0.0,0.0,3.1,174.5,0.0,0,0,0,90,90,180,180,90,90,789,12,0,0
435,417,0.0,0.0,0.0,2.8,174.2,0.0,0,0,0,90,90,180,180,90,90,790,12,0,0
436,417,0.0,0.0,0.0,2.9,174.2,0.0,0,0,0,90,90,180,180,90,90,790,13,0,0
437,417,0.0,0.0,0.0,3.1,174.3,0.0,0,0,0,90,90,180,180,90,90,790,15,0,0
438,417,0.0,0.0,0.0,3.1,174.6,0.0,0,0,0,90,90,180,180,90,90,790,13,0,0
439,417,0.0,0.0,0.0,3.1,174.5,0.0,0,0,0,90,90,180,180,90,90,790,14,0,0
440,417,0.0,0.0,0.0,3.1,174.4,0.0,0,0,0,90,90,180,180,90,90,790,16,0,0
441,417,0.0,0.0,0.0,3.1,174.5,0.0,0,0,0,90,90,180,180,90,90,790,15,0,0
442,417,0.0,0.0,0.0,3.1,174.6,0.0,0,0,0,90,90,180,180,90,90,790,15,0,0
443,417,0.0,0.0,0.0,3.2,174.7,0.0,0,0,0,90,90,180,180,90,90,789,15,0,0
444,417,0.0,0.0,0.0,3.0,174.5,0.0,0,0,0,90,90,180,180,90,90,790,15,0,0
445,417,0.0,0.0,0.0,3.0,174.1,0.5,0,0,0,90,90,180,180,90,90,790,12,0,0
446,417,0.0,0.0,0.0,2.9,174.4,0.5,0,0,0,90,90,180,180,90,90,790,13,0,0
447,417,0.0,0.0,0.0,3.0,174.5,0.5,0,0,0,90,90,180,180,90,90,790,14,0,0
448,417,0.0,0.0,0.0,2.8,174.5,0.5,0,0,0,90,90,180,180,90,90,790,9,0,0
449,417,0.0,0.0,0.0,3.1,174.7,0.0,0,0,0,90,90,180,180,90,90,790,12,0,0
450,416,0.0,0.0,0.0,3.0,175.0,0.0,0,0,0,90,90,180,180,90,90,789,15,0,0
451,416,0.0,0.0,0.0,3.1,174.9,0.0,0,0,0,90,90,180,180,90,90,790,11,0,0
452,416,0.0,0.0,0.0,3.4,174.6,0.5,0,0,0,90,90,180,180,90,90,790,16,0,0
453,416,0.0,0.0,0.0,3.3,174.4,0.5,0,0,0,90,90,180,180,90,90,790,14,0,0
454,416,0.0,0.0,0.0,3.1,174.5,0.5,0,0,0,90,90,180,180,90,90,790,17,0,0
455,416,0.0,0.0,0.0,3.3,174.9,0.5,0,0,0,90,90,180,180,90,90,790,14,0,0
456,416,0.0,0.0,0.0,2.8,175.0,0.0,0,0,0,90,90,180,180,90,90,790,14,0,0
457,416,0.0,0.0,0.0,3.0,174.8,0.0,0,0,0,90,90,180,180,90,90,789,14,0,0
458,40,0.0,0.0,0.0,3.2,174.6,0.0,0,0,0,90,90,180,180,90,90,790,13,0,0
459,40,0.0,0.0,0.0,3.0,174.3,0.0,0,0,0,90,90,180,180,90,90,790,12,0,0
460,40,0.0,0.0,0.0,3.0,174.1,0.0,0,0,0,90,90,180,180,90,90,790,12,0,0
461,40,0.0,0.0,0.0,3.1,174.8,0.0,0,0,0,90,90,180,180,90,90,789,12,0,0
462,40,0.0,0.0,0.0,3.1,174.8,0.0,0,0,0,90,90,180,180,90,90,790,17,0,0
463,40,0.0,0.0,0.0,2.9,174.5,0.0,0,0,0,90,90,180,180,90,90,790,7,0,0
464,40,0.0,0.0,0.0,3.3,174.2,0.0,0,0,0,90,90,180,180,90,90,789,16,0,0
465,40,0.0,0.0,0.0,2.8,174.6,0.0,0,0,0,90,90,180,180,90,90,789,12,0,0
466,416,0.0,0.0,0.0,3.2,175.1,0.0,0,0,0,90,90,180,180,90,90,790,12,0,0
467,416,0.0,0.0,0.0,3.5,174.9,0.3,0,5,6763,90,90,180,180,90,90,790,11,0,0
468,416,0.0,0.0,0.0,3.3,174.4,0.3,0,5,6763,90,90,180,180,90,90,789,12,0,0
469,416,0.0,0.0,0.0,2.9,174.1,0.3,0,5,6763,90,90,180,180,90,90,790,16,0,0
470,416,0.0,0.0,0.0,3.1,174.2,0.0,0,0,0,90,90,180,180,90,90,790,15,0,0
471,416,0.0,0.0,0.0,3.1,174.2,0.0,0,0,0,90,90,180,180,90,90,789,13,0,0
472,416,0.0,0.0,0.0,3.1,174.3,0.3,0,567,4987,90,90,180,180,90,90,790,14,0,0
473,416,0.0,0.0,0.0,3.0,174.1,0.3,0,567,4987,90,90,180,180,90,90,790,13,0,0
474,415,0.0,0.0,0.0,3.1,174.2,0.3,0,567,4987,90,90,180,180,90,90,790,13,0,0
475,415,0.0,0.0,0.0,3.2,174.2,0.3,0,567,4987,90,90,180,180,90,90,789,18,0,0
476,415,0.0,0.0,0.0,2.9,174.4,0.3,0,567,4987,90,90,180,180,90,90,790,15,0,0
477,415,0.0,0.0,0.0,2.9,174.3,0.0,0,0,0,90,90,180,180,90,90,790,14,0,0
478,415,0.0,0.0,0.0,2.9,174.2,0.0,0,0,0,90,90,180,180,90,90,789,11,0,0
479,415,0.0,0.0,0.0,3.0,174.3,0.3,0,567,5230,90,90,180,180,90,90,790,12,0,0
480,415,0.0,0.0,0.0,2.9,174.3,0.3,0,567,5230,90,90,180,180,90,90,790,13,0,0
481,415,0.0,0.0,0.0,3.0,174.4,0.3,0,567,5230,90,90,180,180,90,90,790,13,0,0
482,415,0.0,0.0,0.0,3.1,174.3,0.3,0,567,5230,90,90,180,180,90,90,789,13,0,0
483,1072,0.0,0.0,0.0,3.1,174.3,0.0,0,0,0,90,90,180,180,90,90,790,13,0,0
484,1072,0.0,0.0,0.0,3.0,174.3,0.0,0,0,0,90,90,180,180,90,90,790,15,0,0
485,1072,0.0,0.0,0.0,3.0,174.3,0.0,0,0,0,90,90,180,180,90,90,789,15,0,0
486,1072,0.0,0.0,0.0,3.1,174.4,0.3,0,567,4675,90,90,180,180,90,90,790,15,0,0
487,1072,0.0,0.0,0.0,3.1,174.4,0.3,0,567,4675,90,90,180,180,90,90,790,14,0,0
488,1072,0.0,0.0,0.0,3.1,174.3,0.3,0,567,4675,90,90,180,180,90,90,790,14,0,0
489,1072,0.0,0.0,0.0,3.1,174.3,0.3,0,567,4675,90,90,180,180,90,90,790,10,0,0
490,1072,0.0,0.0,0.0,3.2,174.4,0.3,0,0,0,90,90,180,180,90,90,790,13,0,0
491,1072,0.0,0.0,0.0,3.1,174.4,0.3,0,0,0,90,90,180,180,90,90,790,11,0,0
492,1072,0.0,0.0,0.0,3.0,174.4,0.3,0,567,5172,90,90,180,180,90,90,789,16,0,0
493,1072,0.0,0.0,0.0,3.1,174.4,0.3,0,567,5172,90,90,180,180,90,90,789,19,0,0
494,1072,0.0,0.0,0.0,3.1,174.4,0.3,0,567,5172,90,90,180,180,90,90,789,15,0,0
495,1072,0.0,0.0,0.0,3.0,174.6,0.3,0,0,0,90,90,180,180,90,90,789,15,0,0
496,1072,0.0,0.0,0.0,3.0,174.6,0.3,0,0,0,90,90,180,180,90,90,789,13,0,0
497,1072,0.0,0.0,0.0,3.0,174.5,0.3,0,567,5085,90,90,180,180,90,90,789,15,0,0
498,1072,0.0,0.0,0.0,3.0,174.5,0.3,0,567,5085,90,90,180,180,90,90,789,15,0,0
499,415,0.0,0.0,0.0,3.0,174.4,0.3,0,567,5085,90,90,180,180,90,90,790,16,0,0
500,415,0.0,0.0,0.0,3.0,174.5,0.3,0,567,5085,90,90,180,180,90,90,789,16,0,0
501,415,0.0,0.0,0.0,3.1,174.5,0.3,0,567,5085,90,90,180,180,90,90,789,18,0,0
502,414,0.0,0.0,0.0,3.0,174.7,0.3,0,567,4931,90,90,180,180,90,90,790,14,0,0
503,414,0.0,0.0,0.0,3.0,174.6,0.3,0,567,4931,90,90,180,180,90,90,790,14,0,0
504,414,0.0,0.0,0.0,3.1,174.4,0.3,0,567,4931,90,90,180,180,90,90,790,15,0,0
505,31,0.0,0.0,0.0,3.0,174.4,0.3,0,567,4931,90,90,180,180,90,90,789,17,0,0
506,31,0.0,0.0,0.0,3.0,174.5,0.0,0,0,0,90,90,180,180,90,90,790,14,0,0
507,31,0.0,0.0,0.0,3.1,174.5,0.0,0,0,0,90,90,180,180,90,90,789,14,0,0
508,31,0.0,0.0,0.0,3.1,174.4,0.3,0,567,4888,90,90,180,180,90,90,790,5,0,0
509,415,0.0,0.0,0.0,3.1,174.5,0.3,0,567,4888,90,90,180,180,90,90,789,15,0,0
510,415,0.0,0.0,0.0,3.0,174.6,0.3,0,567,4888,90,90,180,180,90,90,790,15,0,0
511,415,0.0,0.0,0.0,3.2,174.2,0.3,0,567,4888,90,90,180,180,90,90,789,14,0,0
512,415,0.0,0.0,0.0,3.1,174.3,0.3,0,567,4888,90,90,180,180,90,90,790,12,0,0
513,31,0.0,0.0,0.0,3.2,174.3,0.3,0,567,4764,90,90,180,180,90,90,790,15,0,0
514,31,0.0,0.0,0.0,3.0,174.2,0.3,0,567,4764,90,90,180,180,90,90,789,14,0,0
515,31,0.0,0.0,0.0,3.0,174.3,0.3,0,567,4764,90,90,180,180,90,90,790,12,0,0
516,31,0.0,0.0,0.0,3.1,174.3,0.3,0,567,4764,90,90,180,180,90,90,790,13,0,0
517,31,0.0,0.0,0.0,3.0,174.3,0.3,0,567,4764,90,90,180,180,90,90,789,15,0,0
518,31,0.0,0.0,0.0,3.1,174.4,0.3,0,567,4671,90,90,180,180,90,90,790,16,0,0
519,31,0.0,0.0,0.0,3.1,174.3,0.3,0,567,4671,90,90,180,180,90,90,790,15,0,0
520,31,0.0,0.0,0.0,3.1,174.2,0.3,0,567,4671,90,90,180,180,90,90,789,15,0,0
521,31,0.0,0.0,0.0,3.1,174.1,0.3,0,567,4671,90,90,180,180,90,90,790,16,0,0
522,32,0.0,0.0,0.0,3.0,174.2,0.3,0,567,4671,90,90,180,180,90,90,789,14,0,0
523,32,0.0,0.0,0.0,2.9,174.2,0.3,0,567,4671,90,90,180,180,90,90,789,17,0,0
524,32,0.0,0.0,0.0,3.0,174.2,0.3,0,567,5150,90,90,180,180,90,90,789,16,0,0
525,32,0.0,0.0,0.0,3.1,174.3,0.3,0,567,5150,90,90,180,180,90,90,789,15,0,0
526,32,0.0,0.0,0.0,3.0,174.4,0.3,0,567,5150,90,90,180,180,90,90,789,17,0,0
527,32,0.0,0.0,0.0,3.1,174.3,0.3,0,567,5150,90,90,180,180,90,90,790,15,0,0
528,1072,0.0,0.0,0.0,3.1,174.1,0.3,0,567,5150,90,90,180,180,90,90,790,16,0,0
529,1072,0.0,0.0,0.0,3.0,174.2,0.3,0,567,5057,90,90,180,180,90,90,789,16,0,0
530,31,0.0,0.0,0.0,3.0,174.2,0.3,0,567,5057,90,90,180,180,90,90,789,12,0,0
531,31,0.0,0.0,0.0,3.1,174.3,0.0,0,0,0,90,90,180,180,90,90,790,14,0,0
532,31,0.0,0.0,0.0,3.1,174.3,0.0,0,0,0,90,90,180,180,90,90,790,13,0,0
533,31,0.0,0.0,0.0,3.1,174.2,0.0,0,0,0,90,90,180,180,90,90,790,14,0,0
534,31,0.0,0.0,0.0,3.1,174.3,0.0,0,0,0,90,90,180,180,90,90,790,13,0,0
535,31,0.0,0.0,0.0,3.0,174.3,0.0,0,0,0,90,90,180,180,90,90,790,14,0,0
536,31,0.0,0.0,0.0,2.9,174.2,0.0,0,0,0,90,90,180,180,90,90,789,13,0,0
537,31,0.0,0.0,0.0,3.0,174.2,0.0,0,0,0,90,90,180,180,90,90,790,12,0,0
538,31,0.0,0.0,0.0,2.9,174.3,0.0,0,0,0,90,90,180,180,90,90,790,14,0,0
539,31,0.0,0.0,0.0,3.0,174.2,0.0,0,0,0,90,90,180,180,90,90,790,13,0,0
540,31,0.0,0.0,0.0,3.0,174.3,0.3,0,567,4943,90,90,180,180,90,90,790,13,0,0
541,31,0.0,0.0,0.0,3.0,174.2,0.3,0,567,4943,90,90,180,180,90,90,789,15,0,0
542,31,0.0,0.0,0.0,3.1,174.2,0.3,0,567,4943,90,90,180,180,90,90,790,13,0,0
543,31,0.0,0.0,0.0,3.0,174.2,0.7,0,0,0,90,90,180,180,90,90,789,13,0,0
544,31,0.0,0.0,0.0,3.0,174.1,0.7,0,0,0,90,90,180,180,90,90,790,14,0,0
545,1072,0.0,0.0,0.0,3.1,174.1,0.7,0,0,0,90,90,180,180,90,90,789,13,0,0
546,1072,0.0,0.0,0.0,3.0,174.3,0.7,0,0,0,90,90,180,180,90,90,789,14,0,0
547,1072,0.0,0.0,0.0,3.0,174.1,0.3,0,567,4219,90,90,180,180,90,90,790,15,0,0
548,1072,0.0,0.0,0.0,3.1,174.1,0.3,0,567,4219,90,90,180,180,90,90,790,14,0,0
549,1072,0.0,0.0,0.0,3.0,174.2,0.0,0,0,0,90,90,180,180,90,90,789,16,0,0
550,1072,0.0,0.0,0.0,2.9,174.1,0.0,0,0,0,90,90,180,180,90,90,789,16,0,0
551,32,0.0,0.0,0.0,3.0,174.2,0.0,0,0,0,90,90,180,180,90,90,789,15,0,0
552,32,0.0,0.0,0.0,3.3,174.2,0.2,0,567,5569,90,90,180,180,90,90,789,16,0,0
553,32,0.0,0.0,0.0,3.3,174.1,0.2,0,567,5569,90,90,180,180,90,90,789,15,0,0
554,32,0.0,0.0,0.0,2.9,174.2,0.2,0,567,5569,90,90,180,180,90,90,789,15,0,0
555,32,0.0,0.0,0.0,3.0,174.3,0.2,0,567,5569,90,90,180,180,90,90,789,13,0,0
556,32,0.0,0.0,0.0,2.9,174.3,0.0,0,0,0,90,90,180,180,90,90,790,14,0,0
557,32,0.0,0.0,0.0,3.0,174.3,0.0,0,0,0,90,90,180,180,90,90,789,14,0,0
558,32,0.0,0.0,0.0,3.0,174.2,0.2,0,567,5234,90,90,180,180,90,90,789,16,0,0
559,32,0.0,0.0,0.0,3.0,174.1,0.2,0,567,5234,90,90,180,180,90,90,790,14,0,0
560,32,0.0,0.0,0.0,3.1,174.2,0.2,0,567,5234,90,90,180,180,90,90,790,15,0,0
561,32,0.0,0.0,0.0,2.9,174.2,0.2,0,0,56,90,90,180,180,90,90,789,16,0,0
562,32,0.0,0.0,0.0,3.0,174.2,0.2,0,0,56,90,90,180,180,90,90,789,15,0,0
563,32,0.0,0.0,0.0,3.1,174.1,0.2,0,567,5026,90,90,180,180,90,90,789,17,0,0
564,32,0.0,0.0,0.0,2.9,174.3,0.2,0,567,5026,90,90,180,180,90,90,789,16,0,0
565,32,0.0,0.0,0.0,3.0,174.2,0.2,0,567,5026,90,90,180,180,90,90,790,13,0,0
566,32,0.0,0.0,0.0,3.0,174.2,0.2,0,567,5026,90,90,180,180,90,90,790,14,0,0
567,32,0.0,0.0,0.0,3.1,174.1,0.2,0,0,56,90,90,180,180,90,90,789,16,0,0
568,32,0.0,0.0,0.0,3.1,174.1,0.2,0,0,56,90,90,180,180,90,90,789,16,0,0
569,32,0.0,0.0,0.0,3.2,174.1,0.2,0,0,56,90,90,180,180,90,90,789,17,0,0
570,32,0.0,0.0,0.0,3.2,174.1,25.7,0,0,0,90,90,180,180,90,90,789,15,0,0
571,32,0.0,0.0,0.0,3.0,174.4,25.7,0,0,0,90,90,180,180,90,90,789,16,0,0
572,32,0.0,0.0,0.0,3.0,174.2,25.7,0,0,0,90,90,180,180,90,90,789,17,0,0
573,32,0.0,0.0,0.0,3.0,174.3,25.7,0,0,0,90,90,180,180,90,90,790,6,0,0
574,32,0.0,0.0,0.0,3.0,174.4,0.0,0,0,0,90,90,180,180,90,90,789,16,0,0
575,32,0.0,0.0,0.0,2.9,174.3,0.0,0,0,0,90,90,180,180,90,90,789,16,0,0
576,32,0.0,0.0,0.0,3.0,174.3,0.2,0,567,4684,90,90,180,180,90,90,789,15,0,0
577,32,0.0,0.0,0.0,3.0,174.2,0.2,0,567,4684,90,90,180,180,90,90,789,13,0,0
578,32,0.0,0.0,0.0,3.0,174.3,0.2,0,567,4684,90,90,180,180,90,90,790,11,0,0
579,32,0.0,0.0,0.0,3.1,174.4,0.2,0,567,4684,90,90,180,180,90,90,790,14,0,0
580,32,0.0,0.0,0.0,3.1,174.4,0.2,0,567,4684,90,90,180,180,90,90,789,15,0,0
581,31,0.0,0.0,0.0,3.0,174.3,0.0,0,0,0,90,90,180,180,90,90,789,17,0,0
582,31,0.0,0.0,0.0,3.0,173.9,0.0,0,0,0,90,90,180,180,90,90,789,15,0,0
583,31,0.0,0.0,0.0,2.9,174.2,0.2,0,567,4721,90,90,180,180,90,90,789,16,0,0
584,31,0.0,0.0,0.0,2.8,174.0,0.2,0,567,4721,90,90,180,180,90,90,789,14,0,0
585,31,0.0,0.0,0.0,2.8,174.1,0.2,0,567,4721,90,90,180,180,90,90,790,13,0,0
586,31,0.0,0.0,0.0,3.1,174.3,0.2,0,567,4721,90,90,180,180,90,90,789,13,0,0
587,32,0.0,0.0,0.0,3.2,174.3,0.2,0,567,4721,90,90,180,180,90,90,789,15,0,0
588,32,0.0,0.0,0.0,3.2,174.0,0.2,0,0,0,90,90,180,180,90,90,789,20,0,0
589,32,0.0,0.0,0.0,3.2,173.7,0.2,0,0,0,90,90,180,180,90,90,789,18,0,0
590,32,0.0,0.0,0.0,3.2,173.8,0.2,0,567,5087,90,90,180,180,90,90,789,13,0,0
591,31,0.0,0.0,0.0,2.9,173.8,0.2,0,567,5087,90,90,180,180,90,90,789,6,0,0
592,31,0.0,0.0,0.0,3.0,173.7,0.2,0,567,5087,90,90,180,180,90,90,789,14,0,0
593,31,0.0,0.0,0.0,3.0,174.0,0.2,0,567,5087,90,90,180,180,90,90,789,14,0,0
594,31,0.0,0.0,0.0,3.0,174.0,0.2,0,567,5087,90,90,180,180,90,90,789,16,0,0
595,32,0.0,0.0,0.0,3.0,174.0,0.2,0,567,5087,90,90,180,180,90,90,789,17,0,0
596,32,0.0,0.0,0.0,3.0,173.9,0.2,0,567,5087,90,90,180,180,90,90,789,15,0,0
597,32,0.0,0.0,0.0,3.1,173.9,0.2,0,567,4001,90,90,180,180,90,90,790,14,0,0
598,31,0.0,0.0,0.0,3.0,173.7,0.2,0,567,4001,90,90,180,180,90,90,789,14,0,0
599,31,0.0,0.0,0.0,3.1,173.8,0.2,0,567,4001,90,90,180,180,90,90,789,16,0,0
600,32,0.0,0.0,0.0,3.1,173.8,0.2,0,567,4001,90,90,180,180,90,90,789,16,0,0
601,32,0.0,0.0,0.0,3.0,173.8,0.0,0,0,0,90,90,180,180,90,90,789,15,0,0
602,32,0.0,0.0,0.0,3.0,174.0,0.0,0,0,0,90,90,180,180,90,90,789,16,0,0
603,32,0.0,0.0,0.0,2.9,173.9,0.0,0,0,0,90,90,180,180,90,90,789,15,0,0
604,32,0.0,0.0,0.0,2.9,173.9,0.2,0,567,4510,90,90,180,180,90,90,789,15,0,0
605,32,0.0,0.0,0.0,3.0,173.7,0.2,0,567,4510,90,90,180,180,90,90,789,17,0,0
606,32,0.0,0.0,0.0,3.1,173.9,0.2,0,567,4510,90,90,180,180,90,90,789,17,0,0
607,32,0.0,0.0,0.0,3.0,174.0,0.2,0,567,4510,90,90,180,180,90,90,789,15,0,0
608,32,0.0,0.0,0.0,3.1,174.1,0.2,0,567,4510,90,90,180,180,90,90,789,16,0,0
609,32,0.0,0.0,0.0,3.0,174.1,0.2,0,567,4510,90,90,180,180,90,90,790,16,0,0
610,32,0.0,0.0,0.0,3.0,174.3,0.2,0,567,4510,90,90,180,180,90,90,789,16,0,0
611,32,0.0,0.0,0.0,3.0,174.2,0.2,0,567,4924,90,90,180,180,90,90,789,16,0,0
612,32,0.0,0.0,0.0,2.9,174.4,0.2,0,567,4924,90,90,180,180,90,90,789,16,0,0
613,31,0.0,0.0,0.0,2.8,174.5,0.2,0,567,4924,90,90,180,180,90,90,789,15,0,0
614,31,0.0,0.0,0.0,2.9,174.7,0.2,0,567,4924,90,90,180,180,90,90,789,14,0,0
615,31,0.0,0.0,0.0,3.0,174.2,0.2,0,567,4924,90,90,180,180,90,90,789,12,0,0
616,31,0.0,0.0,0.0,3.1,174.0,0.2,0,567,4924,90,90,180,180,90,90,790,14,0,0
617,32,0.0,0.0,0.0,3.1,174.4,0.2,0,567,4924,90,90,180,180,90,90,789,16,0,0
618,32,0.0,0.0,0.0,3.0,174.1,0.2,0,567,4924,90,90,180,180,90,90,790,14,0,0
619,32,0.0,0.0,0.0,3.1,174.3,0.2,0,567,4924,90,90,180,180,90,90,789,15,0,0
620,32,0.0,0.0,0.0,3.0,174.2,20.7,0,0,0,90,90,180,180,90,90,789,15,0,0
621,32,0.0,0.0,0.0,3.0,174.2,20.7,0,0,0,90,90,180,180,90,90,789,15,0,0
622,31,0.0,0.0,0.0,3.0,174.3,20.7,0,0,0,90,90,180,180,90,90,789,18,0,0
623,31,0.0,0.0,0.0,3.1,174.2,20.7,0,0,0,90,90,180,180,90,90,789,17,0,0
624,31,0.0,0.0,0.0,3.2,174.1,0.2,0,567,4866,90,90,180,180,90,90,790,15,0,0
625,31,0.0,0.0,0.0,3.1,174.1,0.2,0,567,4866,90,90,180,180,90,90,789,15,0,0
626,31,0.0,0.0,0.0,3.1,174.2,0.2,0,567,4866,90,90,180,180,90,90,789,13,0,0
627,31,0.0,0.0,0.0,3.1,174.3,0.2,0,567,4866,90,90,180,180,90,90,789,14,0,0
628,31,0.0,0.0,0.0,3.0,174.1,0.2,0,567,4866,90,90,180,180,90,90,789,14,0,0
629,31,0.0,0.0,0.0,3.0,174.0,0.2,0,567,4866,90,90,180,180,90,90,789,16,0,0
630,31,0.0,0.0,0.0,3.0,174.2,0.2,0,567,4866,90,90,180,180,90,90,789,14,0,0
631,31,0.0,0.0,0.0,3.1,174.2,0.2,0,567,4638,90,90,180,180,90,90,790,15,0,0
632,31,0.0,0.0,0.0,3.1,174.1,0.2,0,567,4638,90,90,180,180,90,90,789,15,0,0
633,31,0.0,0.0,0.0,3.0,174.1,0.2,0,567,4638,90,90,180,180,90,90,789,13,0,0
634,31,0.0,0.0,0.0,3.2,174.0,0.2,0,567,4638,90,90,180,180,90,90,789,14,0,0
635,31,0.0,0.0,0.0,3.1,174.0,0.2,0,567,4638,90,90,180,180,90,90,789,15,0,0
636,32,0.0,0.0,0.0,3.1,173.9,0.2,0,567,4638,90,90,180,180,90,90,789,14,0,0
637,32,0.0,0.0,0.0,3.1,174.0,0.2,0,567,4638,90,90,180,180,90,90,789,14,0,0
638,32,0.0,0.0,0.0,3.0,174.3,0.2,0,567,4375,90,90,180,180,90,90,790,14,0,0
639,32,0.0,0.0,0.0,3.0,174.2,0.2,0,567,4375,90,90,180,180,90,90,789,14,0,0
640,32,0.0,0.0,0.0,3.0,174.2,0.2,0,567,4375,90,90,180,180,90,90,788,14,0,0
641,32,0.0,0.0,0.0,3.0,174.2,0.2,0,567,4375,90,90,180,180,90,90,789,15,0,0
642,32,0.0,0.0,0.0,3.1,174.0,0.2,0,567,4375,90,90,180,180,90,90,789,15,0,0
643,32,0.0,0.0,0.0,3.0,174.1,0.2,0,567,4375,90,90,180,180,90,90,790,6,0,0
644,1072,0.0,0.0,0.0,3.1,174.1,0.0,0,0,0,90,90,180,180,90,90,789,16,0,0
645,1072,0.0,0.0,0.0,3.0,174.3,0.0,0,0,0,90,90,180,180,90,90,789,17,0,0
646,1072,0.0,0.0,0.0,3.0,174.3,0.2,0,567,4379,90,90,180,180,90,90,789,15,0,0
647,32,0.0,0.0,0.0,3.1,174.2,0.2,0,567,4379,90,90,180,180,90,90,789,17,0,0
648,32,0.0,0.0,0.0,3.0,174.2,0.2,0,567,4379,90,90,180,180,90,90,789,17,0,0
649,32,0.0,0.0,0.0,3.0,174.0,0.2,0,567,4379,90,90,180,180,90,90,789,13,0,0
650,32,0.0,0.0,0.0,3.2,174.2,0.2,0,567,4379,90,90,180,180,90,90,789,15,0,0
651,32,0.0,0.0,0.0,3.1,174.1,0.0,0,0,0,90,90,180,180,90,90,789,16,0,0
652,32,0.0,0.0,0.0,3.0,174.0,0.0,0,0,0,90,90,180,180,90,90,789,13,0,0
653,32,0.0,0.0,0.0,3.0,174.1,0.0,0,0,0,90,90,180,180,90,90,789,16,0,0
654,1072,0.0,0.0,0.0,3.0,173.9,0.2,0,567,4600,90,90,180,180,90,90,789,14,0,0
655,1072,0.0,0.0,0.0,3.0,173.8,0.2,0,567,4600,90,90,180,180,90,90,790,11,0,0
656,31,0.0,0.0,0.0,3.1,174.1,0.2,0,567,4600,90,90,180,180,90,90,789,17,0,0
657,31,0.0,0.0,0.0,2.9,174.0,0.2,0,567,4600,90,90,180,180,90,90,790,13,0,0
658,31,0.0,0.0,0.0,3.0,174.0,0.2,0,567,4600,90,90,180,180,90,90,789,13,0,0
659,31,0.0,0.0,0.0,3.0,174.1,0.2,0,567,4600,90,90,180,180,90,90,789,17,0,0
660,32,0.0,0.0,0.0,3.0,174.1,0.2,0,567,4441,90,90,180,180,90,90,789,20,0,0
661,32,0.0,0.0,0.0,3.2,174.0,0.2,0,567,4441,90,90,180,180,90,90,789,16,0,0
662,32,0.0,0.0,0.0,3.2,174.0,0.2,0,567,4441,90,90,180,180,90,90,789,10,0,0
663,32,0.0,0.0,0.0,3.1,174.2,0.2,0,567,4441,90,90,180,180,90,90,790,12,0,0
664,32,0.0,0.0,0.0,3.1,174.4,0.2,0,567,4441,90,90,180,180,90,90,789,13,0,0
665,32,0.0,0.0,0.0,3.0,174.4,0.2,0,567,4441,90,90,180,180,90,90,789,14,0,0
666,32,0.0,0.0,0.0,3.1,174.3,0.2,0,567,4441,90,90,180,180,90,90,789,13,0,0
667,32,0.0,0.0,0.0,3.0,174.4,0.2,0,567,4441,90,90,180,180,90,90,789,14,0,0
668,32,0.0,0.0,0.0,3.0,174.4,0.2,0,567,4441,90,90,180,180,90,90,789,15,0,0
669,32,0.0,0.0,0.0,3.0,174.1,0.2,0,567,4355,90,90,180,180,90,90,789,15,0,0
670,31,0.0,0.0,0.0,2.9,174.3,0.2,0,567,4355,90,90,180,180,90,90,789,14,0,0
671,31,0.0,0.0,0.0,3.0,174.3,0.2,0,567,4355,90,90,180,180,90,90,789,13,0,0
672,31,0.0,0.0,0.0,3.0,174.6,0.2,0,567,4355,90,90,180,180,90,90,789,13,0,0
673,32,0.0,0.0,0.0,3.0,174.3,0.2,0,567,4355,90,90,180,180,90,90,789,11,0,0
674,32,0.0,0.0,0.0,3.1,174.2,0.2,0,567,4355,90,90,180,180,90,90,790,11,0,0
675,32,0.0,0.0,0.0,3.2,174.5,0.2,0,567,4355,90,90,180,180,90,90,789,12,0,0
676,31,0.0,0.0,0.0,3.0,173.6,0.2,0,567,4108,90,90,180,180,90,90,789,12,0,0
677,31,0.0,0.0,0.0,3.1,173.7,0.2,0,567,4108,90,90,180,180,90,90,789,15,0,0
678,31,0.0,0.0,0.0,3.3,174.0,0.2,0,567,4108,90,90,180,180,90,90,789,13,0,0
679,31,0.0,0.0,0.0,3.1,173.9,0.2,0,567,4108,90,90,180,180,90,90,789,14,0,0
680,31,0.0,0.0,0.0,2.9,174.2,0.2,0,567,4108,90,90,180,180,90,90,789,15,0,0
681,31,0.0,0.0,0.0,3.1,174.5,0.2,0,567,4108,90,90,180,180,90,90,789,13,0,0
682,31,0.0,0.0,0.0,3.1,174.1,0.2,0,567,4108,90,90,180,180,90,90,790,13,0,0
683,31,0.0,0.0,0.0,2.9,174.1,0.2,0,567,4108,90,90,180,180,90,90,789,14,0,0
684,31,0.0,0.0,0.0,3.2,174.3,0.2,0,567,4108,90,90,180,180,90,90,789,14,0,0
685,31,0.0,0.0,0.0,3.0,174.4,0.2,0,567,4108,90,90,180,180,90,90,789,17,0,0
686,31,0.0,0.0,0.0,3.1,174.5,0.2,0,567,4108,90,90,180,180,90,90,789,14,0,0
687,31,0.0,0.0,0.0,3.0,174.5,0.2,0,567,4108,90,90,180,180,90,90,789,15,0,0
688,31,0.0,0.0,0.0,3.1,174.7,0.2,0,567,3951,90,90,180,180,90,90,789,15,0,0
689,31,0.0,0.0,0.0,3.0,174.6,0.2,0,567,3951,90,90,180,180,90,90,789,14,0,0
690,32,0.0,0.0,0.0,3.0,174.7,0.2,0,567,3951,90,90,180,180,90,90,789,17,0,0
691,32,0.0,0.0,0.0,3.1,174.9,0.2,0,567,3951,90,90,180,180,90,90,788,15,0,0
692,32,0.0,0.0,0.0,3.1,174.8,0.2,0,567,3951,90,90,180,180,90,90,789,17,0,0
693,32,0.0,0.0,0.0,3.0,174.8,0.2,0,567,3951,90,90,180,180,90,90,789,17,0,0
694,32,0.0,0.0,0.0,2.9,174.7,0.2,0,567,3951,90,90,180,180,90,90,789,16,0,0
695,32,0.0,0.0,0.0,3.0,174.7,0.2,0,567,3951,90,90,180,180,90,90,789,17,0,0
696,32,0.0,0.0,0.0,3.0,174.8,0.2,0,567,3951,90,90,180,180,90,90,789,15,0,0
697,32,0.0,0.0,0.0,3.0,175.0,0.2,0,567,4052,90,90,180,180,90,90,790,15,0,0
698,32,0.0,0.0,0.0,3.1,175.0,0.2,0,567,4052,90,90,180,180,90,90,789,15,0,0
699,32,0.0,0.0,0.0,2.9,175.1,0.2,0,567,4052,90,90,180,180,90,90,789,15,0,0
700,32,0.0,0.0,0.0,3.0,175.1,0.2,0,567,4052,90,90,180,180,90,90,789,15,0,0
701,32,0.0,0.0,0.0,3.1,175.2,0.2,0,567,4052,90,90,180,180,90,90,789,15,0,0
702,32,0.0,0.0,0.0,3.0,175.3,0.2,0,567,4052,90,90,180,180,90,90,789,14,0,0
703,32,0.0,0.0,0.0,3.0,175.2,0.2,0,567,4052,90,90,180,180,90,90,789,14,0,0
704,32,0.0,0.0,0.0,3.0,175.2,0.2,0,567,4052,90,90,180,180,90,90,789,14,0,0
705,32,0.0,0.0,0.0,3.0,175.2,0.2,0,567,4052,90,90,180,180,90,90,789,15,0,0
706,32,0.0,0.0,0.0,3.0,175.2,0.2,0,567,4052,90,90,180,180,90,90,789,15,0,0
707,32,0.0,0.0,0.0,3.2,175.2,0.2,0,567,4052,90,90,180,180,90,90,789,14,0,0
708,32,0.0,0.0,0.0,3.1,175.2,0.2,0,567,4253,90,90,180,180,90,90,789,13,0,0
709,32,0.0,0.0,0.0,3.0,175.5,0.2,0,567,4253,90,90,180,180,90,90,789,13,0,0
710,40,0.0,0.0,0.0,3.1,175.5,0.2,0,567,4253,90,90,180,180,90,90,789,10,0,0
711,40,0.0,0.0,0.0,3.0,175.3,0.2,0,567,4253,90,90,180,180,90,90,789,12,0,0
712,40,0.0,0.0,0.0,2.9,175.3,0.7,0,0,0,90,90,180,180,90,90,789,12,0,0
713,32,0.0,0.0,0.0,3.0,175.2,0.7,0,0,0,90,90,180,180,90,90,789,13,0,0
714,32,0.0,0.0,0.0,3.2,175.4,0.7,0,0,0,90,90,180,180,90,90,789,14,0,0
715,32,0.0,0.0,0.0,3.0,175.3,0.7,0,0,0,90,90,180,180,90,90,790,14,0,0
716,32,0.0,0.0,0.0,3.0,175.3,0.7,0,0,0,90,90,180,180,90,90,789,15,0,0
717,32,0.0,0.0,0.0,3.0,175.3,0.2,0,567,4277,90,90,180,180,90,90,790,15,0,0
718,32,0.0,0.0,0.0,3.0,175.5,0.2,0,567,4277,90,90,180,180,90,90,789,13,0,0
719,40,0.0,0.0,0.0,3.1,175.5,0.2,0,567,4277,90,90,180,180,90,90,789,16,0,0
720,40,0.0,0.0,0.0,3.2,175.8,0.2,0,567,4277,90,90,180,180,90,90,790,10,0,0
721,40,0.0,0.0,0.0,3.2,175.7,0.2,0,567,4277,90,90,180,180,90,90,789,15,0,0
722,40,0.0,0.0,0.0,3.0,175.5,0.2,0,567,4277,90,90,180,180,90,90,789,16,0,0
723,40,0.0,0.0,0.0,2.9,175.6,0.2,0,567,4277,90,90,180,180,90,90,789,14,0,0
724,40,0.0,0.0,0.0,2.9,175.7,0.2,0,567,4277,90,90,180,180,90,90,789,15,0,0
725,40,0.0,0.0,0.0,3.0,175.7,0.2,0,567,4277,90,90,180,180,90,90,789,13,0,0
726,40,0.0,0.0,0.0,3.0,175.8,0.2,0,567,4277,90,90,180,180,90,90,789,14,0,0
727,40,0.0,0.0,0.0,2.5,176.2,0.2,0,567,4277,90,90,180,180,90,90,789,12,0,0
728,31,0.0,0.0,0.0,1.6,175.7,0.2,0,0,0,90,90,180,180,90,90,789,12,0,0
729,31,0.0,0.0,0.0,3.1,175.2,0.2,0,0,0,90,90,180,180,90,90,789,14,0,0
730,31,0.0,0.0,0.0,3.1,175.8,0.2,0,0,0,90,90,180,180,90,90,789,14,0,0
731,31,0.0,0.0,0.0,3.1,175.6,0.2,0,0,0,90,90,180,180,90,90,789,13,0,0
732,31,0.0,0.0,0.0,3.2,175.4,0.2,0,0,0,90,90,180,180,90,90,790,15,0,0
733,31,0.0,0.0,0.0,3.2,175.5,0.2,0,0,0,90,90,180,180,90,90,789,12,0,0
734,31,0.0,0.0,0.0,2.9,175.7,0.2,0,0,0,90,90,180,180,90,90,789,14,0,0
735,31,0.0,0.0,0.0,3.1,175.6,0.2,0,0,0,90,90,180,180,90,90,789,14,0,0
736,31,0.0,0.0,0.0,2.9,175.7,0.2,0,0,0,90,90,180,180,90,90,788,17,0,0
737,31,0.0,0.0,0.0,3.1,175.6,0.2,0,0,0,90,90,180,180,90,90,789,14,0,0
738,31,0.0,0.0,0.0,3.0,175.9,0.2,0,0,0,90,90,180,180,90,90,789,14,0,0
739,31,0.0,0.0,0.0,3.1,175.7,0.2,0,0,0,90,90,180,180,90,90,789,15,0,0
740,31,0.0,0.0,0.0,3.0,175.6,0.2,0,0,5,90,90,180,180,90,90,789,16,0,0
741,31,0.0,0.0,0.0,2.9,175.6,0.2,0,0,5,90,90,180,180,90,90,789,15,0,0
742,31,0.0,0.0,0.0,3.1,175.4,0.2,0,0,5,90,90,180,180,90,90,789,14,0,0
743,31,0.0,0.0,0.0,3.0,175.4,0.2,0,0,5,90,90,180,180,90,90,790,15,0,0
744,31,0.0,0.0,0.0,3.1,175.6,0.2,0,0,5,90,90,180,180,90,90,789,14,0,0
745,31,0.0,0.0,0.0,3.2,175.5,0.2,0,0,5,90,90,180,180,90,90,789,15,0,0
746,31,0.0,0.0,0.0,3.0,175.5,0.2,0,0,5,90,90,180,180,90,90,789,15,0,0
747,31,0.0,0.0,0.0,3.0,175.0,0.2,0,0,5,90,90,180,180,90,90,789,13,0,0
748,31,0.0,0.0,0.0,3.3,175.2,0.2,0,0,5,90,90,180,180,90,90,789,12,0,0
749,31,0.0,0.0,0.0,3.0,175.7,25.0,0,0,0,90,90,180,180,90,90,789,15,0,0
750,31,0.0,0.0,0.0,1.8,175.8,25.0,0,0,0,90,90,180,180,90,90,788,25,0,0
751,31,0.0,0.0,0.0,1.6,176.1,25.0,0,0,0,90,90,180,180,90,90,789,13,0,0
752,40,0.0,0.0,0.0,1.2,174.8,25.0,0,0,0,90,90,180,180,90,90,789,10,0,0
753,40,0.0,0.0,0.0,1.5,174.6,25.0,0,0,0,90,90,180,180,90,90,790,5,0,0
754,40,0.0,0.0,0.0,2.2,175.0,25.0,0,0,0,90,90,180,180,90,90,790,5,0,0
755,31,0.0,0.0,0.0,1.9,175.4,0.2,0,0,0,90,90,180,180,90,90,789,12,0,0
756,31,0.0,0.0,0.0,3.0,175.5,0.2,0,0,0,90,90,180,180,90,90,789,10,0,0
757,31,0.0,0.0,0.0,2.9,175.7,0.2,0,0,0,90,90,180,180,90,90,789,16,0,0
758,31,0.0,0.0,0.0,2.2,175.0,0.2,0,0,0,90,90,180,180,90,90,789,13,0,0
759,31,0.0,0.0,0.0,2.6,174.4,0.2,0,0,0,90,90,180,180,90,90,790,8,0,0
760,31,0.0,0.0,0.0,3.5,175.1,0.2,0,0,0,90,90,180,180,90,90,789,13,0,0
761,31,0.0,0.0,0.0,1.9,175.2,0.2,0,0,0,90,90,180,180,90,90,789,15,0,0
762,31,0.0,0.0,0.0,2.1,175.0,0.2,0,0,0,90,90,180,180,90,90,790,12,0,0
763,31,0.0,0.0,0.0,2.0,175.1,0.2,0,0,0,90,90,180,180,90,90,789,12,0,0
764,31,0.0,0.0,0.0,3.5,175.4,0.2,0,0,0,90,90,180,180,90,90,789,13,0,0
765,31,0.0,0.0,0.0,3.0,174.1,0.2,0,0,0,90,90,180,180,90,90,789,18,0,0
766,31,0.0,0.0,0.0,2.2,172.5,0.2,0,0,0,90,90,180,180,90,90,790,5,0,0
767,31,0.0,0.0,0.0,1.8,172.9,0.3,0,0,4,90,90,180,180,90,90,789,10,0,0
768,31,0.0,2.436,0.0,2.5,172.6,0.3,0,0,4,90,90,180,180,90,90,788,19,0,0
769,31,0.0,1.912,0.0,2.6,173.9,0.3,0,0,4,90,90,180,180,90,90,789,14,0,0
770,31,0.0,1.912,0.0,2.2,174.4,0.3,0,0,4,90,90,180,180,90,90,789,15,0,0
771,31,0.0,1.912,0.0,3.8,174.5,0.3,0,0,4,90,90,180,180,90,90,789,16,0,0
772,31,0.0,1.912,0.0,3.9,174.5,0.3,0,0,4,90,90,180,180,90,90,789,21,0,0
773,31,0.0,1.864,0.0,2.7,175.0,0.3,0,0,4,90,90,180,180,90,90,788,38,0,0
774,415,0.0,1.864,0.0,3.1,175.4,0.3,0,0,4,90,90,180,180,90,90,790,10,0,0
775,415,0.0,2.875,0.0,4.7,174.5,0.3,0,0,4,90,90,180,180,90,90,786,20,0,0
776,415,0.0,5.597,0.0,3.5,174.3,0.3,0,5,6754,90,90,180,180,90,90,788,25,0,0
777,31,0.0,5.597,0.0,3.1,174.8,0.3,0,5,6754,90,90,180,180,90,90,790,5,0,0
778,31,0.0,5.597,0.0,2.5,174.5,0.3,0,5,6754,90,90,180,180,90,90,790,7,0,0
779,31,0.0,5.597,0.0,3.7,174.1,0.3,0,5,6754,90,90,180,180,90,90,789,14,0,0
780,31,0.0,0.0,0.0,5.2,173.5,0.3,0,5,6754,90,90,180,180,90,90,789,19,0,0
781,31,0.0,0.0,0.0,4.2,174.3,0.3,0,5,6754,90,90,180,180,90,90,788,27,0,0
782,32,0.0,0.0,0.0,2.8,173.8,0.3,0,5,6754,90,90,180,180,90,90,789,9,0,0
783,32,0.0,0.0,0.0,3.0,173.3,0.3,0,5,6754,90,90,180,180,90,90,786,46,0,0
784,32,0.0,0.0,0.0,2.2,173.7,0.3,0,5,6754,90,90,180,180,90,90,785,48,0,0
785,40,0.0,0.0,0.0,1.8,173.3,0.3,0,5,6754,90,90,180,180,90,90,789,9,0,0
786,40,0.0,0.0,0.0,1.5,172.6,0.3,0,5,6754,90,90,180,180,90,90,789,16,0,0
787,32,0.0,0.0,0.0,3.4,173.0,0.4,0,56,7472,90,90,180,180,90,90,789,9,0,0
788,32,0.0,0.0,0.0,3.4,172.8,0.4,0,56,7472,90,90,180,180,90,90,788,14,0,0
789,32,0.0,0.0,0.0,3.8,173.3,0.4,0,56,7472,90,90,180,180,90,90,789,16,0,0
790,523,0.0,0.0,0.0,4.6,174.3,0.4,0,56,7472,90,90,180,180,90,90,789,14,0,0
791,523,0.0,0.0,0.0,4.4,173.9,0.4,0,56,7472,90,90,180,180,90,90,788,27,0,0
792,523,0.0,0.0,0.0,4.5,173.8,0.4,0,56,7472,90,90,180,180,90,90,789,9,0,0
793,31,0.0,0.0,0.0,3.2,174.1,0.4,0,56,7472,90,90,180,180,90,90,789,14,0,0
794,31,0.0,0.0,0.0,3.1,173.9,0.4,0,56,7472,90,90,180,180,90,90,789,14,0,0
795,31,0.0,0.0,0.0,3.0,174.1,0.4,0,56,7472,90,90,180,180,90,90,789,15,0,0
796,31,0.0,0.0,0.0,2.9,174.4,0.4,0,56,7472,90,90,180,180,90,90,789,16,0,0
797,31,0.0,0.0,0.0,3.0,174.6,0.4,0,56,7472,90,90,180,180,90,90,789,14,0,0
798,31,0.0,0.0,0.0,3.0,174.5,0.4,0,56,7541,90,90,180,180,90,90,789,16,0,0
799,31,0.0,0.0,0.0,3.2,174.5,0.4,0,56,7541,99,174,180,180,90,90,784,119,0,0
800,1072,0.0,0.0,0.0,3.0,174.3,0.4,0,56,7541,90,90,180,180,90,90,784,105,0,0
801,1072,0.0,0.0,0.0,3.0,174.5,0.4,0,56,7541,90,43,180,180,90,90,789,8,0,0
802,1072,0.0,0.0,0.0,3.0,174.5,0.4,0,56,7541,25,90,180,180,90,90,779,85,0,0
803,31,0.0,0.0,0.0,3.2,174.9,0.4,0,56,7541,4,90,180,180,90,90,789,14,0,0
804,31,0.0,0.0,0.0,2.9,174.6,0.4,0,56,7541,176,90,180,180,90,90,789,15,0,0
805,31,0.0,0.0,0.0,3.0,174.5,0.4,0,56,7541,90,90,180,180,90,90,778,126,0,0
806,31,0.0,0.0,0.0,2.9,174.7,0.4,0,56,7541,90,90,180,180,90,90,789,5,0,0
807,31,0.0,0.0,0.0,2.9,174.4,0.4,0,56,7541,90,90,180,180,90,90,789,15,0,0
808,31,0.0,0.0,0.0,3.0,174.7,0.4,0,56,7541,90,90,180,180,90,90,788,27,0,0
809,31,0.0,0.0,0.0,3.1,174.5,0.4,0,5,6768,90,90,180,180,90,90,788,15,0,0
810,31,0.0,0.0,0.0,2.9,174.3,0.4,0,5,6768,90,90,180,180,90,90,789,15,0,0
811,31,0.0,0.0,0.0,2.9,174.5,0.4,0,5,6768,90,90,180,180,90,90,789,17,0,0
812,31,0.0,0.0,0.0,2.8,174.7,0.4,0,5,6768,90,90,180,180,90,90,789,12,0,0
813,31,0.0,0.0,0.0,2.9,174.7,0.4,0,5,6768,90,90,180,180,90,90,789,18,0,0
814,31,0.0,0.0,0.0,2.9,174.8,0.4,0,5,6768,90,90,180,180,90,90,789,15,0,0
815,31,0.0,0.0,0.0,3.0,174.8,0.4,0,5,6768,90,90,180,180,90,90,788,19,0,0
816,31,0.0,0.0,0.0,3.0,174.6,0.4,0,5,6768,90,90,180,180,90,90,788,15,0,0
