time*0.5 [s],altitude [cm],rot_old [rpm],airspeed [m/s],yaw [deg],pitch [deg],roll [deg],rot_twe [rpm],thrust_h,thrust_m,thrust_l,rudder,elevator,rudderFB,elevatorFB,rudderTrim,elevatortrim,battVoltage,battCurrent,nunchuckC,nunchuckZ
1,21,0.0,3.168,0.0,3.3,176.2,0.3,0,0,5,90,90,180,180,90,90,791,14,0,0
2,21,0.0,3.168,0.0,3.3,175.9,0.3,0,0,5,90,90,180,180,90,90,791,17,0,0
3,19,0.0,3.168,0.0,3.3,175.9,0.3,0,0,5,90,90,180,180,90,90,791,15,0,0
4,19,0.0,3.168,0.0,3.3,176.0,0.3,0,0,5,90,90,180,180,90,90,791,14,0,0
5,21,0.0,0.0,0.0,3.2,176.0,0.3,0,0,5,90,90,180,180,90,90,791,15,0,0
6,21,0.0,0.0,0.0,3.3,175.9,0.3,0,0,5,90,90,180,180,90,90,791,5,0,0
7,21,0.0,0.0,0.0,3.3,176.1,0.3,0,0,5,90,90,180,180,90,90,791,16,0,0
8,19,0.0,0.0,0.0,3.3,176.2,0.3,0,0,5,90,90,180,180,90,90,791,17,0,0
9,19,0.0,0.0,0.0,3.5,176.0,0.3,0,0,5,90,90,180,180,90,90,791,15,0,0
10,33,0.0,0.0,0.0,3.5,175.8,0.3,0,0,5,90,90,180,180,90,90,791,14,0,0
11,33,0.0,0.0,0.0,3.4,175.8,0.3,0,0,5,90,90,180,180,90,90,791,14,0,0
12,33,0.0,0.0,0.0,3.4,176.0,0.3,0,0,5,90,90,180,180,90,90,791,14,0,0
13,19,0.0,0.0,0.0,3.4,176.1,0.3,0,0,5,90,90,180,180,90,90,790,27,0,0
14,19,0.0,0.0,0.0,3.5,175.9,0.3,0,0,5,90,90,180,180,90,90,791,14,0,0
15,19,0.0,0.0,0.0,3.4,176.1,0.3,0,0,5,90,90,180,180,90,90,791,15,0,0
16,32,0.0,0.0,0.0,3.4,176.2,0.3,0,0,5,90,90,180,180,90,90,791,14,0,0
17,32,0.0,0.0,0.0,3.4,176.2,0.3,0,0,5,90,90,180,180,90,90,791,14,0,0
18,32,0.0,0.0,0.0,3.3,176.0,0.3,0,0,5,90,90,180,180,90,90,791,14,0,0
19,19,0.0,0.0,0.0,3.2,176.0,0.3,0,0,5,90,90,180,180,90,90,791,14,0,0
20,19,0.0,0.0,0.0,3.1,176.2,0.3,0,0,5,90,90,180,180,90,90,791,14,0,0
21,19,0.0,0.0,0.0,3.1,176.1,0.3,0,0,5,90,90,180,180,90,90,791,15,0,0
22,32,0.0,0.0,0.0,3.1,176.3,0.3,0,0,5,90,90,180,180,90,90,790,16,0,0
23,32,0.0,0.0,0.0,3.1,176.2,0.3,0,0,5,90,90,180,180,90,90,791,15,0,0
24,32,0.0,0.0,0.0,3.1,176.1,0.3,0,0,5,90,90,180,180,90,90,791,15,0,0
25,19,0.0,0.0,0.0,3.2,176.1,0.3,0,0,5,90,90,180,180,90,90,790,16,0,0
26,19,0.0,0.0,0.0,3.3,176.0,0.3,0,0,56,90,90,180,180,90,90,791,14,0,0
27,19,0.0,0.0,0.0,3.3,176.2,0.3,0,0,56,90,90,180,180,90,90,791,16,0,0
28,19,0.0,0.0,0.0,3.3,175.9,0.3,0,0,56,90,90,180,180,90,90,791,16,0,0
29,19,0.0,0.0,0.0,3.1,175.8,0.3,0,0,56,90,90,180,180,90,90,790,27,0,0
30,19,0.0,0.0,0.0,3.2,175.7,0.3,0,0,56,90,90,180,180,90,90,790,29,0,0
31,21,0.0,0.0,0.0,3.2,175.7,0.3,0,0,56,90,90,180,180,90,90,790,30,0,0
32,21,0.0,0.0,0.0,3.0,175.5,0.3,0,0,56,90,90,180,180,90,90,791,18,0,0
33,19,0.0,0.0,0.0,3.0,175.1,0.3,0,0,56,90,90,180,180,90,90,788,48,0,0
34,19,0.0,0.0,0.0,2.9,175.7,0.3,0,0,56,90,90,180,180,90,90,791,24,0,0
35,19,0.0,0.0,0.0,2.8,175.6,0.2,0,0,56,90,90,180,180,90,90,789,28,0,0
36,19,0.0,0.0,0.0,1.9,175.4,0.2,0,0,56,90,90,180,180,90,90,790,19,0,0
37,19,0.0,0.0,0.0,0.6,175.4,0.2,0,0,56,90,90,180,180,90,90,790,30,0,0
38,19,0.0,0.0,0.0,0.6,174.7,0.2,0,0,56,90,97,180,180,90,90,790,32,0,0
39,19,0.0,0.0,0.0,0.9,174.0,0.2,0,0,56,90,127,180,180,90,90,789,31,0,0
40,19,0.0,0.0,0.0,0.8,174.3,0.2,0,0,56,90,155,180,180,90,90,790,34,0,0
41,19,0.0,0.0,0.0,0.8,175.4,0.2,0,0,56,90,158,180,180,90,90,789,40,0,0
42,19,0.0,2.863,0.0,1.2,175.7,105.6,0,0,50,90,158,180,180,90,90,790,23,0,0
43,19,0.0,2.643,0.0,1.5,175.3,105.6,0,0,50,90,158,180,180,90,90,790,23,0,0
44,19,0.0,2.32,0.0,1.9,174.3,105.6,0,0,50,90,158,180,180,90,90,791,14,0,0
45,19,0.0,0.689,0.0,2.1,174.8,124.6,0,0,56,90,137,180,180,90,90,791,11,0,0
46,19,0.0,1.486,0.0,1.5,175.3,130.5,0,0,56,90,90,180,180,90,90,792,5,0,0
47,19,0.0,1.458,0.0,1.9,174.9,133.8,0,0,56,90,90,180,180,90,90,789,34,0,0
48,19,0.0,1.145,0.0,2.1,175.5,133.8,0,0,56,90,90,180,180,90,90,790,18,0,0
49,19,0.0,0.099,0.0,0.7,175.6,136.1,0,0,56,90,90,180,180,90,90,791,11,0,0
50,19,0.0,1.897,0.0,0.8,176.1,148.1,0,0,56,90,90,180,180,90,90,791,18,0,0
51,34,0.0,0.733,0.0,0.2,175.5,145.5,0,0,56,90,90,180,180,90,90,790,21,0,0
52,34,0.0,0.668,0.0,-2.3,175.5,145.0,0,0,56,90,90,180,180,90,90,791,5,0,0
53,34,0.0,0.114,0.0,-4.1,176.0,147.2,0,0,56,90,90,180,180,90,90,791,8,0,0
54,19,0.0,0.005,0.0,-4.6,175.8,151.0,0,0,56,90,90,180,180,90,90,791,6,0,0
55,19,0.0,0.562,0.0,-5.9,105.2,154.5,0,0,56,90,133,180,180,90,90,790,10,0,0
56,19,0.0,0.309,0.0,-7.0,-179.1,150.8,0,0,0,90,136,180,180,90,90,791,5,0,0
57,19,0.0,0.011,0.0,-6.6,-178.8,154.0,0,0,0,90,105,180,180,90,90,792,6,0,0
58,19,0.0,0.064,0.0,-6.6,-107.0,155.9,0,0,7,90,90,180,180,90,90,789,28,0,0
59,19,0.0,3.686,0.0,-7.8,-35.9,150.9,0,0,56,90,50,180,180,90,90,780,149,0,0
60,19,0.0,2.144,0.0,-9.3,35.6,147.7,0,0,0,90,50,180,180,90,90,791,11,0,0
61,19,0.0,2.576,0.0,-9.6,-35.9,148.1,0,0,0,90,40,180,180,90,90,788,36,0,0
62,19,0.0,0.23,0.0,-9.3,-178.2,147.7,0,0,0,90,60,180,180,90,90,785,87,0,0
63,19,0.0,0.229,0.0,-9.8,-177.4,147.7,0,0,0,90,111,180,180,90,90,788,62,0,0
64,19,0.0,0.028,0.0,-8.9,-177.9,137.2,0,0,0,90,90,180,180,90,90,788,42,0,0
65,19,0.0,0.191,0.0,-7.4,-178.6,143.0,0,568,540,90,91,180,180,90,90,790,20,0,0
66,19,0.0,0.007,0.0,-6.9,-178.2,134.7,0,568,6831,90,90,180,180,90,90,791,5,0,0
67,19,0.0,0.065,0.0,-4.8,-178.2,117.5,0,570,2122,90,90,180,180,90,90,790,18,0,0
68,19,0.0,0.171,0.0,-3.0,-179.2,117.5,0,570,2122,90,90,180,180,90,90,790,15,0,0
69,19,0.0,0.043,0.0,-2.8,-107.5,84.2,0,568,9004,90,125,180,180,90,90,791,6,0,0
70,19,0.0,4.109,0.0,-2.2,-35.6,72.5,0,568,7514,90,119,180,180,90,90,790,13,0,0
71,19,0.0,0.387,0.0,-0.8,-107.7,72.5,0,568,7514,90,95,180,180,90,90,791,10,0,0
72,19,0.0,0.077,0.0,1.9,178.8,65.2,0,568,1469,90,92,180,180,90,90,791,15,0,0
73,19,0.0,0.005,0.0,2.4,179.2,46.1,0,568,4265,90,90,180,180,90,90,791,13,0,0
74,19,0.0,1.616,0.0,2.1,178.9,46.1,0,568,4265,90,90,180,180,90,90,790,18,0,0
75,19,0.0,6.289,0.0,2.7,177.3,42.2,0,568,6851,90,90,180,180,90,90,791,16,0,0
76,19,0.0,0.003,0.0,3.4,176.6,33.5,0,0,0,90,90,180,180,90,90,791,7,0,0
77,19,0.0,0.003,0.0,3.5,176.2,36.3,0,568,5879,90,90,180,180,90,90,790,18,0,0
78,19,0.0,4.184,0.0,4.4,175.8,33.8,0,568,6559,90,90,180,180,90,90,791,11,0,0
79,19,0.0,3.152,0.0,5.4,175.3,32.0,0,568,6788,90,90,180,180,90,90,789,32,0,0
80,19,0.0,3.589,0.0,5.6,176.7,25.5,0,568,2966,90,90,180,180,90,90,790,25,0,0
81,19,0.0,3.848,0.0,5.3,177.1,18.0,0,0,18,90,90,180,180,90,90,791,11,0,0
82,19,0.0,3.848,0.0,5.6,175.6,18.0,0,0,18,90,90,180,180,90,90,791,8,0,0
83,19,0.0,3.589,0.0,5.2,174.7,18.0,0,0,5684,90,90,180,180,90,90,790,17,0,0
84,19,0.0,3.589,0.0,4.9,175.3,18.0,0,0,5684,90,90,180,180,90,90,790,23,0,0
85,19,0.0,4.109,0.0,4.2,175.2,15.6,0,0,0,90,90,180,180,90,90,791,13,0,0
86,19,0.0,4.109,0.0,3.7,174.8,15.6,0,0,0,90,90,180,180,90,90,791,11,0,0
87,19,0.0,5.473,0.0,3.6,174.8,13.2,0,8,5681,90,90,180,180,90,90,790,25,0,0
88,19,0.0,5.473,0.0,3.4,174.8,13.2,0,8,5681,90,90,180,180,90,90,790,16,0,0
89,19,0.0,5.473,0.0,3.7,174.6,13.2,0,8,5681,90,90,180,180,90,90,790,17,0,0
90,19,0.0,5.473,0.0,3.5,174.1,13.2,0,8,5681,90,90,180,180,90,90,791,17,0,0
91,19,0.0,5.473,0.0,4.1,173.8,13.2,0,8,5681,90,90,180,180,90,90,791,14,0,0
92,19,0.0,0.0,0.0,4.3,174.2,14.5,0,0,56,90,90,180,180,90,90,791,11,0,0
93,19,0.0,0.0,0.0,3.9,174.2,14.5,0,0,56,90,90,180,180,90,90,791,6,0,0
94,19,0.0,0.0,0.0,3.9,174.4,14.5,0,0,56,90,90,180,180,90,90,791,14,0,0
95,19,0.0,0.0,0.0,4.0,174.2,14.5,0,0,56,90,90,180,180,90,90,791,11,0,0
96,19,0.0,0.0,0.0,4.4,173.6,12.0,0,0,0,90,90,180,180,90,90,791,17,0,0
97,19,0.0,0.0,0.0,4.4,174.2,12.0,0,0,0,90,90,180,180,90,90,791,10,0,0
98,19,0.0,0.0,0.0,4.4,174.4,5.5,0,5,6608,90,90,180,180,90,90,791,5,0,0
99,19,0.0,0.0,0.0,3.8,174.5,5.5,0,5,6608,90,90,180,180,90,90,790,17,0,0
100,19,0.0,0.0,0.0,3.4,174.5,5.5,0,5,6608,90,90,180,180,90,90,791,14,0,0
101,19,0.0,0.0,0.0,3.3,174.7,5.5,0,5,6608,90,90,180,180,90,90,790,14,0,0
102,19,0.0,0.0,0.0,3.2,174.8,5.5,0,5,6608,90,90,180,180,90,90,791,7,0,0
103,19,0.0,0.0,0.0,3.1,174.7,5.2,0,568,1475,90,90,180,180,90,90,791,16,0,0
104,19,0.0,0.0,0.0,3.0,174.7,5.2,0,568,1475,90,90,180,180,90,90,791,14,0,0
105,19,0.0,0.0,0.0,3.0,174.9,5.2,0,568,1475,90,90,180,180,90,90,790,17,0,0
106,19,0.0,0.0,0.0,3.1,175.1,5.2,0,568,1475,90,90,180,180,90,90,791,17,0,0
107,19,0.0,0.0,0.0,3.0,175.1,5.2,0,0,0,90,90,180,180,90,90,791,15,0,0
108,19,0.0,0.0,0.0,3.1,175.1,5.2,0,0,0,90,90,180,180,90,90,792,15,0,0
109,19,0.0,0.0,0.0,3.1,175.0,5.2,0,0,0,90,90,180,180,90,90,790,14,0,0
110,19,0.0,0.0,0.0,3.1,175.1,5.2,0,568,1851,90,90,180,180,90,90,791,13,0,0
111,19,0.0,0.0,0.0,3.0,175.3,5.2,0,568,1851,90,90,180,180,90,90,791,15,0,0
112,19,0.0,0.0,0.0,3.0,175.2,5.2,0,0,0,90,90,180,180,90,90,791,15,0,0
113,19,0.0,0.0,0.0,3.0,175.2,5.2,0,0,0,90,90,180,180,90,90,791,14,0,0
114,19,0.0,0.0,0.0,2.9,175.5,5.2,0,568,1977,90,90,180,180,90,90,790,15,0,0
115,19,0.0,0.0,0.0,3.0,175.6,5.2,0,568,1977,90,90,180,180,90,90,791,13,0,0
116,19,0.0,0.0,0.0,2.9,175.7,5.2,0,568,1977,90,90,180,180,90,90,791,15,0,0
117,19,0.0,0.0,0.0,2.9,175.5,5.2,0,568,1977,90,90,180,180,90,90,791,13,0,0
118,19,0.0,0.0,0.0,2.9,175.3,5.2,0,568,1977,90,90,180,180,90,90,791,14,0,0
119,19,0.0,0.0,0.0,3.1,175.5,5.2,0,568,1192,90,90,180,180,90,90,791,14,0,0
120,19,0.0,0.0,0.0,2.9,175.9,5.2,0,568,1192,90,90,180,180,90,90,791,13,0,0
121,19,0.0,0.0,0.0,2.9,175.9,5.2,0,568,1192,90,90,180,180,90,90,791,9,0,0
122,19,0.0,0.0,0.0,3.0,175.7,5.2,0,568,1192,90,90,180,180,90,90,791,15,0,0
123,19,0.0,0.0,0.0,3.0,175.6,5.2,0,0,0,90,90,180,180,90,90,790,17,0,0
124,19,0.0,0.0,0.0,3.0,175.8,5.2,0,0,0,90,90,180,180,90,90,790,17,0,0
125,19,0.0,0.0,0.0,3.0,175.8,5.2,0,568,871,90,90,180,180,90,90,790,14,0,0
126,19,0.0,0.0,0.0,2.9,175.7,5.2,0,568,871,90,90,180,180,90,90,791,15,0,0
127,19,0.0,0.0,0.0,3.0,175.7,5.2,0,568,871,90,90,180,180,90,90,791,14,0,0
128,19,0.0,0.0,0.0,3.1,175.7,5.2,0,0,0,90,90,180,180,90,90,790,16,0,0
129,19,0.0,0.0,0.0,3.0,175.8,5.2,0,0,0,90,90,180,180,90,90,791,17,0,0
130,19,0.0,0.0,0.0,2.9,175.8,4.2,0,568,648,90,90,180,180,90,90,790,16,0,0
131,19,0.0,0.0,0.0,2.8,175.8,4.2,0,568,648,90,90,180,180,90,90,790,16,0,0
132,19,0.0,0.0,0.0,2.9,175.9,4.2,0,568,648,90,90,180,180,90,90,790,17,0,0
133,19,0.0,0.0,0.0,2.9,176.0,4.2,0,568,648,90,90,180,180,90,90,791,17,0,0
134,19,0.0,0.0,0.0,3.0,175.9,4.2,0,0,0,90,90,180,180,90,90,790,16,0,0
135,19,0.0,0.0,0.0,3.2,175.8,4.2,0,0,0,90,90,180,180,90,90,790,17,0,0
136,19,0.0,0.0,0.0,3.0,175.9,4.2,0,0,0,90,90,180,180,90,90,791,17,0,0
137,19,0.0,0.0,0.0,2.9,176.0,4.2,0,568,527,90,90,180,180,90,90,789,16,0,0
138,19,0.0,0.0,0.0,3.0,175.9,4.2,0,568,527,90,90,180,180,90,90,791,17,0,0
139,19,0.0,0.0,0.0,3.1,175.9,4.2,0,0,0,90,90,180,180,90,90,791,15,0,0
140,19,0.0,0.0,0.0,3.0,175.9,4.2,0,0,0,90,90,180,180,90,90,791,16,0,0
141,19,0.0,0.0,0.0,3.0,176.1,4.2,0,567,9980,90,90,180,180,90,90,790,16,0,0
142,19,0.0,0.0,0.0,3.0,176.1,4.2,0,567,9980,90,90,180,180,90,90,791,15,0,0
143,19,0.0,0.0,0.0,2.9,175.9,4.2,0,567,9980,90,90,180,180,90,90,790,14,0,0
144,19,0.0,0.0,0.0,2.8,175.9,4.2,0,567,9980,90,90,180,180,90,90,791,13,0,0
145,19,0.0,0.0,0.0,2.7,175.9,4.2,0,567,9980,90,90,180,180,90,90,790,14,0,0
146,19,0.0,0.0,0.0,2.9,175.8,4.2,0,0,56,90,90,180,180,90,90,790,15,0,0
147,19,0.0,0.0,0.0,2.9,176.0,4.2,0,0,56,90,90,180,180,90,90,791,15,0,0
148,19,0.0,0.0,0.0,2.9,176.0,4.2,0,0,56,90,90,180,180,90,90,791,13,0,0
149,19,0.0,0.0,0.0,2.8,175.9,4.2,0,0,56,90,90,180,180,90,90,790,15,0,0
150,19,0.0,0.0,0.0,2.8,175.8,1.2,0,0,568,90,90,180,180,90,90,791,14,0,0
151,19,0.0,0.0,0.0,2.8,175.8,1.2,0,0,568,90,90,180,180,90,90,791,14,0,0
152,19,0.0,0.0,0.0,2.9,175.8,1.2,0,0,56,90,90,180,180,90,90,791,16,0,0
153,19,0.0,0.0,0.0,3.0,175.8,1.2,0,0,56,90,90,180,180,90,90,790,17,0,0
154,19,0.0,0.0,0.0,2.9,176.0,1.2,0,0,56,90,90,180,180,90,90,790,15,0,0
155,19,0.0,0.0,0.0,3.0,175.9,1.2,0,0,568,90,90,180,180,90,90,790,14,0,0
156,19,0.0,0.0,0.0,2.9,175.9,1.2,0,0,568,90,90,180,180,90,90,791,15,0,0
157,19,0.0,0.0,0.0,2.8,175.9,20.0,0,0,0,90,90,180,180,90,90,790,15,0,0
158,19,0.0,0.0,0.0,2.9,175.8,20.0,0,0,0,90,90,180,180,90,90,791,15,0,0
159,19,0.0,0.0,0.0,2.9,175.8,20.0,0,0,0,90,90,180,180,90,90,790,17,0,0
160,19,0.0,0.0,0.0,2.8,175.9,20.0,0,0,0,90,90,180,180,90,90,791,16,0,0
161,19,0.0,0.0,0.0,2.8,175.8,0.8,0,567,5006,90,90,180,180,90,90,791,15,0,0
162,19,0.0,0.0,0.0,2.8,175.5,0.8,0,567,5006,90,90,180,180,90,90,791,17,0,0
163,19,0.0,0.0,0.0,2.8,175.6,0.8,0,567,5006,90,90,180,180,90,90,790,20,0,0
164,19,0.0,0.0,0.0,2.8,176.1,0.8,0,0,0,90,90,180,180,90,90,790,17,0,0
165,19,0.0,0.0,0.0,2.7,176.1,0.8,0,0,0,90,90,180,180,90,90,791,15,0,0
166,21,0.0,0.0,0.0,2.6,176.3,0.8,0,567,9960,90,90,180,180,90,90,791,16,0,0
167,21,0.0,0.0,0.0,2.8,176.1,0.8,0,567,9960,90,90,180,180,90,90,791,17,0,0
168,21,0.0,0.0,0.0,2.8,175.9,0.8,0,567,9960,90,90,180,180,90,90,790,15,0,0
169,19,0.0,0.0,0.0,2.8,175.8,0.8,0,567,9960,90,90,180,180,90,90,790,16,0,0
170,19,0.0,0.0,0.0,2.8,176.0,0.8,0,0,0,90,90,180,180,90,90,790,19,0,0
171,19,0.0,0.0,0.0,2.8,176.3,0.8,0,0,0,90,90,180,180,90,90,791,15,0,0
172,21,0.0,0.0,0.0,2.8,176.2,0.8,0,0,0,90,90,180,180,90,90,790,14,0,0
173,21,0.0,0.0,0.0,2.8,176.2,0.8,0,567,9489,90,90,180,180,90,90,791,15,0,0
174,21,0.0,0.0,0.0,2.8,176.3,0.8,0,567,9489,90,90,180,180,90,90,791,17,0,0
175,21,0.0,0.0,0.0,2.9,176.3,0.8,0,567,9489,90,90,180,180,90,90,791,14,0,0
176,19,0.0,0.0,0.0,2.8,176.0,0.8,0,567,9489,90,90,180,180,90,90,790,17,0,0
177,19,0.0,0.0,0.0,2.8,176.0,0.8,0,0,0,90,90,180,180,90,90,790,15,0,0
178,19,0.0,0.0,0.0,2.8,176.0,0.8,0,0,0,90,90,180,180,90,90,791,14,0,0
179,19,0.0,0.0,0.0,2.7,176.2,0.8,0,0,0,90,90,180,180,90,90,790,15,0,0
180,19,0.0,0.0,0.0,2.7,176.2,0.8,0,0,0,90,90,180,180,90,90,790,16,0,0
181,19,0.0,0.0,0.0,2.7,176.1,0.8,0,567,9528,90,90,180,180,90,90,790,17,0,0
182,19,0.0,0.0,0.0,2.8,176.1,0.8,0,567,9528,90,90,180,180,90,90,791,15,0,0
183,19,0.0,0.0,0.0,2.7,176.1,0.8,0,567,9528,90,90,180,180,90,90,790,16,0,0
184,19,0.0,0.0,0.0,2.8,176.2,0.8,0,0,0,90,90,180,180,90,90,791,15,0,0
185,19,0.0,0.0,0.0,2.9,176.1,0.8,0,0,0,90,90,180,180,90,90,791,15,0,0
186,19,0.0,0.0,0.0,2.9,176.1,0.8,0,0,0,90,90,180,180,90,90,790,15,0,0
187,19,0.0,0.0,0.0,2.8,176.1,0.8,0,0,0,90,90,180,180,90,90,791,14,0,0
188,21,0.0,0.0,0.0,2.8,176.0,0.8,0,567,9147,90,90,180,180,90,90,791,16,0,0
189,21,0.0,0.0,0.0,2.9,175.8,0.8,0,567,9147,90,90,180,180,90,90,790,16,0,0
190,21,0.0,0.0,0.0,2.7,176.0,0.8,0,567,9147,90,90,180,180,90,90,790,15,0,0
191,19,0.0,0.0,0.0,2.7,175.9,0.8,0,0,0,90,90,180,180,90,90,790,17,0,0
192,19,0.0,0.0,0.0,2.8,175.7,0.8,0,0,0,90,90,180,180,90,90,790,14,0,0
193,19,0.0,0.0,0.0,2.9,175.7,0.8,0,0,0,90,90,180,180,90,90,791,15,0,0
194,21,0.0,0.0,0.0,3.0,175.7,0.8,0,0,0,90,90,180,180,90,90,791,15,0,0
195,21,0.0,0.0,0.0,2.9,175.8,0.8,0,0,0,90,90,180,180,90,90,790,7,0,0
196,21,0.0,0.0,0.0,2.9,176.0,0.8,0,0,0,90,90,180,180,90,90,791,15,0,0
197,19,0.0,0.0,0.0,3.0,176.0,0.8,0,0,0,90,90,180,180,90,90,790,16,0,0
198,19,0.0,0.0,0.0,2.9,176.1,0.8,0,0,0,90,90,180,180,90,90,790,17,0,0
199,19,0.0,0.0,0.0,2.8,176.1,0.8,0,0,0,90,90,180,180,90,90,790,15,0,0
200,19,0.0,0.0,0.0,2.7,176.0,0.8,0,0,0,90,90,180,180,90,90,790,14,0,0
201,19,0.0,0.0,0.0,2.7,175.8,0.8,0,0,0,90,90,180,180,90,90,790,14,0,0
202,19,0.0,0.0,0.0,2.8,175.8,0.8,0,0,0,90,90,180,180,90,90,790,17,0,0
203,21,0.0,0.0,0.0,2.8,176.2,0.8,0,0,0,90,90,180,180,90,90,790,15,0,0
204,21,0.0,0.0,0.0,2.8,176.0,0.8,0,0,0,90,90,180,180,90,90,791,14,0,0
205,21,0.0,0.0,0.0,2.8,175.9,0.8,0,0,0,90,90,180,180,90,90,790,16,0,0
206,21,0.0,0.0,0.0,2.8,175.9,0.8,0,0,0,90,90,180,180,90,90,790,15,0,0
207,21,0.0,0.0,0.0,2.6,176.3,0.8,0,0,0,90,90,180,180,90,90,790,15,0,0
208,21,0.0,0.0,0.0,2.6,176.2,0.8,0,0,0,90,90,180,180,90,90,790,14,0,0
209,21,0.0,0.0,0.0,2.7,176.1,0.8,0,0,0,90,90,180,180,90,90,790,16,0,0
210,21,0.0,0.0,0.0,2.8,176.0,0.8,0,0,0,90,90,180,180,90,90,790,16,0,0
211,33,0.0,0.0,0.0,2.9,176.0,0.8,0,0,0,90,90,180,180,90,90,790,17,0,0
212,33,0.0,0.0,0.0,2.8,176.2,0.8,0,0,0,90,90,180,180,90,90,791,15,0,0
213,19,0.0,0.0,0.0,2.8,176.1,0.6,0,0,0,90,90,180,180,90,90,791,15,0,0
214,19,0.0,0.0,0.0,2.9,176.1,0.6,0,0,0,90,90,180,180,90,90,790,15,0,0
215,33,0.0,0.0,0.0,2.8,176.1,0.6,0,0,0,90,90,180,180,90,90,790,14,0,0
216,33,0.0,0.0,0.0,2.9,176.1,0.6,0,0,5,90,90,180,180,90,90,790,22,0,0
217,19,0.0,0.0,0.0,2.8,176.1,0.6,0,0,5,90,90,180,180,90,90,790,16,0,0
218,19,0.0,0.0,0.0,2.8,176.2,0.6,0,0,5,90,90,180,180,90,90,790,15,0,0
219,19,0.0,0.0,0.0,2.8,176.4,0.6,0,0,5,90,90,180,180,90,90,791,15,0,0
220,33,0.0,0.0,0.0,2.9,176.3,0.6,0,0,0,90,90,180,180,90,90,790,15,0,0
221,33,0.0,0.0,0.0,3.0,176.0,0.6,0,0,0,90,90,180,180,90,90,790,14,0,0
222,33,0.0,0.0,0.0,3.0,175.7,0.6,0,0,0,90,90,180,180,90,90,791,13,0,0
223,33,0.0,0.0,0.0,2.9,175.8,0.6,0,0,0,90,90,180,180,90,90,790,15,0,0
224,33,0.0,0.0,0.0,2.8,176.1,0.6,0,0,0,90,90,180,180,90,90,791,15,0,0
225,33,0.0,0.0,0.0,2.9,176.3,0.6,0,0,5,90,90,180,180,90,90,791,16,0,0
226,33,0.0,0.0,0.0,2.9,176.0,0.6,0,0,5,90,90,180,180,90,90,791,16,0,0
227,33,0.0,0.0,0.0,2.8,176.0,0.4,0,0,0,90,90,180,180,90,90,790,14,0,0
228,33,0.0,0.0,0.0,2.9,176.1,0.4,0,0,0,90,90,180,180,90,90,790,16,0,0
229,33,0.0,0.0,0.0,2.9,176.1,0.4,0,0,0,90,90,180,180,90,90,790,14,0,0
230,33,0.0,0.0,0.0,2.7,176.2,0.4,0,0,0,90,90,180,180,90,90,790,15,0,0
231,33,0.0,0.0,0.0,2.5,176.4,0.0,0,0,57,90,90,180,180,90,90,790,15,0,0
232,33,0.0,0.0,0.0,2.5,176.4,0.0,0,0,57,90,90,180,180,90,90,791,14,0,0
233,33,0.0,0.0,0.0,2.6,176.3,0.0,0,0,57,90,90,180,180,90,90,791,15,0,0
234,33,0.0,0.0,0.0,2.7,176.2,0.4,0,0,0,90,90,180,180,90,90,791,14,0,0
235,19,0.0,0.0,0.0,2.8,176.2,0.4,0,0,0,90,90,180,180,90,90,790,16,0,0
236,19,0.0,0.0,0.0,3.1,176.0,0.4,0,0,0,90,90,180,180,90,90,791,15,0,0
237,19,0.0,0.0,0.0,3.0,176.1,0.4,0,0,0,90,90,180,180,90,90,790,15,0,0
238,19,0.0,0.0,0.0,3.0,176.0,0.4,0,0,0,90,90,180,180,90,90,790,15,0,0
239,19,0.0,0.0,0.0,2.9,175.9,0.4,0,0,0,90,90,180,180,90,90,791,14,0,0
240,19,0.0,0.0,0.0,2.8,176.1,0.4,0,0,0,90,90,180,180,90,90,791,16,0,0
241,19,0.0,0.0,0.0,2.7,176.1,0.4,0,0,0,90,90,180,180,90,90,790,15,0,0
242,19,0.0,0.0,0.0,2.8,176.0,0.4,0,0,0,90,90,180,180,90,90,790,15,0,0
243,19,0.0,0.0,0.0,2.8,176.3,0.4,0,0,0,90,90,180,180,90,90,790,14,0,0
244,19,0.0,0.0,0.0,2.7,176.2,0.4,0,0,0,90,90,180,180,90,90,790,15,0,0
245,19,0.0,0.0,0.0,2.7,175.9,0.4,0,0,0,90,90,180,180,90,90,790,14,0,0
246,19,0.0,0.0,0.0,2.9,175.8,0.4,0,0,0,90,90,180,180,90,90,790,15,0,0
247,19,0.0,0.0,0.0,2.9,176.0,0.4,0,0,0,90,90,180,180,90,90,790,15,0,0
248,19,0.0,0.0,0.0,2.9,175.8,0.4,0,0,0,90,90,180,180,90,90,789,14,0,0
249,19,0.0,0.0,0.0,2.8,175.8,0.4,0,0,0,90,90,180,180,90,90,791,15,0,0
250,19,0.0,0.0,0.0,2.8,175.9,0.4,0,0,0,90,90,180,180,90,90,790,15,0,0
251,19,0.0,0.0,0.0,2.9,175.8,0.4,0,0,0,90,90,180,180,90,90,790,15,0,0
252,19,0.0,0.0,0.0,3.0,175.5,0.4,0,0,0,90,90,180,180,90,90,790,15,0,0
253,19,0.0,0.0,0.0,3.1,175.5,0.4,0,0,0,90,90,180,180,90,90,791,15,0,0
254,19,0.0,0.0,0.0,3.0,175.6,0.4,0,0,0,90,90,180,180,90,90,790,17,0,0
255,19,0.0,0.0,0.0,2.9,175.8,0.4,0,0,0,90,90,180,180,90,90,791,15,0,0
256,19,0.0,0.0,0.0,2.9,176.0,0.0,0,0,0,90,90,180,180,90,90,790,17,0,0
257,19,0.0,0.0,0.0,2.9,175.9,0.0,0,0,0,90,90,180,180,90,90,790,13,0,0
258,19,0.0,0.0,0.0,2.9,175.7,0.0,0,0,0,90,90,180,180,90,90,790,16,0,0
259,19,0.0,0.0,0.0,2.9,175.8,0.0,0,0,0,90,90,180,180,90,90,790,20,0,0
260,19,0.0,0.0,0.0,2.9,175.7,0.0,0,0,0,90,90,180,180,90,90,791,15,0,0
261,19,0.0,0.0,0.0,2.9,175.4,0.0,0,0,0,90,90,180,180,90,90,791,14,0,0
262,19,0.0,0.0,0.0,2.9,175.6,0.0,0,0,0,90,90,180,180,90,90,791,5,0,0
263,19,0.0,0.0,0.0,2.8,175.8,0.0,0,0,0,90,90,180,180,90,90,791,15,0,0
264,19,0.0,0.0,0.0,2.8,175.8,0.0,0,0,0,90,90,180,180,90,90,791,14,0,0
265,19,0.0,0.0,0.0,2.7,175.8,0.0,0,0,0,90,90,180,180,90,90,791,15,0,0
266,19,0.0,0.0,0.0,2.9,175.7,0.0,0,0,0,90,90,180,180,90,90,790,16,0,0
267,19,0.0,0.0,0.0,3.0,175.7,0.0,0,0,0,90,90,180,180,90,90,790,14,0,0
268,19,0.0,0.0,0.0,3.1,175.4,0.0,0,0,0,90,90,180,180,90,90,790,17,0,0
269,19,0.0,0.0,0.0,3.0,175.4,0.0,0,0,0,90,90,180,180,90,90,790,15,0,0
270,19,0.0,0.0,0.0,2.9,175.5,0.0,0,0,0,90,90,180,180,90,90,790,15,0,0
271,19,0.0,0.0,0.0,2.8,175.8,0.0,0,0,0,90,90,180,180,90,90,790,14,0,0
272,19,0.0,0.0,0.0,2.8,175.9,0.0,0,0,0,90,90,180,180,90,90,791,8,0,0
273,19,0.0,0.0,0.0,2.8,175.9,0.0,0,0,0,90,90,180,180,90,90,790,17,0,0
274,19,0.0,0.0,0.0,2.8,175.8,0.0,0,0,0,90,90,180,180,90,90,790,17,0,0
275,19,0.0,0.0,0.0,2.7,175.5,0.0,0,0,0,90,90,180,180,90,90,790,16,0,0
276,19,0.0,0.0,0.0,2.8,175.5,0.4,0,0,507,90,90,180,180,90,90,791,6,0,0
277,19,0.0,0.0,0.0,2.7,175.7,0.4,0,0,507,90,90,180,180,90,90,791,6,0,0
278,19,0.0,0.0,0.0,2.8,175.4,0.4,0,0,507,90,90,180,180,90,90,791,15,0,0
279,19,0.0,0.0,0.0,2.9,175.4,0.0,0,0,0,90,90,180,180,90,90,791,15,0,0
280,19,0.0,0.0,0.0,2.9,175.7,0.0,0,0,0,90,90,180,180,90,90,790,14,0,0
281,19,0.0,0.0,0.0,2.9,175.4,0.0,0,0,0,90,90,180,180,90,90,790,14,0,0
282,19,0.0,0.0,0.0,2.8,175.2,0.0,0,0,0,90,90,180,180,90,90,790,14,0,0
283,19,0.0,0.0,0.0,2.8,175.2,0.4,0,0,567,90,90,180,180,90,90,790,15,0,0
284,19,0.0,0.0,0.0,2.8,175.3,0.4,0,0,567,90,90,180,180,90,90,791,14,0,0
285,19,0.0,0.0,0.0,2.8,175.4,0.4,0,0,567,90,90,180,180,90,90,791,15,0,0
286,19,0.0,0.0,0.0,2.8,175.5,0.4,0,0,567,90,90,180,180,90,90,791,13,0,0
287,33,0.0,0.0,0.0,2.9,175.6,0.4,0,0,567,90,90,180,180,90,90,790,13,0,0
288,33,0.0,0.0,0.0,2.8,175.5,0.0,0,0,0,90,90,180,180,90,90,791,15,0,0
289,19,0.0,0.0,0.0,2.8,175.6,0.0,0,0,0,90,90,180,180,90,90,791,15,0,0
290,19,0.0,0.0,0.0,2.7,175.8,0.4,0,56,7007,90,90,180,180,90,90,791,14,0,0
291,19,0.0,0.0,0.0,2.7,175.9,0.4,0,56,7007,90,90,180,180,90,90,791,17,0,0
292,19,0.0,0.0,0.0,2.8,175.7,0.0,0,0,0,90,90,180,180,90,90,790,16,0,0
293,19,0.0,0.0,0.0,2.8,175.8,0.0,0,0,0,90,90,180,180,90,90,790,16,0,0
294,19,0.0,0.0,0.0,2.8,175.6,0.0,0,0,0,90,90,180,180,90,90,790,17,0,0
295,19,0.0,0.0,0.0,2.8,175.6,0.0,0,0,0,90,90,180,180,90,90,790,15,0,0
296,19,0.0,0.0,0.0,2.9,175.6,0.4,0,567,8985,90,90,180,180,90,90,790,16,0,0
297,19,0.0,0.0,0.0,3.0,175.5,0.0,0,0,0,90,90,180,180,90,90,790,15,0,0
298,19,0.0,0.0,0.0,2.9,175.5,0.0,0,0,0,90,90,180,180,90,90,790,15,0,0
299,19,0.0,0.0,0.0,2.8,175.5,0.0,0,0,0,90,90,180,180,90,90,790,15,0,0
300,19,0.0,0.0,0.0,2.7,175.7,0.0,0,0,0,90,90,180,180,90,90,790,17,0,0
301,19,0.0,0.0,0.0,2.8,175.9,0.4,0,567,9149,90,90,180,180,90,90,791,18,0,0
302,19,0.0,0.0,0.0,2.8,175.8,0.4,0,567,9149,90,90,180,180,90,90,791,13,0,0
303,19,0.0,0.0,0.0,2.8,175.7,0.0,0,0,0,90,90,180,180,90,90,791,12,0,0
304,19,0.0,0.0,0.0,2.8,175.5,0.0,0,0,0,90,90,180,180,90,90,790,16,0,0
305,19,0.0,0.0,0.0,2.8,175.4,0.0,0,0,0,90,90,180,180,90,90,791,7,0,0
306,19,0.0,0.0,0.0,2.9,175.3,0.4,0,567,9116,90,90,180,180,90,90,790,14,0,0
307,19,0.0,0.0,0.0,2.9,175.3,0.4,0,567,9116,90,90,180,180,90,90,790,14,0,0
308,19,0.0,0.0,0.0,2.9,175.6,0.0,0,0,0,90,90,180,180,90,90,790,16,0,0
309,19,0.0,0.0,0.0,3.1,175.6,0.0,0,0,0,90,90,180,180,90,90,790,14,0,0
310,19,0.0,0.0,0.0,3.1,175.4,0.0,0,0,0,90,90,180,180,90,90,790,15,0,0
311,19,0.0,0.0,0.0,3.0,175.5,0.0,0,0,0,90,90,180,180,90,90,790,13,0,0
312,19,0.0,0.0,0.0,2.7,175.7,0.4,0,567,9025,90,90,180,180,90,90,790,15,0,0
313,19,0.0,0.0,0.0,2.6,175.8,0.4,0,567,9025,90,90,180,180,90,90,791,7,0,0
314,19,0.0,0.0,0.0,2.8,175.8,0.0,0,0,0,90,90,180,180,90,90,791,7,0,0
315,19,0.0,0.0,0.0,2.9,175.9,0.0,0,0,0,90,90,180,180,90,90,790,15,0,0
316,19,0.0,0.0,0.0,2.9,175.9,0.0,0,0,0,90,90,180,180,90,90,790,14,0,0
317,19,0.0,0.0,0.0,2.9,175.9,0.4,0,567,8813,90,90,180,180,90,90,791,15,0,0
318,19,0.0,0.0,0.0,3.0,176.1,0.4,0,567,8813,90,90,180,180,90,90,790,14,0,0
319,19,0.0,0.0,0.0,2.8,176.0,0.0,0,0,0,90,90,180,180,90,90,790,14,0,0
320,19,0.0,0.0,0.0,2.8,175.8,0.0,0,0,0,90,90,180,180,90,90,790,15,0,0
321,19,0.0,0.0,0.0,2.8,176.0,0.0,0,0,0,90,90,180,180,90,90,790,15,0,0
322,33,0.0,0.0,0.0,2.8,175.9,0.0,0,0,0,90,90,180,180,90,90,791,16,0,0
323,33,0.0,0.0,0.0,2.9,176.1,0.0,0,0,0,90,90,180,180,90,90,791,14,0,0
324,19,0.0,0.0,0.0,2.9,176.2,0.0,0,0,0,90,90,180,180,90,90,790,15,0,0
325,19,0.0,0.0,0.0,2.8,176.2,0.0,0,0,0,90,90,180,180,90,90,790,15,0,0
326,19,0.0,0.0,0.0,2.8,176.2,0.0,0,0,0,90,90,180,180,90,90,790,15,0,0
327,19,0.0,0.0,0.0,2.8,176.6,0.0,0,0,0,90,90,180,180,90,90,790,15,0,0
328,19,0.0,0.0,0.0,2.9,176.3,0.4,0,567,8931,90,90,180,180,90,90,790,19,0,0
329,19,0.0,0.0,0.0,3.0,176.2,0.4,0,567,8931,90,90,180,180,90,90,790,16,0,0
330,19,0.0,0.0,0.0,2.9,176.2,0.0,0,0,0,90,90,180,180,90,90,790,15,0,0
331,19,0.0,0.0,0.0,2.8,176.5,0.0,0,0,0,90,90,180,180,90,90,791,16,0,0
332,19,0.0,0.0,0.0,2.8,176.6,0.0,0,0,0,90,90,180,180,90,90,790,17,0,0
333,19,0.0,0.0,0.0,2.8,176.3,0.4,0,0,0,90,90,180,180,90,90,791,14,0,0
334,19,0.0,0.0,0.0,2.7,176.3,0.4,0,0,0,90,90,180,180,90,90,790,16,0,0
335,19,0.0,0.0,0.0,2.7,176.6,0.0,0,0,0,90,90,180,180,90,90,790,14,0,0
336,19,0.0,0.0,0.0,2.9,176.6,0.0,0,0,0,90,90,180,180,90,90,790,14,0,0
337,19,0.0,0.0,0.0,3.0,176.6,0.0,0,0,0,90,90,180,180,90,90,790,15,0,0
338,19,0.0,0.0,0.0,2.9,176.5,0.0,0,0,0,90,90,180,180,90,90,790,12,0,0
339,19,0.0,0.0,0.0,2.9,176.6,0.0,0,0,0,90,90,180,180,90,90,790,14,0,0
340,19,0.0,0.0,0.0,2.8,176.5,0.0,0,0,0,90,90,180,180,90,90,791,13,0,0
341,19,0.0,0.0,0.0,2.8,176.5,0.0,0,0,0,90,90,180,180,90,90,791,15,0,0
342,19,0.0,0.0,0.0,2.9,176.5,0.0,0,0,0,90,90,180,180,90,90,791,13,0,0
343,19,0.0,0.0,0.0,2.9,176.3,0.0,0,0,0,90,90,180,180,90,90,790,14,0,0
344,19,0.0,0.0,0.0,2.8,176.2,0.2,0,0,0,90,90,180,180,90,90,790,13,0,0
345,19,0.0,0.0,0.0,2.9,176.3,0.2,0,0,0,90,90,180,180,90,90,790,14,0,0
346,19,0.0,0.0,0.0,3.0,176.5,0.0,0,0,0,90,90,180,180,90,90,791,15,0,0
347,19,0.0,0.0,0.0,3.1,176.6,0.0,0,0,0,90,90,180,180,90,90,790,14,0,0
348,19,0.0,0.0,0.0,3.1,176.6,0.0,0,0,0,90,90,180,180,90,90,790,15,0,0
349,19,0.0,0.0,0.0,3.0,176.7,0.0,0,0,0,90,90,180,180,90,90,790,14,0,0
350,19,0.0,0.0,0.0,3.0,176.6,0.0,0,0,0,90,90,180,180,90,90,790,15,0,0
351,19,0.0,0.0,0.0,3.0,176.4,0.0,0,0,0,90,90,180,180,90,90,790,15,0,0
