time*0.5 [s],altitude [cm],rot_old [rpm],airspeed [m/s],yaw [deg],pitch [deg],roll [deg],rot_twe [rpm],thrust_h,thrust_m,thrust_l,rudder,elevator,rudderFB,elevatorFB,rudderTrim,elevatortrim,battVoltage,battCurrent,nunchuckC,nunchuckZ
1,32,0.0,0.0,0.0,-0.2,0.2,0.0,0,0,0,90,90,180,180,90,90,795,15,0,0
2,32,0.0,3.251,0.0,-0.3,0.1,1.2,0,5,6895,90,90,180,180,90,90,795,13,0,0
3,32,0.0,3.251,0.0,-0.4,0.2,1.2,0,5,6895,90,90,180,180,90,90,794,16,0,0
4,32,0.0,3.251,0.0,-0.3,0.2,1.2,0,5,6895,90,90,180,180,90,90,795,13,0,0
5,32,0.0,3.251,0.0,-0.4,0.0,1.2,0,5,6895,90,90,180,180,90,90,795,15,0,0
6,32,0.0,3.251,0.0,-0.4,0.0,1.2,0,5,6895,90,90,180,180,90,90,794,15,0,0
7,32,0.0,0.0,0.0,-0.3,0.1,1.2,0,5,6895,90,90,180,180,90,90,795,13,0,0
8,32,0.0,0.0,0.0,-0.5,0.2,1.2,0,5,6895,90,90,180,180,90,90,795,15,0,0
9,32,0.0,0.0,0.0,-0.4,0.1,1.2,0,5,6896,90,90,180,180,90,90,795,15,0,0
10,32,0.0,0.0,0.0,-0.4,0.0,1.2,0,5,6896,90,90,180,180,90,90,795,13,0,0
11,32,0.0,0.0,0.0,-0.3,0.2,1.2,0,5,6896,90,90,180,180,90,90,794,15,0,0
12,32,0.0,0.0,0.0,-0.2,0.3,1.2,0,5,6896,90,90,180,180,90,90,795,15,0,0
13,32,0.0,0.0,0.0,-0.2,0.3,1.2,0,5,6896,90,90,180,180,90,90,795,13,0,0
14,32,0.0,0.0,0.0,-0.4,0.5,1.2,0,5,6896,90,90,180,180,90,90,794,17,0,0
15,32,0.0,0.0,0.0,-0.4,0.4,1.2,0,5,6896,90,90,180,180,90,90,794,12,0,0
16,32,0.0,0.0,0.0,-0.4,0.3,1.3,0,0,0,90,90,180,180,90,90,795,15,0,0
17,33,0.0,0.0,0.0,-0.5,0.7,1.3,0,0,0,90,90,180,180,90,90,795,15,0,0
18,33,0.0,0.0,0.0,-0.4,0.5,1.3,0,0,0,90,90,180,180,90,90,795,16,0,0
19,33,0.0,0.0,0.0,-0.5,0.5,1.3,0,0,0,90,90,180,180,90,90,794,16,0,0
20,33,0.0,0.0,0.0,-0.7,0.4,1.3,0,568,9727,90,90,180,180,90,90,794,25,0,0
21,33,0.0,0.0,0.0,-0.4,0.0,1.3,0,568,9727,90,90,180,180,90,90,795,11,0,0
22,33,0.0,0.0,0.0,-0.3,0.0,0.8,0,0,0,90,90,180,180,90,90,792,28,0,0
23,33,0.0,0.0,0.0,-0.2,-0.1,0.8,0,0,0,90,90,180,180,90,90,795,15,0,0
24,33,0.0,0.0,0.0,-0.4,-0.2,0.8,0,0,0,90,90,180,180,90,90,794,17,0,0
25,33,0.0,0.0,0.0,-1.3,-0.4,60.5,0,568,9266,90,90,180,180,90,90,794,14,0,0
26,32,0.0,0.0,0.0,-2.3,-0.7,60.5,0,568,9266,90,90,180,180,90,90,794,30,0,0
27,32,0.0,0.0,0.0,-3.0,-0.4,101.1,0,0,0,90,90,180,180,90,90,794,22,0,0
28,32,0.0,0.0,0.0,-3.2,0.0,101.1,0,0,0,90,90,180,180,90,90,792,44,0,0
29,33,0.0,0.0,0.0,-2.8,0.0,101.1,0,0,0,90,90,180,180,90,90,794,18,0,0
30,33,0.0,0.0,0.0,-2.1,0.2,101.1,0,0,0,90,90,180,180,90,90,795,6,0,0
31,33,0.0,0.0,0.0,-1.2,0.0,101.1,0,0,0,90,90,180,180,90,90,792,39,0,0
32,32,0.0,2.614,0.0,-1.4,-0.9,124.8,0,0,0,90,90,180,180,90,90,794,23,0,0
33,32,0.0,2.585,0.0,-1.4,-0.8,130.5,0,568,1289,90,90,180,180,90,90,795,7,0,0
34,32,0.0,2.585,0.0,-1.5,-0.5,130.5,0,568,1289,90,90,180,180,90,90,795,9,0,0
35,33,0.0,2.781,0.0,-2.1,0.4,136.7,0,569,386,90,90,180,180,90,90,795,14,0,0
36,33,0.0,3.878,0.0,-2.2,0.0,136.7,0,569,386,90,90,180,180,90,90,792,34,0,0
37,33,0.0,3.971,0.0,-1.9,0.0,137.3,0,0,71,90,90,180,180,90,90,792,44,0,0
38,32,0.0,6.891,0.0,-1.2,-1.3,136.0,0,568,6809,90,90,180,180,90,90,794,30,0,0
39,32,0.0,3.908,0.0,-1.4,-2.2,141.0,0,567,5531,90,90,180,180,90,90,794,28,0,0
40,32,0.0,2.804,0.0,-1.8,-2.9,140.4,0,0,5,90,105,180,180,90,90,795,8,0,0
41,33,0.0,0.48,0.0,-1.8,-2.9,137.0,0,569,1738,90,109,180,180,90,90,795,6,0,0
42,33,0.0,2.964,0.0,-2.1,-0.8,137.1,0,568,3009,90,117,180,180,90,90,795,14,0,0
43,33,0.0,3.033,0.0,-2.6,0.2,140.8,0,0,5,90,90,180,180,90,90,792,30,0,0
44,33,0.0,3.566,0.0,-1.7,-0.4,138.0,0,568,7107,90,90,180,180,90,90,794,20,0,0
45,33,0.0,4.184,0.0,-1.2,0.0,145.4,0,0,0,90,90,180,180,90,90,795,8,0,0
46,33,0.0,0.867,0.0,-1.4,-0.5,142.8,0,568,8510,90,90,180,180,90,90,795,9,0,0
47,33,0.0,0.884,0.0,-3.5,-0.8,142.6,0,0,0,90,90,180,180,90,90,796,5,0,0
48,33,0.0,0.662,0.0,-4.6,0.5,143.2,0,567,8954,90,90,180,180,90,90,795,15,0,0
49,33,0.0,3.589,0.0,-3.8,1.4,140.7,0,0,568,90,90,180,180,90,90,795,6,0,0
50,32,0.0,2.815,0.0,-2.4,2.3,0.0,0,0,0,90,90,180,180,90,90,795,8,0,0
51,32,0.0,4.038,0.0,-2.3,2.6,0.0,0,0,0,90,66,180,180,90,90,794,32,0,0
52,32,0.0,3.304,0.0,-1.8,1.9,144.1,0,568,5720,90,72,180,180,90,90,794,7,0,0
53,32,0.0,3.34,0.0,-2.1,1.7,42.7,0,568,5404,90,72,180,180,90,90,792,37,0,0
54,32,0.0,2.182,0.0,-2.9,2.0,147.8,0,0,0,90,72,180,180,90,90,794,10,0,0
55,32,0.0,2.585,0.0,-4.0,1.6,148.2,0,0,0,90,88,180,180,90,90,791,53,0,0
56,32,0.0,2.991,0.0,-6.2,2.1,145.4,0,0,0,90,90,180,180,90,90,795,5,0,0
57,32,0.0,3.738,0.0,-6.5,-139.8,145.3,0,0,0,90,90,180,180,90,90,794,19,0,0
58,32,0.0,0.02,0.0,-7.2,-139.5,146.8,0,0,0,90,90,180,180,90,90,795,5,0,0
59,33,0.0,0.164,0.0,-7.1,4.1,144.6,0,568,8878,90,87,180,180,90,90,791,52,0,0
60,33,0.0,0.006,0.0,-7.2,-67.7,140.6,0,569,9204,90,90,180,180,90,90,795,6,0,0
61,33,0.0,2.875,0.0,-6.6,3.1,143.5,0,0,568,90,90,180,180,90,90,795,9,0,0
62,33,0.0,0.382,0.0,-5.7,1.5,145.4,0,0,5,90,90,180,180,90,90,795,7,0,0
63,33,0.0,0.004,0.0,-5.3,1.5,145.1,0,56,9136,90,90,180,180,90,90,792,33,0,0
64,32,0.0,0.006,0.0,-5.4,2.1,146.4,0,568,6765,90,90,180,180,90,90,795,9,0,0
65,32,0.0,0.211,0.0,-7.0,2.9,143.5,0,0,0,90,90,180,180,90,90,795,7,0,0
66,33,0.0,0.063,0.0,-8.3,-67.7,141.2,0,0,5697,90,107,180,180,90,90,792,45,0,0
67,33,0.0,2.951,0.0,-7.5,149.0,148.8,0,0,5683,90,127,180,180,90,90,794,21,0,0
68,33,0.0,3.417,0.0,-6.4,77.4,149.1,0,0,0,90,127,180,180,90,90,794,9,0,0
69,32,0.0,0.638,0.0,-7.7,6.2,152.6,0,0,8000,90,138,180,180,90,90,794,12,0,0
70,32,0.0,4.224,0.0,-8.6,6.5,158.5,0,568,9852,90,146,180,180,90,90,790,76,0,0
71,32,0.0,1.623,0.0,-8.6,149.5,158.5,0,568,9852,90,145,180,180,90,90,792,38,0,0
72,33,0.0,0.277,0.0,-9.5,3.4,158.2,0,0,56,90,145,180,180,90,90,794,21,0,0
73,33,0.0,0.011,0.0,-8.8,2.6,158.1,0,0,0,90,90,180,180,90,90,795,7,0,0
74,33,0.0,0.182,0.0,-10.0,3.1,152.8,0,0,0,90,90,180,180,90,90,794,21,0,0
75,33,0.0,0.066,0.0,-8.5,-139.5,151.8,0,0,105,117,90,180,180,90,90,794,25,0,0
76,33,0.0,0.029,0.0,-7.4,5.9,146.8,0,569,2818,98,103,180,180,90,90,791,81,0,0
77,33,0.0,0.423,0.0,-7.9,77.8,163.1,0,569,3347,95,108,180,180,90,90,789,61,0,0
78,33,0.0,5.36,0.0,-8.4,6.2,144.2,0,568,6312,99,160,180,180,90,90,789,101,0,0
79,33,0.0,0.412,0.0,-9.8,6.6,149.2,0,0,56,96,125,180,180,90,90,795,9,0,0
80,33,0.0,0.587,0.0,-10.7,8.9,150.4,0,568,580,96,125,180,180,90,90,795,7,0,0
81,32,0.0,0.766,0.0,-11.6,9.8,152.6,0,568,8470,90,90,180,180,90,90,788,115,0,0
82,32,0.0,0.037,0.0,-12.2,8.7,154.5,0,0,5679,90,90,180,180,90,90,795,7,0,0
83,32,0.0,0.159,0.0,-11.4,7.6,148.7,0,56,8749,90,90,180,180,90,90,794,20,0,0
84,33,0.0,0.026,0.0,-11.1,8.6,145.1,0,568,6788,90,54,180,180,90,90,776,300,0,0
85,33,0.0,0.55,0.0,-11.6,9.2,142.7,0,568,9940,90,90,180,180,90,90,783,245,0,0
86,33,0.0,1.338,0.0,-11.9,9.5,133.7,0,569,4476,90,90,180,180,90,90,795,6,0,0
87,32,0.0,0.003,0.0,-11.4,8.6,101.0,0,569,1687,90,90,180,180,90,90,795,5,0,0
88,32,0.0,0.668,0.0,-9.9,6.6,85.9,0,568,6305,90,90,180,180,90,90,795,9,0,0
89,32,0.0,0.165,0.0,-6.2,6.0,80.2,0,569,1575,90,90,180,180,90,90,794,13,0,0
90,32,0.0,0.035,0.0,-5.5,5.8,75.9,0,568,9212,90,90,180,180,90,90,792,18,0,0
91,32,0.0,0.024,0.0,-4.4,-139.0,69.8,0,569,7773,90,143,180,180,90,90,792,32,0,0
92,32,0.0,0.023,0.0,-2.4,-68.3,67.2,0,568,7017,94,177,180,180,90,90,792,46,0,0
93,32,0.0,0.249,0.0,-1.4,2.0,71.3,0,569,1677,94,177,180,180,90,90,794,14,0,0
94,33,0.0,0.164,0.0,-0.1,2.4,52.7,0,578,6247,94,177,180,180,90,90,795,9,0,0
95,33,0.0,0.096,0.0,0.1,3.4,52.7,0,578,6247,94,177,180,180,90,90,795,8,0,0
96,33,0.0,0.122,0.0,-1.4,3.8,62.8,0,0,5690,94,178,180,180,90,90,794,14,0,0
97,32,0.0,4.265,0.0,-3.7,3.6,54.9,0,0,0,94,178,180,180,90,90,794,14,0,0
98,32,0.0,6.074,0.0,-4.0,-139.3,57.1,0,0,5690,94,178,180,180,90,90,794,13,0,0
99,33,0.0,0.007,0.0,-4.5,-67.6,60.9,0,0,6,94,178,180,180,90,90,795,12,0,0
100,33,0.0,0.01,0.0,-4.2,2.8,59.2,0,0,568,94,178,180,180,90,90,795,10,0,0
101,33,0.0,0.41,0.0,-2.2,1.3,54.4,0,0,56,92,178,180,180,90,90,794,13,0,0
102,33,0.0,3.738,0.0,-1.6,0.0,52.9,0,0,56,92,178,180,180,90,90,794,12,0,0
103,33,0.0,4.92,0.0,-1.0,-0.6,54.6,0,0,5611,92,178,180,180,90,90,795,9,0,0
104,33,0.0,3.878,0.0,0.0,0.0,52.4,0,56,9139,92,178,180,180,90,90,795,5,0,0
105,33,0.0,1.711,0.0,0.3,-0.4,50.5,0,0,568,92,178,180,180,90,90,794,11,0,0
106,34,0.0,1.859,0.0,1.5,-1.1,49.4,0,0,569,92,178,180,180,90,90,794,15,0,0
107,34,0.0,2.151,0.0,1.9,-1.0,49.4,0,0,568,92,178,180,180,90,90,795,9,0,0
108,34,0.0,2.77,0.0,2.4,-1.1,49.4,0,0,568,92,178,180,180,90,90,794,20,0,0
109,32,0.0,2.77,0.0,2.2,-1.9,49.4,0,0,568,94,178,180,180,90,90,795,10,0,0
110,32,0.0,2.77,0.0,2.7,-1.2,49.5,0,0,568,102,178,180,180,90,90,795,11,0,0
111,32,0.0,2.77,0.0,2.7,-0.8,49.5,0,0,568,107,141,180,180,90,90,794,7,0,0
112,33,0.0,2.792,0.0,2.6,-1.0,48.0,0,0,569,90,90,180,180,90,90,792,60,0,0
113,33,0.0,2.792,0.0,2.2,-1.3,48.0,0,0,569,88,9,180,180,90,90,794,11,0,0
114,33,0.0,2.792,0.0,2.3,-1.3,48.0,0,0,569,90,6,180,180,90,90,794,14,0,0
115,32,0.0,0.0,0.0,2.5,-1.0,34.8,0,0,568,90,5,180,180,90,90,794,12,0,0
116,32,0.0,0.0,0.0,2.3,-0.8,34.8,0,0,568,90,90,180,180,90,90,791,43,0,0
117,32,0.0,0.0,0.0,2.0,-1.2,29.4,0,0,569,90,90,180,180,90,90,794,20,0,0
118,32,0.0,0.0,0.0,1.3,-1.7,29.4,0,0,569,90,90,180,180,90,90,794,15,0,0
119,32,0.0,0.0,0.0,0.5,-0.9,29.4,0,0,569,90,90,180,180,90,90,794,12,0,0
120,32,0.0,0.0,0.0,0.1,-0.6,29.4,0,0,569,90,90,180,180,90,90,794,13,0,0
121,32,0.0,0.0,0.0,0.0,-0.6,32.0,0,0,569,90,90,180,180,90,90,792,19,0,0
122,32,0.0,0.0,0.0,-0.1,-0.9,29.8,0,0,568,90,90,180,180,90,90,794,13,0,0
123,32,0.0,0.0,0.0,-0.1,-1.0,29.8,0,0,568,90,90,180,180,90,90,794,14,0,0
124,32,0.0,0.0,0.0,-0.1,-0.8,29.8,0,0,568,90,90,180,180,90,90,794,11,0,0
125,32,0.0,0.0,0.0,-0.2,-0.7,29.8,0,0,568,90,90,180,180,90,90,795,11,0,0
126,32,0.0,0.0,0.0,-0.2,-0.9,19.6,0,0,569,90,90,180,180,90,90,794,14,0,0
127,32,0.0,0.0,0.0,-0.1,-0.7,19.6,0,0,569,90,90,180,180,90,90,794,15,0,0
128,32,0.0,0.0,0.0,-0.1,-0.7,15.7,0,0,568,90,90,180,180,90,90,794,13,0,0
129,32,0.0,0.0,0.0,-0.1,-1.0,15.7,0,0,568,90,90,180,180,90,90,794,14,0,0
130,32,0.0,0.0,0.0,-0.2,-1.0,15.7,0,0,568,90,90,180,180,90,90,794,12,0,0
131,32,0.0,0.0,0.0,-0.2,-0.9,15.7,0,0,568,90,90,180,180,90,90,794,13,0,0
132,32,0.0,0.0,0.0,-0.3,-0.7,15.7,0,0,568,90,90,180,180,90,90,794,11,0,0
133,32,0.0,0.0,0.0,-0.3,-1.1,13.1,0,0,568,90,90,180,180,90,90,794,12,0,0
134,32,0.0,0.0,0.0,-0.2,-1.1,13.1,0,0,568,90,90,180,180,90,90,794,15,0,0
135,32,0.0,0.0,0.0,-0.1,-0.9,13.1,0,0,568,90,90,180,180,90,90,794,15,0,0
136,32,0.0,0.0,0.0,-0.1,-0.9,13.1,0,0,568,90,90,180,180,90,90,795,7,0,0
137,32,0.0,0.0,0.0,-0.2,-0.9,13.1,0,0,5683,90,90,180,180,90,90,794,15,0,0
138,32,0.0,0.0,0.0,-0.2,-0.9,13.1,0,0,5683,90,90,180,180,90,90,794,13,0,0
139,32,0.0,0.0,0.0,0.0,-0.9,13.1,0,0,5683,90,90,180,180,90,90,794,13,0,0
140,32,0.0,0.0,0.0,0.0,-0.7,13.1,0,0,5683,90,90,180,180,90,90,794,16,0,0
141,32,0.0,0.0,0.0,-0.2,-0.5,13.1,0,0,5683,90,90,180,180,90,90,794,13,0,0
142,32,0.0,0.0,0.0,-0.1,-0.8,13.1,0,0,5683,90,90,180,180,90,90,794,13,0,0
143,32,0.0,0.0,0.0,-0.2,-0.8,13.1,0,0,5683,90,90,180,180,90,90,794,12,0,0
144,32,0.0,0.0,0.0,-0.2,-0.7,11.8,0,0,5683,90,90,180,180,90,90,794,14,0,0
145,32,0.0,0.0,0.0,-0.2,-0.7,11.8,0,0,5683,90,90,180,180,90,90,795,13,0,0
146,33,0.0,0.0,0.0,-0.2,-0.7,11.8,0,0,5683,90,90,180,180,90,90,794,13,0,0
147,33,0.0,0.0,0.0,-0.2,-0.7,11.8,0,0,5683,90,90,180,180,90,90,795,12,0,0
148,33,0.0,0.0,0.0,-0.3,-1.0,11.8,0,0,5683,90,90,180,180,90,90,795,13,0,0
149,32,0.0,0.0,0.0,-0.2,-0.9,11.8,0,0,5682,90,90,180,180,90,90,794,17,0,0
150,32,0.0,0.0,0.0,-0.2,-0.7,11.8,0,0,5682,90,90,180,180,90,90,792,13,0,0
151,32,0.0,0.0,0.0,-0.2,-0.7,2.7,0,0,0,90,90,180,180,90,90,795,12,0,0
152,32,0.0,0.0,0.0,-0.2,-0.6,2.7,0,0,0,90,90,180,180,90,90,795,12,0,0
153,32,0.0,0.0,0.0,-0.3,-0.7,2.7,0,0,568,90,90,180,180,90,90,794,17,0,0
154,32,0.0,0.0,0.0,-0.3,-0.5,2.7,0,0,568,90,90,180,180,90,90,795,11,0,0
155,32,0.0,0.0,0.0,-0.3,-0.6,2.7,0,568,3004,90,90,180,180,90,90,795,11,0,0
156,32,0.0,0.0,0.0,-0.2,-1.1,2.7,0,568,3004,90,90,180,180,90,90,794,14,0,0
157,32,0.0,0.0,0.0,-0.2,-1.3,2.7,0,568,3004,90,90,180,180,90,90,794,13,0,0
158,32,0.0,0.0,0.0,-0.1,-1.3,2.7,0,568,2331,90,90,180,180,90,90,794,14,0,0
159,32,0.0,0.0,0.0,-0.2,-1.0,2.7,0,568,2331,90,90,180,180,90,90,794,15,0,0
160,32,0.0,0.0,0.0,-0.1,-0.6,2.7,0,5,6801,90,90,180,180,90,90,794,20,0,0
161,32,0.0,0.0,0.0,-0.1,-0.6,2.7,0,5,6801,90,90,180,180,90,90,795,14,0,0
162,32,0.0,0.0,0.0,-0.1,-0.7,2.7,0,0,568,90,90,180,180,90,90,794,15,0,0
163,32,0.0,0.0,0.0,-0.2,-0.7,2.7,0,0,568,90,90,180,180,90,90,794,14,0,0
164,32,0.0,0.0,0.0,-0.3,-0.7,2.7,0,568,2278,90,90,180,180,90,90,794,12,0,0
165,32,0.0,0.0,0.0,-0.2,-0.8,2.7,0,568,2278,90,90,180,180,90,90,794,12,0,0
166,32,0.0,0.0,0.0,-0.3,-0.7,2.7,0,568,2278,90,90,180,180,90,90,795,13,0,0
167,32,0.0,0.0,0.0,-0.3,-0.8,2.7,0,568,2790,90,90,180,180,90,90,794,12,0,0
168,32,0.0,0.0,0.0,-0.1,-0.6,2.7,0,568,2790,90,90,180,180,90,90,795,5,0,0
169,32,0.0,0.0,0.0,-0.1,-0.6,2.7,0,0,5,90,90,180,180,90,90,794,20,0,0
170,32,0.0,0.0,0.0,-0.2,-0.6,2.7,0,0,5,90,90,180,180,90,90,794,14,0,0
171,32,0.0,0.0,0.0,0.0,-0.9,2.7,0,568,2639,90,90,180,180,90,90,795,12,0,0
172,32,0.0,0.0,0.0,0.0,-0.8,2.7,0,568,2639,90,90,180,180,90,90,794,11,0,0
173,32,0.0,0.0,0.0,0.0,-0.8,2.7,0,568,2639,90,90,180,180,90,90,795,12,0,0
174,32,0.0,0.0,0.0,0.0,-0.8,2.7,0,0,5,90,90,180,180,90,90,794,13,0,0
175,32,0.0,0.0,0.0,0.0,-1.0,2.7,0,0,5,90,90,180,180,90,90,794,17,0,0
176,32,0.0,0.0,0.0,0.0,-0.9,2.7,0,568,2753,90,90,180,180,90,90,795,5,0,0
177,33,0.0,0.0,0.0,0.0,-0.7,2.7,0,568,2753,90,90,180,180,90,90,794,16,0,0
178,33,0.0,0.0,0.0,0.0,-0.9,2.7,0,568,2753,90,90,180,180,90,90,794,14,0,0
179,33,0.0,0.0,0.0,-0.1,-0.8,2.7,0,568,2753,90,90,180,180,90,90,794,13,0,0
180,33,0.0,0.0,0.0,-0.2,-0.7,0.0,0,0,0,90,90,180,180,90,90,794,15,0,0
181,33,0.0,0.0,0.0,-0.2,-0.9,0.0,0,0,0,90,90,180,180,90,90,794,15,0,0
182,33,0.0,0.0,0.0,-0.2,-0.9,0.0,0,0,0,90,90,180,180,90,90,794,14,0,0
183,33,0.0,0.0,0.0,-0.2,-0.8,1.9,0,568,2307,90,90,180,180,90,90,794,13,0,0
184,33,0.0,0.0,0.0,-0.1,-0.7,1.9,0,568,2307,90,90,180,180,90,90,795,13,0,0
185,33,0.0,0.0,0.0,0.0,-0.7,0.1,0,0,0,90,90,180,180,90,90,794,14,0,0
186,33,0.0,0.0,0.0,-0.1,-0.6,0.1,0,0,0,90,90,180,180,90,90,794,12,0,0
187,33,0.0,0.0,0.0,-0.1,-0.3,1.9,0,568,1472,90,90,180,180,90,90,794,12,0,0
188,33,0.0,0.0,0.0,-0.1,-0.4,1.9,0,568,1472,90,90,180,180,90,90,794,14,0,0
189,33,0.0,0.0,0.0,-0.2,-0.5,1.9,0,568,1472,90,90,180,180,90,90,794,13,0,0
190,33,0.0,0.0,0.0,-0.2,-0.6,0.1,0,0,0,90,90,180,180,90,90,794,14,0,0
191,33,0.0,0.0,0.0,-0.2,-0.6,0.1,0,0,0,90,90,180,180,90,90,794,12,0,0
192,33,0.0,0.0,0.0,-0.2,-0.7,1.9,0,568,2164,90,90,180,180,90,90,795,12,0,0
193,33,0.0,0.0,0.0,-0.3,-0.7,1.9,0,568,2164,90,90,180,180,90,90,794,18,0,0
194,33,0.0,0.0,0.0,-0.2,-0.9,1.9,0,568,2164,90,90,180,180,90,90,794,13,0,0
195,33,0.0,0.0,0.0,-0.1,-0.8,1.9,0,568,2164,90,90,180,180,90,90,794,15,0,0
196,33,0.0,0.0,0.0,0.0,-1.0,0.0,0,0,0,90,90,180,180,90,90,794,15,0,0
197,33,0.0,0.0,0.0,0.6,-0.8,0.0,0,0,0,90,90,180,180,90,90,794,11,0,0
198,33,0.0,0.0,0.0,0.9,-0.8,0.0,0,0,0,90,90,180,180,90,90,795,14,0,0
199,33,0.0,0.0,0.0,0.9,-1.4,0.7,0,568,2686,90,90,180,180,90,90,794,10,0,0
200,33,0.0,0.0,0.0,0.7,-1.4,0.7,0,568,2686,90,90,180,180,90,90,794,13,0,0
201,33,0.0,0.0,0.0,0.5,-1.2,0.0,0,0,0,90,90,180,180,90,90,794,12,0,0
202,33,0.0,0.0,0.0,0.4,-1.0,0.0,0,0,0,90,90,180,180,90,90,794,14,0,0
203,33,0.0,0.0,0.0,0.3,-1.0,0.7,0,568,2477,90,90,180,180,90,90,794,15,0,0
204,33,0.0,0.0,0.0,0.3,-1.1,0.7,0,568,2477,90,90,180,180,90,90,794,14,0,0
205,33,0.0,0.0,0.0,0.3,-1.3,0.7,0,568,2477,90,90,180,180,90,90,794,13,0,0
206,33,0.0,0.0,0.0,0.2,-1.4,0.7,0,568,2477,90,90,180,180,90,90,794,14,0,0
207,33,0.0,0.0,0.0,0.0,-0.9,0.7,0,568,2477,90,90,180,180,90,90,794,13,0,0
208,33,0.0,0.0,0.0,-0.2,-1.1,0.8,0,568,2218,90,90,180,180,90,90,794,19,0,0
209,33,0.0,0.0,0.0,-0.2,-1.1,0.8,0,568,2218,90,90,180,180,90,90,794,12,0,0
210,33,0.0,0.0,0.0,-0.2,-1.0,0.8,0,568,2218,90,90,180,180,90,90,794,11,0,0
211,33,0.0,0.0,0.0,-0.2,-1.2,0.8,0,568,2218,90,90,180,180,90,90,794,14,0,0
212,33,0.0,0.0,0.0,-0.4,-1.3,0.0,0,0,0,90,90,180,180,90,90,794,13,0,0
213,33,0.0,0.0,0.0,-0.3,-1.5,0.0,0,0,0,90,90,180,180,90,90,794,19,0,0
214,33,0.0,0.0,0.0,-0.3,-1.4,0.9,0,568,4399,90,90,180,180,90,90,794,15,0,0
215,33,0.0,0.0,0.0,-0.1,-1.5,0.9,0,568,4399,90,90,180,180,90,90,794,13,0,0
216,33,0.0,0.0,0.0,-0.2,-1.3,0.9,0,568,4399,90,90,180,180,90,90,794,13,0,0
217,33,0.0,0.0,0.0,-0.3,-1.2,0.0,0,0,0,90,90,180,180,90,90,794,15,0,0
218,33,0.0,0.0,0.0,-0.2,-1.4,0.0,0,0,0,90,90,180,180,90,90,794,15,0,0
219,33,0.0,0.0,0.0,0.1,-1.1,1.0,0,568,4282,90,90,180,180,90,90,794,15,0,0
220,33,0.0,0.0,0.0,0.4,0.0,1.0,0,568,4282,90,90,180,180,90,90,794,8,0,0
221,33,0.0,0.0,0.0,0.4,0.2,1.0,0,568,4282,90,90,180,180,90,90,794,15,0,0
222,33,0.0,0.0,0.0,0.4,0.4,1.0,0,568,4282,90,90,180,180,90,90,794,16,0,0
223,33,0.0,0.0,0.0,0.4,-0.2,1.0,0,568,4282,90,90,180,180,90,90,794,12,0,0
224,33,0.0,0.0,0.0,0.6,-0.5,0.9,0,568,1906,90,90,180,180,90,90,795,10,0,0
225,33,0.0,0.0,0.0,0.8,-0.7,0.9,0,568,1906,90,90,180,180,90,90,794,10,0,1
226,33,0.0,0.0,0.0,0.5,-1.0,0.9,0,568,1906,90,90,180,180,90,90,792,18,0,0
227,33,0.0,0.0,0.0,0.7,-1.2,0.9,0,568,1906,90,90,180,180,90,90,792,23,0,0
228,33,0.0,0.0,0.0,0.7,-1.3,0.9,0,0,0,90,90,180,180,90,90,794,23,0,0
229,33,0.0,0.0,0.0,0.4,-1.7,0.9,0,0,0,90,90,180,180,90,90,792,22,0,0
230,33,0.0,0.0,0.0,0.2,-2.1,0.9,0,0,0,90,90,180,180,90,90,792,29,0,0
231,33,0.0,0.0,0.0,0.6,-2.2,1.0,0,568,2888,90,90,180,180,90,90,794,12,0,0
232,33,0.0,0.0,0.0,0.2,-1.5,1.0,0,568,2888,90,90,180,180,90,90,792,27,0,0
233,33,0.0,0.0,0.0,0.4,-1.4,1.0,0,0,56,90,90,180,180,90,90,792,24,0,0
234,33,0.0,0.0,0.0,0.2,-1.5,1.0,0,0,56,90,90,180,180,90,90,792,27,0,0
235,33,0.0,0.0,0.0,0.4,-1.1,1.2,0,568,3302,90,90,180,180,90,90,792,28,0,0
236,33,0.0,0.0,0.0,0.4,-1.0,1.2,0,568,3302,90,90,180,180,90,90,792,27,0,0
237,33,0.0,0.0,0.0,0.5,-0.9,1.2,0,568,3302,90,90,180,180,90,90,794,26,0,0
238,33,0.0,0.0,0.0,0.7,-0.7,0.0,0,0,0,90,90,180,180,90,90,792,27,0,0
239,34,0.0,0.0,0.0,0.9,-0.6,0.0,0,0,0,90,90,180,180,90,90,792,32,0,0
240,34,0.0,0.0,0.0,0.7,-0.8,1.2,0,568,5932,90,90,180,180,90,90,792,30,0,0
241,34,0.0,0.0,0.0,0.5,-0.6,1.2,0,568,5932,90,90,180,180,90,90,792,24,0,0
242,33,0.0,0.0,0.0,0.3,-0.6,1.2,0,568,5932,90,90,180,180,90,90,792,27,0,0
243,33,0.0,0.0,0.0,0.3,-0.6,1.2,0,568,5932,90,90,180,180,90,90,792,29,0,0
244,33,0.0,0.0,0.0,0.5,-0.5,0.0,0,0,0,90,90,180,180,90,90,792,31,0,0
245,33,0.0,0.0,0.0,0.3,-0.5,0.0,0,0,0,90,90,180,180,90,90,791,35,0,0
246,33,0.0,0.0,0.0,0.8,-0.7,0.0,0,0,0,90,90,180,180,90,90,792,27,0,0
247,33,0.0,0.0,0.0,0.7,-0.9,1.2,0,568,2833,90,90,180,180,90,90,791,35,0,0
248,33,0.0,0.0,0.0,0.7,-1.0,1.2,0,568,2833,90,90,180,180,90,90,792,36,0,0
249,33,0.0,0.0,0.0,0.5,-1.0,0.0,0,0,0,90,90,180,180,90,90,792,35,0,0
250,33,0.0,0.0,0.0,0.4,-0.7,0.0,0,0,0,90,90,180,180,90,90,792,27,0,0
251,33,0.0,0.0,0.0,0.5,-0.5,1.2,0,568,2534,90,90,180,180,90,90,792,38,0,0
252,33,0.0,0.0,0.0,0.5,-0.2,1.2,0,568,2534,90,90,180,180,90,90,792,31,0,0
253,33,0.0,0.0,0.0,0.2,-0.1,1.2,0,568,2534,90,90,180,180,90,90,792,25,0,0
254,33,0.0,0.0,0.0,0.1,0.0,0.0,0,0,0,90,90,180,180,90,90,792,27,0,0
255,33,0.0,0.0,0.0,0.7,-0.1,0.0,0,0,0,90,90,180,180,90,90,792,32,0,0
256,33,0.0,0.0,0.0,0.6,-0.1,1.2,0,568,7543,90,90,180,180,90,90,791,38,0,0
257,33,0.0,0.0,0.0,0.4,-0.1,1.2,0,568,7543,90,90,180,180,90,90,792,39,0,0
258,33,0.0,0.0,0.0,0.4,-0.1,1.2,0,568,7543,90,90,180,180,90,90,792,33,0,0
259,33,0.0,0.0,0.0,0.4,0.0,1.2,0,568,7543,90,90,180,180,90,90,792,35,0,0
260,33,0.0,0.0,0.0,0.3,0.1,0.0,0,0,0,90,90,180,180,90,90,792,27,0,0
261,33,0.0,0.0,0.0,0.0,0.0,1.2,0,568,8658,90,90,180,180,90,90,792,46,0,0
262,33,0.0,0.0,0.0,0.6,0.0,1.2,0,568,8658,90,90,180,180,90,90,792,24,0,0
263,33,0.0,0.0,0.0,0.7,-0.2,1.2,0,568,8658,90,90,180,180,90,90,792,26,0,0
264,33,0.0,0.0,0.0,0.9,-0.2,1.2,0,568,8658,90,90,180,180,90,90,792,36,0,0
265,33,0.0,0.0,0.0,0.5,0.1,0.0,0,0,0,90,90,180,180,90,90,792,26,0,0
266,33,0.0,0.0,0.0,0.4,-0.2,0.0,0,0,0,90,90,180,180,90,90,792,25,0,0
267,33,0.0,0.0,0.0,0.3,-0.1,0.9,0,568,5095,90,90,180,180,90,90,794,18,0,0
268,33,0.0,0.0,0.0,0.6,-0.3,0.9,0,568,5095,90,90,180,180,90,90,794,18,0,0
269,33,0.0,0.0,0.0,0.7,-0.4,0.9,0,568,5095,90,90,180,180,90,90,795,10,0,0
270,33,0.0,0.0,0.0,0.2,-0.7,0.0,0,0,0,90,90,180,180,90,90,794,16,0,0
271,33,0.0,0.0,0.0,0.0,-1.2,0.0,0,0,0,90,90,180,180,90,90,794,15,0,0
272,33,0.0,0.0,0.0,-0.7,-1.5,0.9,0,568,2494,90,90,180,180,90,90,794,13,0,0
273,32,0.0,0.0,0.0,0.0,-1.6,0.9,0,568,2494,90,90,180,180,90,90,794,15,0,0
274,32,0.0,0.0,0.0,-0.1,-1.1,0.9,0,568,2494,90,90,180,180,90,90,792,26,0,0
275,32,0.0,0.0,0.0,-0.4,-1.0,0.9,0,568,2494,90,90,180,180,90,90,794,15,0,0
276,32,0.0,0.0,0.0,-0.4,-0.8,0.0,0,0,0,90,90,180,180,90,90,792,19,0,0
277,32,0.0,0.0,0.0,-0.5,-0.7,0.0,0,0,0,90,90,180,180,90,90,792,24,0,0
278,32,0.0,0.0,0.0,-0.4,-0.9,1.0,0,568,5894,90,90,180,180,90,90,792,25,0,0
279,32,0.0,0.0,0.0,-0.5,-0.7,1.0,0,568,5894,90,90,180,180,90,90,792,20,0,0
280,32,0.0,0.0,0.0,-0.4,-0.8,1.0,0,568,5894,90,90,180,180,90,90,792,22,0,0
281,32,0.0,0.0,0.0,-0.4,-0.8,0.0,0,0,0,90,90,180,180,90,90,792,19,0,0
282,32,0.0,0.0,0.0,-0.5,-1.0,0.0,0,0,0,90,90,180,180,90,90,794,15,0,0
283,32,0.0,0.0,0.0,-0.6,-0.9,1.0,0,568,5562,90,90,180,180,90,90,794,13,0,0
284,32,0.0,0.0,0.0,-0.6,-0.7,1.0,0,568,5562,90,90,180,180,90,90,794,15,0,0
285,32,0.0,0.0,0.0,-0.4,-0.5,1.0,0,568,5562,90,90,180,180,90,90,794,15,0,0
286,32,0.0,0.0,0.0,-0.4,-0.3,1.0,0,568,5562,90,90,180,180,90,90,794,14,0,0
287,32,0.0,0.0,0.0,-0.4,-0.6,1.0,0,568,5562,90,90,180,180,90,90,794,15,0,0
288,32,0.0,0.0,0.0,-0.4,-0.8,0.0,0,568,8105,90,90,180,180,90,90,794,14,0,0
289,32,0.0,0.0,0.0,-0.4,-0.4,0.0,0,568,8105,90,90,180,180,90,90,794,15,0,0
290,32,0.0,0.0,0.0,-0.5,-0.4,0.0,0,568,8105,90,90,180,180,90,90,794,14,0,0
291,32,0.0,0.0,0.0,-0.4,-0.6,0.0,0,568,8105,90,90,180,180,90,90,794,12,0,0
292,32,0.0,0.0,0.0,-0.4,-0.7,0.0,0,0,0,90,90,180,180,90,90,794,14,0,0
293,32,0.0,0.0,0.0,-0.3,-0.6,0.0,0,0,0,90,90,180,180,90,90,794,14,0,0
294,32,0.0,0.0,0.0,-0.4,-0.6,0.8,0,568,5926,90,90,180,180,90,90,794,13,0,0
295,32,0.0,0.0,0.0,-0.6,-0.5,0.8,0,568,5926,90,90,180,180,90,90,794,17,0,0
296,32,0.0,0.0,0.0,-0.5,-0.4,0.8,0,568,5926,90,90,180,180,90,90,794,13,0,0
297,32,0.0,0.0,0.0,-0.5,-0.5,0.0,0,0,618,90,90,180,180,90,90,794,16,0,0
298,32,0.0,0.0,0.0,-0.2,-0.6,0.0,0,0,618,90,90,180,180,90,90,794,15,0,0
299,32,0.0,0.0,0.0,-0.4,-0.5,0.8,0,0,0,90,90,180,180,90,90,794,15,0,0
300,32,0.0,0.0,0.0,-0.4,-0.3,0.8,0,0,0,90,90,180,180,90,90,794,14,0,0
301,32,0.0,0.0,0.0,-0.5,-0.5,0.8,0,0,0,90,90,180,180,90,90,794,15,0,0
302,32,0.0,0.0,0.0,-0.6,-0.4,0.8,0,0,0,90,90,180,180,90,90,794,16,0,0
303,32,0.0,0.0,0.0,-0.4,-0.8,0.8,0,0,0,90,90,180,180,90,90,794,19,0,0
304,32,0.0,0.0,0.0,-0.4,-0.5,0.8,0,0,0,90,90,180,180,90,90,794,17,0,0
305,32,0.0,0.0,0.0,-0.5,-0.3,0.8,0,0,0,90,90,180,180,90,90,795,14,0,0
306,32,0.0,0.0,0.0,-0.6,-0.4,63.1,0,0,8,90,90,180,180,90,90,794,13,0,0
307,32,0.0,0.0,0.0,-0.5,-0.4,63.1,0,0,8,90,90,180,180,90,90,794,14,0,0
308,32,0.0,0.0,0.0,-0.4,-0.6,0.0,0,0,0,90,90,180,180,90,90,794,14,0,0
309,32,0.0,0.0,0.0,-0.6,-0.5,0.0,0,0,0,90,90,180,180,90,90,794,14,0,0
310,32,0.0,0.0,0.0,-0.4,-0.6,0.8,0,0,0,90,90,180,180,90,90,794,13,0,0
311,32,0.0,0.0,0.0,-0.4,-0.5,0.8,0,0,0,90,90,180,180,90,90,794,14,0,0
312,32,0.0,0.0,0.0,-0.5,-0.4,0.8,0,0,0,90,90,180,180,90,90,794,16,0,0
313,32,0.0,0.0,0.0,-0.3,-0.4,0.0,0,0,0,90,90,180,180,90,90,794,16,0,0
314,32,0.0,0.0,0.0,-0.3,-0.4,0.0,0,0,0,90,90,180,180,90,90,794,15,0,0
315,32,0.0,0.0,0.0,-0.5,-0.3,0.0,0,0,0,90,90,180,180,90,90,794,16,0,0
316,32,0.0,0.0,0.0,-0.3,-0.3,0.0,0,0,0,90,90,180,180,90,90,794,15,0,0
317,32,0.0,0.0,0.0,-0.4,-0.4,0.0,0,0,0,90,90,180,180,90,90,792,22,0,0
318,32,0.0,0.0,0.0,-0.5,-0.4,0.0,0,0,0,90,90,180,180,90,90,794,21,0,0
319,32,0.0,0.0,0.0,-0.5,-0.3,0.8,0,0,0,90,90,180,180,90,90,794,19,0,0
320,32,0.0,0.0,0.0,-0.5,-0.4,0.8,0,0,0,90,90,180,180,90,90,792,15,0,0
321,32,0.0,0.0,0.0,-0.3,-0.6,0.8,0,0,0,90,90,180,180,90,90,792,16,0,0
322,32,0.0,0.0,0.0,-0.4,-0.4,0.8,0,0,10,90,90,180,180,90,90,794,18,0,0
323,32,0.0,0.0,0.0,-0.6,-0.2,0.8,0,0,10,90,90,180,180,90,90,794,13,0,0
324,32,0.0,0.0,0.0,-0.5,-0.3,0.8,0,0,0,90,90,180,180,90,90,794,16,0,0
325,32,0.0,0.0,0.0,-0.4,-0.3,0.8,0,0,0,90,90,180,180,90,90,794,12,0,0
326,32,0.0,0.0,0.0,-0.4,-0.4,0.8,0,0,4,90,90,180,180,90,90,794,11,0,0
327,32,0.0,0.0,0.0,-0.5,-0.2,0.8,0,0,4,90,90,180,180,90,90,794,11,0,0
328,32,0.0,0.0,0.0,-0.5,-0.2,0.8,0,0,4,90,90,180,180,90,90,794,5,0,0
329,32,0.0,0.0,0.0,-0.5,-0.1,0.8,0,0,4,90,90,180,180,90,90,794,13,0,0
330,32,0.0,0.0,0.0,-0.5,-0.1,0.8,0,0,4,90,90,180,180,90,90,794,13,0,0
331,32,0.0,0.0,0.0,-0.5,-0.2,57.8,0,0,7,90,90,180,180,90,90,794,15,0,0
332,32,0.0,0.0,0.0,-0.6,-0.3,57.8,0,0,7,90,90,180,180,90,90,794,16,0,0
333,32,0.0,0.0,0.0,-0.6,-0.3,57.8,0,0,7,90,90,180,180,90,90,794,16,0,0
334,32,0.0,0.0,0.0,-0.4,-0.3,57.8,0,0,7,90,90,180,180,90,90,794,14,0,0
335,32,0.0,0.0,0.0,-0.4,-0.2,57.8,0,0,7,90,90,180,180,90,90,794,20,0,0
336,32,0.0,0.0,0.0,-0.6,-0.3,57.8,0,0,7,90,90,180,180,90,90,794,19,0,0
337,32,0.0,0.0,0.0,-0.6,-0.4,57.8,0,0,7,90,90,180,180,90,90,792,22,0,0
338,32,0.0,0.0,0.0,-0.4,-0.5,0.8,0,0,0,90,90,180,180,90,90,792,23,0,0
339,32,0.0,0.0,0.0,-0.4,-0.6,0.8,0,0,0,90,90,180,180,90,90,792,22,0,0
340,32,0.0,0.0,0.0,-0.4,-0.5,0.8,0,0,0,90,90,180,180,90,90,792,25,0,0
341,32,0.0,0.0,0.0,-0.5,-0.5,0.8,0,0,0,90,90,180,180,90,90,792,19,0,0
342,32,0.0,0.0,0.0,-0.5,-0.4,0.8,0,0,0,90,90,180,180,90,90,795,5,0,0
343,32,0.0,0.0,0.0,-0.5,-0.4,0.8,0,0,0,90,90,180,180,90,90,794,18,0,0
344,32,0.0,0.0,0.0,-0.4,-0.2,0.8,0,0,0,90,90,180,180,90,90,794,15,0,0
345,32,0.0,0.0,0.0,-0.4,-0.1,0.8,0,0,0,90,90,180,180,90,90,792,26,0,0
346,32,0.0,0.0,0.0,-0.5,0.0,0.8,0,0,0,90,90,180,180,90,90,792,24,0,0
347,32,0.0,0.0,0.0,-0.4,-0.1,0.8,0,0,0,90,90,180,180,90,90,792,24,0,0
348,32,0.0,0.0,0.0,-0.4,-0.3,0.8,0,0,0,90,90,180,180,90,90,792,23,0,0
349,32,0.0,0.0,0.0,-0.4,0.0,0.8,0,0,0,90,90,180,180,90,90,794,16,0,0
350,32,0.0,0.0,0.0,-0.5,0.0,0.8,0,0,0,90,90,180,180,90,90,794,17,0,0
351,32,0.0,0.0,0.0,-0.4,-0.1,0.8,0,0,0,90,90,180,180,90,90,792,19,0,0
352,32,0.0,0.0,0.0,-0.4,-0.3,0.8,0,0,0,90,90,180,180,90,90,794,18,0,0
353,32,0.0,0.0,0.0,-0.5,-0.2,0.8,0,0,641,90,90,180,180,90,90,792,23,0,0
354,32,0.0,0.0,0.0,-0.5,-0.1,0.8,0,0,641,90,90,180,180,90,90,792,22,0,0
355,32,0.0,0.0,0.0,-0.4,-0.1,0.8,0,0,641,90,90,180,180,90,90,792,26,0,0
356,32,0.0,0.0,0.0,-0.5,0.0,0.4,0,0,0,90,90,180,180,90,90,792,22,0,0
357,32,0.0,0.0,0.0,-0.4,-0.1,0.4,0,0,0,90,90,180,180,90,90,794,13,0,0
358,32,0.0,0.0,0.0,-0.5,0.0,0.4,0,5,6801,90,90,180,180,90,90,794,11,0,0
359,32,0.0,0.0,0.0,-0.4,0.0,0.4,0,5,6801,90,90,180,180,90,90,794,13,0,0
360,32,0.0,0.0,0.0,-0.4,-0.1,0.4,0,5,6801,90,90,180,180,90,90,794,13,0,0
361,32,0.0,0.0,0.0,-0.5,-0.2,0.4,0,5,6801,90,90,180,180,90,90,794,11,0,0
362,32,0.0,0.0,0.0,-0.4,-0.1,0.4,0,5,6801,90,90,180,180,90,90,794,12,0,0
363,32,0.0,0.0,0.0,-0.3,-0.1,0.4,0,5,6801,90,90,180,180,90,90,794,14,0,0
364,32,0.0,0.0,0.0,-0.5,-0.2,0.4,0,5,6801,90,90,180,180,90,90,792,25,0,0
365,32,0.0,0.0,0.0,-0.5,-0.3,0.4,0,0,5682,90,90,180,180,90,90,792,21,0,0
366,32,0.0,0.0,0.0,-0.5,-0.2,0.4,0,0,5682,90,90,180,180,90,90,792,39,0,0
367,32,0.0,0.0,0.0,-0.6,-0.3,0.4,0,0,5682,90,90,180,180,90,90,792,37,0,0
368,32,0.0,0.0,0.0,-0.4,-0.3,0.4,0,0,5682,90,90,180,180,90,90,792,28,0,0
369,32,0.0,0.0,0.0,-0.4,-0.2,0.4,0,0,5682,90,90,180,180,90,90,792,25,0,0
370,32,0.0,0.0,0.0,-0.4,-0.2,0.4,0,0,5682,90,90,180,180,90,90,792,31,0,0
371,32,0.0,0.0,0.0,-0.4,-0.3,0.4,0,0,0,90,90,180,180,90,90,792,26,0,0
372,32,0.0,0.0,0.0,-0.6,-0.8,0.4,0,0,0,90,90,180,180,90,90,794,22,0,0
373,32,0.0,0.0,0.0,-0.5,-1.0,0.4,0,0,0,90,90,180,180,90,90,794,19,0,0
374,32,0.0,0.0,0.0,-0.3,-0.8,0.4,0,0,0,90,90,180,180,90,90,792,18,0,0
375,32,0.0,0.0,0.0,0.0,-1.2,0.4,0,0,0,90,90,180,180,90,90,792,28,0,0
376,32,0.0,0.0,0.0,-0.5,-0.6,0.4,0,0,0,90,90,180,180,90,90,792,28,0,0
377,32,0.0,0.0,0.0,-0.4,-0.4,0.4,0,0,0,90,90,180,180,90,90,792,21,0,0
378,32,0.0,0.0,0.0,-0.5,-0.5,0.4,0,56,8278,90,90,180,180,90,90,792,25,0,0
379,32,0.0,0.0,0.0,-0.3,-0.4,0.4,0,56,8278,90,90,180,180,90,90,792,26,0,0
380,32,0.0,0.0,0.0,-0.5,-0.5,0.4,0,0,0,90,90,180,180,90,90,792,28,0,0
381,32,0.0,0.0,0.0,-0.5,-0.5,0.4,0,0,0,90,90,180,180,90,90,794,19,0,0
382,32,0.0,0.0,0.0,-0.4,-0.3,0.4,0,0,0,90,90,180,180,90,90,792,22,0,0
383,32,0.0,0.0,0.0,-0.4,-0.3,0.4,0,0,0,90,90,180,180,90,90,792,30,0,0
384,32,0.0,0.0,0.0,-0.4,-0.5,0.4,0,0,0,90,90,180,180,90,90,792,30,0,0
385,32,0.0,0.0,0.0,-0.4,-0.3,0.4,0,568,3220,90,90,180,180,90,90,792,35,0,0
386,32,0.0,0.0,0.0,-0.6,-0.3,0.4,0,568,3220,90,90,180,180,90,90,792,40,0,0
387,32,0.0,0.0,0.0,-0.5,-0.4,0.4,0,0,81,90,90,180,180,90,90,792,37,0,0
388,32,0.0,0.0,0.0,-0.5,-0.5,0.4,0,0,81,90,90,180,180,90,90,792,33,0,0
389,32,0.0,0.0,0.0,-0.5,-0.4,0.4,0,0,81,90,90,180,180,90,90,792,33,0,0
390,32,0.0,0.0,0.0,-0.5,-0.3,0.4,0,0,81,90,90,180,180,90,90,792,29,0,0
391,32,0.0,0.0,0.0,-0.6,-0.3,0.4,0,0,81,90,90,180,180,90,90,792,34,0,0
392,32,0.0,0.0,0.0,-0.6,-0.3,0.4,0,0,56,90,90,180,180,90,90,792,29,0,0
393,32,0.0,0.0,0.0,-0.4,-0.5,0.4,0,0,56,90,90,180,180,90,90,792,27,0,0
394,32,0.0,0.0,0.0,-0.6,-0.6,0.4,0,0,56,90,90,180,180,90,90,792,31,0,0
395,32,0.0,0.0,0.0,-0.4,-0.7,0.4,0,0,56,90,90,180,180,90,90,792,27,0,0
396,32,0.0,0.0,0.0,-0.4,-0.5,0.4,0,568,2949,90,90,180,180,90,90,792,17,0,0
397,32,0.0,0.0,0.0,-0.5,-0.4,0.4,0,568,2949,90,90,180,180,90,90,792,26,0,0
398,32,0.0,0.0,0.0,-0.4,-0.4,0.4,0,0,5,90,90,180,180,90,90,792,25,0,0
399,32,0.0,0.0,0.0,-0.5,-0.4,0.4,0,0,5,90,90,180,180,90,90,792,30,0,0
400,32,0.0,0.0,0.0,-0.4,-0.4,0.4,0,0,5,90,90,180,180,90,90,792,20,0,0
401,32,0.0,0.0,0.0,-0.4,-0.4,0.4,0,56,8294,90,90,180,180,90,90,792,26,0,0
402,32,0.0,0.0,0.0,-0.4,-0.5,0.4,0,56,8294,90,90,180,180,90,90,792,21,0,0
403,32,0.0,0.0,0.0,-0.5,-0.5,0.4,0,0,550,90,90,180,180,90,90,792,28,0,0
404,32,0.0,0.0,0.0,-0.5,-0.5,0.4,0,0,550,90,90,180,180,90,90,792,26,0,0
405,32,0.0,0.0,0.0,-0.5,-0.3,0.4,0,0,550,90,90,180,180,90,90,794,18,0,0
406,32,0.0,0.0,0.0,-0.5,-0.3,0.4,0,0,550,90,90,180,180,90,90,794,12,0,0
407,32,0.0,0.0,0.0,-0.6,-0.3,0.4,0,568,2974,90,90,180,180,90,90,794,14,0,0
408,32,0.0,0.0,0.0,-0.5,-0.1,0.4,0,568,2974,90,90,180,180,90,90,794,15,0,0
409,32,0.0,0.0,0.0,-0.4,-0.1,0.4,0,568,2974,90,90,180,180,90,90,792,12,0,0
410,32,0.0,0.0,0.0,-0.5,-0.1,0.4,0,0,0,90,90,180,180,90,90,794,12,0,0
411,32,0.0,0.0,0.0,-0.4,0.0,0.4,0,0,0,90,90,180,180,90,90,794,14,0,0
412,32,0.0,0.0,0.0,-0.5,0.0,0.4,0,0,0,90,90,180,180,90,90,794,14,0,0
413,32,0.0,0.0,0.0,-0.3,-0.1,0.4,0,0,0,90,90,180,180,90,90,792,15,0,0
414,32,0.0,0.0,0.0,-0.4,-0.1,0.4,0,568,2993,90,90,180,180,90,90,794,11,0,0
415,32,0.0,0.0,0.0,-0.5,-0.2,0.4,0,568,2993,90,90,180,180,90,90,794,11,0,0
416,32,0.0,0.0,0.0,-0.5,-0.3,0.4,0,568,2993,90,90,180,180,90,90,794,10,0,0
417,32,0.0,0.0,0.0,-0.3,-0.3,0.4,0,568,2993,90,90,180,180,90,90,794,11,0,0
418,32,0.0,0.0,0.0,-0.4,0.0,0.4,0,568,2993,90,90,180,180,90,90,792,23,0,0
419,32,0.0,0.0,0.0,-0.4,-0.2,0.4,0,0,0,90,90,180,180,90,90,792,18,0,0
420,32,0.0,0.0,0.0,-0.6,-0.4,0.4,0,0,0,90,90,180,180,90,90,794,13,0,0
421,32,0.0,0.0,0.0,-0.6,-0.3,0.4,0,568,2894,90,90,180,180,90,90,792,15,0,0
422,32,0.0,0.0,0.0,-0.5,-0.1,0.4,0,568,2894,90,90,180,180,90,90,794,16,0,0
423,32,0.0,0.0,0.0,-0.5,-0.2,0.4,0,568,2894,90,90,180,180,90,90,794,15,0,0
424,32,0.0,0.0,0.0,-0.5,-0.3,0.4,0,568,2894,90,90,180,180,90,90,792,19,0,0
425,32,0.0,0.0,0.0,-0.6,-0.3,0.4,0,0,0,90,90,180,180,90,90,794,21,0,0
426,32,0.0,0.0,0.0,-0.5,-0.3,0.4,0,0,0,90,90,180,180,90,90,792,19,0,0
427,32,0.0,0.0,0.0,-0.3,-0.4,0.4,0,0,0,90,90,180,180,90,90,792,21,0,0
428,32,0.0,0.0,0.0,-0.4,-0.4,0.4,0,0,0,90,90,180,180,90,90,794,14,0,0
429,32,0.0,0.0,0.0,-0.5,-0.2,0.4,0,0,0,90,90,180,180,90,90,794,18,0,0
430,32,0.0,0.0,0.0,-0.5,-0.2,0.4,0,0,5682,90,90,180,180,90,90,792,19,0,0
431,32,0.0,0.0,0.0,-0.5,-0.2,0.4,0,0,5682,90,90,180,180,90,90,794,20,0,0
432,32,0.0,0.0,0.0,-0.5,-0.3,0.4,0,0,5682,90,90,180,180,90,90,794,20,0,0
433,32,0.0,0.0,0.0,-0.5,-0.4,0.4,0,0,5682,90,90,180,180,90,90,794,17,0,0
434,32,0.0,0.0,0.0,-0.5,-0.3,0.4,0,0,0,90,90,180,180,90,90,794,11,0,0
435,32,0.0,0.0,0.0,-0.5,-0.2,0.4,0,0,0,90,90,180,180,90,90,794,11,0,0
436,32,0.0,0.0,0.0,-0.6,-0.3,0.4,0,0,0,90,90,180,180,90,90,794,14,0,0
437,32,0.0,0.0,0.0,-0.5,-0.2,0.4,0,0,0,90,90,180,180,90,90,794,14,0,0
438,32,0.0,0.0,0.0,-0.5,-0.2,0.4,0,0,0,90,90,180,180,90,90,792,20,0,0
439,32,0.0,0.0,0.0,-0.5,-0.2,0.4,0,0,568,90,90,180,180,90,90,792,21,0,0
440,32,0.0,0.0,0.0,-0.5,-0.2,0.4,0,0,568,90,90,180,180,90,90,792,20,0,0
441,32,0.0,0.0,0.0,-0.5,-0.2,0.4,0,0,568,90,90,180,180,90,90,792,24,0,0
442,32,0.0,0.0,0.0,-0.5,-0.3,0.4,0,0,568,90,90,180,180,90,90,794,19,0,0
443,32,0.0,0.0,0.0,-0.5,-0.5,0.4,0,0,0,90,90,180,180,90,90,792,20,0,0
444,32,0.0,0.0,0.0,-0.6,-0.3,0.4,0,0,0,90,90,180,180,90,90,794,20,0,0
445,32,0.0,0.0,0.0,-0.5,-0.2,0.4,0,0,0,90,90,180,180,90,90,794,15,0,0
446,32,0.0,0.0,0.0,-0.6,-0.2,0.4,0,0,0,90,90,180,180,90,90,794,15,0,0
447,32,0.0,0.0,0.0,-0.6,-0.2,0.4,0,0,0,90,90,180,180,90,90,794,16,0,0
448,32,0.0,0.0,0.0,-0.5,-0.2,0.4,0,0,568,90,90,180,180,90,90,792,15,0,0
449,32,0.0,0.0,0.0,-0.5,-0.1,0.4,0,0,568,90,90,180,180,90,90,794,13,0,0
450,32,0.0,0.0,0.0,-0.5,-0.1,0.4,0,0,568,90,90,180,180,90,90,794,12,0,0
451,32,0.0,0.0,0.0,-0.6,-0.1,0.4,0,0,568,90,90,180,180,90,90,794,10,0,0
452,32,0.0,0.0,0.0,-0.5,-0.1,0.4,0,0,0,90,90,180,180,90,90,794,19,0,0
453,32,0.0,0.0,0.0,-0.5,-0.2,0.4,0,0,0,90,90,180,180,90,90,795,5,0,0
454,32,0.0,0.0,0.0,-0.5,-0.1,0.4,0,0,0,90,90,180,180,90,90,795,5,0,0
455,32,0.0,0.0,0.0,-0.5,-0.2,0.4,0,0,0,90,90,180,180,90,90,794,5,0,0
456,32,0.0,0.0,0.0,-0.4,-0.2,0.4,0,0,0,90,90,180,180,90,90,794,11,0,0
457,32,0.0,0.0,0.0,-0.4,-0.1,0.4,0,0,56,90,90,180,180,90,90,794,11,0,0
458,32,0.0,0.0,0.0,-0.5,-0.1,0.4,0,0,56,90,90,180,180,90,90,794,17,0,0
459,32,0.0,0.0,0.0,-0.6,-0.1,0.4,0,0,56,90,90,180,180,90,90,794,14,0,0
460,32,0.0,0.0,0.0,-0.6,-0.2,0.4,0,0,56,90,90,180,180,90,90,794,11,0,0
461,32,0.0,0.0,0.0,-0.6,-0.3,0.0,0,0,0,90,90,180,180,90,90,794,12,0,0
462,32,0.0,0.0,0.0,-0.4,-0.3,0.0,0,0,0,90,90,180,180,90,90,794,12,0,0
463,32,0.0,0.0,0.0,-0.5,-0.3,0.0,0,0,0,90,90,180,180,90,90,794,11,0,0
464,32,0.0,0.0,0.0,-0.5,-0.4,0.0,0,0,0,90,90,180,180,90,90,794,10,0,0
465,32,0.0,0.0,0.0,-0.5,-0.3,0.0,0,0,0,90,90,180,180,90,90,794,11,0,0
466,32,0.0,0.0,0.0,-0.6,-0.2,0.2,0,0,56,90,90,180,180,90,90,794,11,0,0
467,32,0.0,0.0,0.0,-0.5,-0.2,0.2,0,0,56,90,90,180,180,90,90,794,10,0,0
468,32,0.0,0.0,0.0,-0.5,-0.3,0.2,0,0,56,90,90,180,180,90,90,794,8,0,0
469,32,0.0,0.0,0.0,-0.4,-0.3,0.2,0,0,56,90,90,180,180,90,90,794,14,0,0
470,32,0.0,0.0,0.0,-0.4,-0.3,0.0,0,0,0,90,90,180,180,90,90,794,11,0,0
471,32,0.0,0.0,0.0,-0.4,-0.3,0.0,0,0,0,90,90,180,180,90,90,794,17,0,0
472,32,0.0,0.0,0.0,-0.4,-0.2,0.0,0,0,0,90,90,180,180,90,90,794,12,0,0
473,32,0.0,0.0,0.0,-0.4,-0.1,0.0,0,0,0,90,90,180,180,90,90,794,13,0,0
474,32,0.0,0.0,0.0,-0.5,-0.1,0.0,0,0,0,90,90,180,180,90,90,794,12,0,0
475,32,0.0,0.0,0.0,-0.6,-0.1,0.2,0,0,56,90,90,180,180,90,90,792,14,0,0
476,32,0.0,0.0,0.0,-0.5,-0.2,0.2,0,0,56,90,90,180,180,90,90,794,13,0,0
477,32,0.0,0.0,0.0,-0.6,-0.1,0.2,0,0,56,90,90,180,180,90,90,794,8,0,0
478,32,0.0,0.0,0.0,-0.6,-0.1,0.2,0,0,56,90,90,180,180,90,90,794,11,0,0
479,32,0.0,0.0,0.0,-0.5,-0.1,0.0,0,0,0,90,90,180,180,90,90,794,15,0,0
480,32,0.0,0.0,0.0,-0.6,-0.1,0.0,0,0,0,90,90,180,180,90,90,792,16,0,0
481,32,0.0,0.0,0.0,-0.5,-0.2,0.0,0,0,0,90,90,180,180,90,90,792,21,0,0
482,32,0.0,0.0,0.0,-0.5,-0.3,0.0,0,0,0,90,90,180,180,90,90,792,15,0,0
483,32,0.0,0.0,0.0,-0.5,-0.2,0.0,0,0,0,90,90,180,180,90,90,794,15,0,0
484,32,0.0,0.0,0.0,-0.5,-0.3,0.2,0,0,568,90,90,180,180,90,90,792,19,0,0
485,32,0.0,0.0,0.0,-0.6,-0.2,0.2,0,0,568,90,90,180,180,90,90,792,20,0,0
486,32,0.0,0.0,0.0,-0.4,-0.2,0.2,0,0,568,90,90,180,180,90,90,794,22,0,0
487,32,0.0,0.0,0.0,-0.4,-0.3,0.2,0,0,568,90,90,180,180,90,90,792,22,0,0
488,32,0.0,0.0,0.0,-0.5,-0.3,0.0,0,0,0,90,90,180,180,90,90,792,21,0,0
489,32,0.0,0.0,0.0,-0.6,-0.3,0.0,0,0,0,90,90,180,180,90,90,792,17,0,0
490,32,0.0,0.0,0.0,-0.5,-0.2,0.0,0,0,0,90,90,180,180,90,90,794,17,0,0
491,32,0.0,0.0,0.0,-0.5,-0.3,0.0,0,0,0,90,90,180,180,90,90,792,17,0,0
492,32,0.0,0.0,0.0,-0.6,-0.3,0.0,0,0,0,90,90,180,180,90,90,792,18,0,0
493,32,0.0,0.0,0.0,-0.6,-0.3,0.2,0,0,568,90,90,180,180,90,90,792,20,0,0
494,32,0.0,0.0,0.0,-0.5,-0.3,0.2,0,0,568,90,90,180,180,90,90,792,20,0,0
495,32,0.0,0.0,0.0,-0.4,-0.3,0.2,0,0,568,90,90,180,180,90,90,792,20,0,0
496,32,0.0,0.0,0.0,-0.5,-0.2,0.2,0,0,568,90,90,180,180,90,90,792,21,0,0
497,32,0.0,0.0,0.0,-0.5,-0.2,0.0,0,0,0,90,90,180,180,90,90,792,20,0,0
498,32,0.0,0.0,0.0,-0.4,-0.2,0.0,0,0,0,90,90,180,180,90,90,792,19,0,0
499,32,0.0,0.0,0.0,-0.4,-0.3,0.0,0,0,0,90,90,180,180,90,90,792,18,0,0
500,32,0.0,0.0,0.0,-0.5,-0.2,0.0,0,0,0,90,90,180,180,90,90,792,18,0,0
501,32,0.0,0.0,0.0,-0.4,-0.2,0.0,0,0,0,90,90,180,180,90,90,794,16,0,0
502,32,0.0,0.0,0.0,-0.4,-0.2,0.2,0,0,56,90,90,180,180,90,90,794,19,0,0
503,32,0.0,0.0,0.0,-0.5,-0.1,0.2,0,0,56,90,90,180,180,90,90,792,19,0,0
504,32,0.0,0.0,0.0,-0.4,-0.2,0.2,0,0,56,90,90,180,180,90,90,792,23,0,0
505,32,0.0,0.0,0.0,-0.4,-0.3,0.2,0,0,56,90,90,180,180,90,90,792,20,0,0
506,32,0.0,0.0,0.0,-0.4,-0.2,0.0,0,0,0,90,90,180,180,90,90,792,14,0,0
507,32,0.0,0.0,0.0,-0.4,-0.2,0.0,0,0,0,90,90,180,180,90,90,794,14,0,0
508,32,0.0,0.0,0.0,-0.5,-0.2,0.0,0,0,0,90,90,180,180,90,90,792,17,0,0
509,32,0.0,0.0,0.0,-0.5,-0.1,0.0,0,0,0,90,90,180,180,90,90,792,18,0,0
510,32,0.0,0.0,0.0,-0.6,-0.1,0.0,0,0,0,90,90,180,180,90,90,792,25,0,0
511,32,0.0,0.0,0.0,-0.6,-0.1,0.2,0,0,56,90,90,180,180,90,90,792,18,0,0
512,32,0.0,0.0,0.0,-0.5,-0.1,0.2,0,0,56,90,90,180,180,90,90,792,18,0,0
513,32,0.0,0.0,0.0,-0.5,0.0,0.2,0,0,56,90,90,180,180,90,90,792,16,0,0
514,32,0.0,0.0,0.0,-0.5,0.0,0.2,0,0,56,90,90,180,180,90,90,792,18,0,0
515,32,0.0,0.0,0.0,-0.4,-0.1,0.0,0,0,0,90,90,180,180,90,90,792,18,0,0
516,32,0.0,0.0,0.0,-0.4,-0.2,0.0,0,0,0,90,90,180,180,90,90,792,19,0,0
517,32,0.0,0.0,0.0,-0.4,-0.1,0.0,0,0,0,90,90,180,180,90,90,792,19,0,0
518,32,0.0,0.0,0.0,-0.4,-0.1,0.0,0,0,0,90,90,180,180,90,90,792,18,0,0
519,32,0.0,0.0,0.0,-0.3,-0.3,0.0,0,0,0,90,90,180,180,90,90,792,20,0,0
520,32,0.0,0.0,0.0,-0.3,-0.2,0.3,0,0,56,90,90,180,180,90,90,792,24,0,0
521,32,0.0,0.0,0.0,-0.4,-0.1,0.3,0,0,56,90,90,180,180,90,90,792,28,0,0
522,32,0.0,0.0,0.0,-0.5,-0.2,0.0,0,0,0,90,90,180,180,90,90,792,27,0,0
523,32,0.0,0.0,0.0,-0.4,-0.2,0.0,0,0,0,90,90,180,180,90,90,792,17,0,0
524,32,0.0,0.0,0.0,-0.6,-0.2,0.0,0,0,0,90,90,180,180,90,90,792,23,0,0
525,32,0.0,0.0,0.0,-0.5,-0.2,0.0,0,0,0,90,90,180,180,90,90,792,17,0,0
526,32,0.0,0.0,0.0,-0.5,-0.1,0.2,0,0,5682,90,90,180,180,90,90,792,18,0,0
527,32,0.0,0.0,0.0,-0.5,-0.2,0.2,0,0,5682,90,90,180,180,90,90,794,15,0,0
528,32,0.0,0.0,0.0,-0.5,-0.2,0.2,0,0,5682,90,90,180,180,90,90,792,14,0,0
529,32,0.0,0.0,0.0,-0.5,-0.2,0.0,0,0,0,90,90,180,180,90,90,794,14,0,0
530,32,0.0,0.0,0.0,-0.5,-0.3,0.0,0,0,0,90,90,180,180,90,90,792,14,0,0
531,32,0.0,0.0,0.0,-0.5,-0.3,0.0,0,0,0,90,90,180,180,90,90,794,13,0,0
532,32,0.0,0.0,0.0,-0.5,-0.3,0.0,0,0,0,90,90,180,180,90,90,792,17,0,0
533,32,0.0,0.0,0.0,-0.6,-0.1,0.2,0,0,568,90,90,180,180,90,90,794,14,0,0
534,32,0.0,0.0,0.0,-0.6,-0.1,0.2,0,0,568,90,90,180,180,90,90,792,13,0,0
535,32,0.0,0.0,0.0,-0.5,-0.1,0.2,0,0,568,90,90,180,180,90,90,792,14,0,0
536,32,0.0,0.0,0.0,-0.6,-0.1,0.2,0,0,568,90,90,180,180,90,90,794,14,0,0
537,32,0.0,0.0,0.0,-0.5,-0.2,0.2,0,0,568,90,90,180,180,90,90,792,15,0,0
538,32,0.0,0.0,0.0,-0.5,-0.2,0.0,0,0,0,90,90,180,180,90,90,794,12,0,0
539,32,0.0,0.0,0.0,-0.5,0.0,0.0,0,0,0,90,90,180,180,90,90,794,17,0,0
540,32,0.0,0.0,0.0,-0.5,-0.3,0.8,0,0,17,90,90,180,180,90,90,792,17,0,0
541,32,0.0,0.0,0.0,-0.5,-0.3,0.8,0,0,17,90,90,180,180,90,90,792,18,0,0
542,32,0.0,0.0,0.0,-0.5,-0.1,0.8,0,0,17,90,90,180,180,90,90,792,21,0,0
543,32,0.0,0.0,0.0,-0.5,-0.1,0.8,0,0,17,90,90,180,180,90,90,792,23,0,0
544,32,0.0,0.0,0.0,-0.5,0.0,0.8,0,0,17,90,90,180,180,90,90,792,23,0,0
545,32,0.0,0.0,0.0,-0.4,0.0,0.8,0,0,17,90,90,180,180,90,90,792,22,0,0
546,32,0.0,0.0,0.0,-0.4,-0.1,0.8,0,0,17,90,90,180,180,90,90,794,18,0,0
547,32,0.0,0.0,0.0,-0.6,0.0,0.8,0,0,17,90,90,180,180,90,90,792,17,0,0
548,32,0.0,0.0,0.0,-0.6,0.0,0.8,0,0,17,90,90,180,180,90,90,792,15,0,0
549,32,0.0,0.0,0.0,-0.5,0.0,0.8,0,0,17,90,90,180,180,90,90,794,13,0,0
550,32,0.0,0.0,0.0,-0.5,0.0,0.8,0,0,17,90,90,180,180,90,90,792,17,0,0
551,32,0.0,0.0,0.0,-0.6,0.1,0.2,0,0,0,90,90,180,180,90,90,792,14,0,0
552,32,0.0,0.0,0.0,-0.5,0.0,0.2,0,0,0,90,90,180,180,90,90,794,13,0,0
553,32,0.0,0.0,0.0,-0.4,0.1,0.2,0,0,0,90,90,180,180,90,90,794,12,0,0
554,32,0.0,0.0,0.0,-0.4,0.0,0.2,0,0,0,90,90,180,180,90,90,792,11,0,0
555,32,0.0,0.0,0.0,-0.4,-0.1,0.2,0,0,0,90,90,180,180,90,90,794,11,0,0
556,32,0.0,0.0,0.0,-0.4,-0.1,0.2,0,0,0,90,90,180,180,90,90,794,5,0,0
557,32,0.0,0.0,0.0,-0.4,-0.2,0.2,0,0,0,90,90,180,180,90,90,794,5,0,0
558,32,0.0,0.0,0.0,-0.5,-0.2,0.2,0,0,0,90,90,180,180,90,90,794,5,0,0
559,32,0.0,0.0,0.0,-0.5,-0.1,0.2,0,0,0,90,90,180,180,90,90,794,9,0,0
560,32,0.0,0.0,0.0,-0.5,-0.2,0.2,0,0,0,90,90,180,180,90,90,794,5,0,0
561,32,0.0,0.0,0.0,-0.5,-0.3,0.2,0,0,0,90,90,180,180,90,90,794,10,0,0
562,32,0.0,0.0,0.0,-0.5,-0.3,0.2,0,0,0,90,90,180,180,90,90,794,10,0,0
563,32,0.0,0.0,0.0,-0.4,-0.4,0.2,0,0,0,90,90,180,180,90,90,794,15,0,0
564,32,0.0,0.0,0.0,-0.5,-0.2,0.2,0,0,0,90,90,180,180,90,90,792,15,0,0
565,32,0.0,0.0,0.0,-0.5,-0.3,0.2,0,0,0,90,90,180,180,90,90,794,15,0,0
566,32,0.0,0.0,0.0,-0.5,-0.5,0.2,0,0,0,90,90,180,180,90,90,794,15,0,0
567,32,0.0,0.0,0.0,-0.5,-0.6,0.2,0,0,0,90,90,180,180,90,90,792,14,0,0
568,32,0.0,0.0,0.0,-0.6,-0.4,0.2,0,0,0,90,90,180,180,90,90,794,14,0,0
569,32,0.0,0.0,0.0,-0.5,-0.1,0.2,0,0,0,90,90,180,180,90,90,794,14,0,0
570,32,0.0,0.0,0.0,-0.5,-0.2,0.2,0,0,0,90,90,180,180,90,90,794,13,0,0
571,32,0.0,0.0,0.0,-0.5,-0.2,0.2,0,0,0,90,90,180,180,90,90,792,13,0,0
572,32,0.0,0.0,0.0,-0.5,-0.4,0.2,0,0,0,90,90,180,180,90,90,794,13,0,0
573,32,0.0,0.0,0.0,-0.5,-0.4,0.2,0,0,0,90,90,180,180,90,90,794,13,0,0
574,32,0.0,0.0,0.0,-0.4,-0.3,0.2,0,0,0,90,90,180,180,90,90,794,13,0,0
575,32,0.0,0.0,0.0,-0.5,-0.3,0.2,0,0,0,90,90,180,180,90,90,794,13,0,0
576,32,0.0,0.0,0.0,-0.4,-0.3,0.2,0,0,0,90,90,180,180,90,90,794,13,0,0
577,32,0.0,0.0,0.0,-0.5,-0.3,0.2,0,0,0,90,90,180,180,90,90,794,13,0,0
578,32,0.0,0.0,0.0,-0.4,-0.3,0.2,0,0,0,90,90,180,180,90,90,794,13,0,0
579,32,0.0,0.0,0.0,-0.6,-0.3,0.2,0,0,0,90,90,180,180,90,90,792,5,0,0
580,32,0.0,0.0,0.0,-0.7,-0.4,0.2,0,0,0,90,90,180,180,90,90,792,12,0,0
581,32,0.0,0.0,0.0,-0.6,-0.5,0.2,0,0,0,90,90,180,180,90,90,792,13,0,0
582,32,0.0,0.0,0.0,-0.5,-0.5,0.2,0,0,0,90,90,180,180,90,90,792,24,0,0
583,32,0.0,0.0,0.0,-0.5,-0.5,0.2,0,0,0,90,90,180,180,90,90,792,19,0,0
584,32,0.0,0.0,0.0,-0.5,-0.5,0.2,0,0,0,90,90,180,180,90,90,792,17,0,0
585,32,0.0,0.0,0.0,-0.4,-0.5,0.2,0,0,0,90,90,180,180,90,90,792,18,0,0
586,32,0.0,0.0,0.0,-0.4,-0.5,0.2,0,0,0,90,90,180,180,90,90,792,15,0,0
587,32,0.0,0.0,0.0,-0.4,-0.5,0.2,0,0,0,90,90,180,180,90,90,792,14,0,0
588,32,0.0,0.0,0.0,-0.4,-0.4,0.2,0,0,0,90,90,180,180,90,90,792,18,0,0
589,32,0.0,0.0,0.0,-0.4,-0.4,0.2,0,0,0,90,90,180,180,90,90,792,20,0,0
590,32,0.0,0.0,0.0,-0.5,-0.3,0.2,0,0,0,90,90,180,180,90,90,792,10,0,0
591,32,0.0,0.0,0.0,-0.5,-0.3,0.2,0,0,0,90,90,180,180,90,90,792,23,0,0
592,32,0.0,0.0,0.0,-0.6,-0.4,0.2,0,0,0,90,90,180,180,90,90,792,22,0,0
593,32,0.0,0.0,0.0,-0.6,-0.1,0.2,0,0,0,90,90,180,180,90,90,792,18,0,0
594,32,0.0,0.0,0.0,-0.4,-0.2,0.2,0,0,0,90,90,180,180,90,90,792,20,0,0
595,32,0.0,0.0,0.0,-0.5,-0.3,0.2,0,0,0,90,90,180,180,90,90,792,18,0,0
596,32,0.0,0.0,0.0,-0.5,-0.2,0.2,0,0,0,90,90,180,180,90,90,792,19,0,0
597,32,0.0,0.0,0.0,-0.4,-0.4,0.2,0,0,0,90,90,180,180,90,90,792,19,0,0
598,32,0.0,0.0,0.0,-0.4,-0.3,0.2,0,0,0,90,90,180,180,90,90,792,18,0,0
599,32,0.0,0.0,0.0,-0.5,-0.4,0.2,0,0,0,90,90,180,180,90,90,792,21,0,0
600,32,0.0,0.0,0.0,-0.5,-0.5,0.2,0,0,0,90,90,180,180,90,90,792,18,0,0
601,32,0.0,0.0,0.0,-0.5,-0.3,0.2,0,0,1,90,90,180,180,90,90,792,21,0,0
602,32,0.0,0.0,0.0,-0.6,-0.3,0.2,0,0,1,90,90,180,180,90,90,792,20,0,0
603,32,0.0,0.0,0.0,-0.5,-0.6,0.2,0,0,1,90,90,180,180,90,90,792,20,0,0
604,32,0.0,0.0,0.0,-0.6,-0.4,0.2,0,0,1,90,90,180,180,90,90,792,19,0,0
605,32,0.0,0.0,0.0,-0.5,-0.3,0.2,0,0,1,90,90,180,180,90,90,792,17,0,0
606,32,0.0,0.0,0.0,-0.5,0.2,0.2,0,0,1,90,90,180,180,90,90,792,20,0,0
607,32,0.0,0.0,0.0,-0.4,0.0,0.2,0,0,1,90,90,180,180,90,90,792,17,0,0
608,32,0.0,0.0,0.0,-0.5,0.0,0.2,0,0,1,90,90,180,180,90,90,792,19,0,0
609,32,0.0,0.0,0.0,-0.3,0.0,0.2,0,0,1,90,90,180,180,90,90,792,17,0,0
610,32,0.0,0.0,0.0,-0.3,0.0,0.2,0,0,1,90,90,180,180,90,90,792,13,0,0
611,32,0.0,0.0,0.0,-0.4,-0.1,0.2,0,0,1,90,90,180,180,90,90,792,13,0,0
612,32,0.0,0.0,0.0,-0.6,0.0,0.2,0,0,1,90,90,180,180,90,90,792,11,0,0
613,32,0.0,0.0,0.0,-0.5,0.0,0.2,0,0,1,90,90,180,180,90,90,792,12,0,0
614,32,0.0,0.0,0.0,-0.5,-0.1,0.2,0,0,0,90,90,180,180,90,90,792,14,0,0
615,32,0.0,0.0,0.0,-0.4,0.0,0.2,0,0,0,90,90,180,180,90,90,792,18,0,0
616,32,0.0,0.0,0.0,-0.5,0.0,0.2,0,0,0,90,90,180,180,90,90,792,19,0,0
617,32,0.0,0.0,0.0,-0.4,0.1,0.2,0,0,0,90,90,180,180,90,90,792,17,0,0
618,32,0.0,0.0,0.0,-0.4,0.0,0.2,0,0,0,90,90,180,180,90,90,792,15,0,0
619,32,0.0,0.0,0.0,-0.5,0.0,0.2,0,0,0,90,90,180,180,90,90,792,15,0,0
620,32,0.0,0.0,0.0,-0.6,0.0,0.2,0,0,0,90,90,180,180,90,90,792,11,0,0
621,32,0.0,0.0,0.0,-0.6,0.0,0.2,0,0,0,90,90,180,180,90,90,792,11,0,0
622,32,0.0,0.0,0.0,-0.4,0.1,0.2,0,0,0,90,90,180,180,90,90,792,12,0,0
623,32,0.0,0.0,0.0,-0.4,0.3,0.2,0,0,0,90,90,180,180,90,90,792,11,0,0
624,32,0.0,0.0,0.0,-0.5,0.2,0.2,0,0,0,90,90,180,180,90,90,792,13,0,0
625,32,0.0,0.0,0.0,-0.5,0.2,0.2,0,0,0,90,90,180,180,90,90,792,11,0,0
626,32,0.0,0.0,0.0,-0.5,0.1,0.2,0,0,0,90,90,180,180,90,90,792,12,0,0
627,32,0.0,0.0,0.0,-0.4,0.1,0.2,0,0,0,90,90,180,180,90,90,792,15,0,0
628,32,0.0,0.0,0.0,-0.5,0.3,0.2,0,0,0,90,90,180,180,90,90,792,13,0,0
629,32,0.0,0.0,0.0,-0.6,0.2,0.2,0,0,0,90,90,180,180,90,90,792,17,0,0
630,32,0.0,0.0,0.0,-0.6,0.2,0.2,0,0,0,90,90,180,180,90,90,792,15,0,0
631,32,0.0,0.0,0.0,-0.6,0.2,0.2,0,0,0,90,90,180,180,90,90,792,16,0,0
632,32,0.0,0.0,0.0,-0.6,0.2,0.2,0,0,0,90,90,180,180,90,90,792,16,0,0
633,32,0.0,0.0,0.0,-0.5,0.2,0.2,0,0,0,90,90,180,180,90,90,792,16,0,0
634,32,0.0,0.0,0.0,-0.5,0.2,0.2,0,0,0,90,90,180,180,90,90,792,16,0,0
635,32,0.0,0.0,0.0,-0.3,0.1,0.2,0,0,0,90,90,180,180,90,90,792,16,0,0
636,32,0.0,0.0,0.0,-0.6,0.3,0.2,0,0,0,90,90,180,180,90,90,792,17,0,0
637,32,0.0,0.0,0.0,-0.5,0.2,0.2,0,0,0,90,90,180,180,90,90,792,16,0,0
638,32,0.0,0.0,0.0,-0.5,0.0,0.2,0,0,0,90,90,180,180,90,90,792,15,0,0
639,32,0.0,0.0,0.0,-0.5,0.0,0.2,0,0,5,90,90,180,180,90,90,792,13,0,0
640,32,0.0,0.0,0.0,-0.4,0.0,0.2,0,0,5,90,90,180,180,90,90,792,14,0,0
641,32,0.0,0.0,0.0,-0.5,0.2,0.2,0,0,5,90,90,180,180,90,90,792,16,0,0
642,32,0.0,0.0,0.0,-0.4,0.2,0.2,0,0,5,90,90,180,180,90,90,792,15,0,0
643,32,0.0,0.0,0.0,-0.4,0.2,0.2,0,0,5,90,90,180,180,90,90,792,18,0,0
644,32,0.0,0.0,0.0,-0.6,0.2,0.2,0,0,5,90,90,180,180,90,90,792,16,0,0
645,32,0.0,0.0,0.0,-0.5,0.0,0.2,0,0,5,90,90,180,180,90,90,792,18,0,0
646,32,0.0,0.0,0.0,-0.5,0.1,0.2,0,0,5,90,90,180,180,90,90,792,16,0,0
647,32,0.0,0.0,0.0,-0.6,0.4,0.2,0,0,5,90,90,180,180,90,90,792,10,0,0
648,32,0.0,0.0,0.0,-0.4,0.3,0.2,0,0,5,90,90,180,180,90,90,792,15,0,0
649,32,0.0,0.0,0.0,-0.6,0.3,0.2,0,0,5,90,90,180,180,90,90,792,21,0,0
650,32,0.0,0.0,0.0,-0.6,0.2,0.2,0,0,5,90,90,180,180,90,90,792,15,0,0
651,32,0.0,0.0,0.0,-0.3,0.0,0.2,0,0,5,90,90,180,180,90,90,792,19,0,0
652,32,0.0,0.0,0.0,-0.5,0.0,0.2,0,0,8,90,90,180,180,90,90,792,20,0,0
653,32,0.0,0.0,0.0,-0.5,-0.1,0.2,0,0,8,90,90,180,180,90,90,792,16,0,0
654,32,0.0,0.0,0.0,-0.5,0.0,0.2,0,0,8,90,90,180,180,90,90,792,15,0,0
655,32,0.0,0.0,0.0,-0.5,-0.2,0.2,0,0,8,90,90,180,180,90,90,792,20,0,0
656,32,0.0,0.0,0.0,-0.4,-0.1,0.2,0,0,8,90,90,180,180,90,90,792,15,0,0
657,32,0.0,0.0,0.0,-0.4,-0.2,0.2,0,0,8,90,90,180,180,90,90,792,18,0,0
658,32,0.0,0.0,0.0,-0.5,-0.2,0.2,0,0,8,90,90,180,180,90,90,792,16,0,0
659,32,0.0,0.0,0.0,-0.4,0.0,0.2,0,0,8,90,90,180,180,90,90,792,14,0,0
660,32,0.0,0.0,0.0,-0.5,-0.2,0.2,0,0,8,90,90,180,180,90,90,792,13,0,0
661,32,0.0,0.0,0.0,-0.6,-0.2,0.2,0,0,8,90,90,180,180,90,90,792,16,0,0
662,32,0.0,0.0,0.0,-0.5,-0.1,0.2,0,0,8,90,90,180,180,90,90,792,12,0,0
663,32,0.0,0.0,0.0,-0.5,0.0,0.2,0,0,8,90,90,180,180,90,90,792,15,0,0
664,32,0.0,0.0,0.0,-0.5,0.0,0.2,0,0,0,90,90,180,180,90,90,792,14,0,0
665,32,0.0,0.0,0.0,-0.6,-0.1,0.2,0,0,0,90,90,180,180,90,90,792,14,0,0
666,32,0.0,0.0,0.0,-0.6,0.0,0.2,0,0,0,90,90,180,180,90,90,792,16,0,0
667,32,0.0,0.0,0.0,-0.6,-0.1,0.2,0,0,0,90,90,180,180,90,90,792,14,0,0
668,32,0.0,0.0,0.0,-0.5,-0.1,0.2,0,0,0,90,90,180,180,90,90,792,11,0,0
669,32,0.0,0.0,0.0,-0.5,0.0,0.2,0,0,0,90,90,180,180,90,90,792,13,0,0
670,32,0.0,0.0,0.0,-0.5,0.2,0.2,0,0,0,90,90,180,180,90,90,792,13,0,0
671,32,0.0,0.0,0.0,-0.5,0.2,0.2,0,0,0,90,90,180,180,90,90,792,13,0,0
672,32,0.0,0.0,0.0,-0.6,0.0,0.2,0,0,0,90,90,180,180,90,90,792,13,0,0
673,32,0.0,0.0,0.0,-0.5,-0.2,0.2,0,0,0,90,90,180,180,90,90,792,18,0,0
674,32,0.0,0.0,0.0,-0.5,0.0,0.2,0,0,0,90,90,180,180,90,90,792,13,0,0
675,32,0.0,0.0,0.0,-0.6,-0.1,0.2,0,5,6810,90,90,180,180,90,90,792,13,0,0
676,32,0.0,0.0,0.0,-0.6,0.0,0.2,0,5,6810,90,90,180,180,90,90,792,13,0,0
677,32,0.0,0.0,0.0,-0.5,-0.1,0.2,0,5,6810,90,90,180,180,90,90,792,13,0,0
678,32,0.0,0.0,0.0,-0.4,-0.4,0.2,0,5,6810,90,90,180,180,90,90,792,13,0,0
679,32,0.0,0.0,0.0,-0.4,-0.3,0.2,0,5,6810,90,90,180,180,90,90,792,13,0,0
680,32,0.0,0.0,0.0,-0.5,-0.2,0.2,0,5,6810,90,90,180,180,90,90,792,13,0,0
681,32,0.0,0.0,0.0,-0.5,-0.2,0.2,0,5,6810,90,90,180,180,90,90,792,13,0,0
682,32,0.0,0.0,0.0,-0.5,-0.2,0.2,0,5,6810,90,90,180,180,90,90,792,13,0,0
683,32,0.0,0.0,0.0,-0.4,-0.1,0.2,0,5,6810,90,90,180,180,90,90,792,13,0,0
684,32,0.0,0.0,0.0,-0.4,-0.2,0.2,0,5,6810,90,90,180,180,90,90,792,13,0,0
685,32,0.0,0.0,0.0,-0.5,-0.2,0.2,0,5,6810,90,90,180,180,90,90,792,13,0,0
686,32,0.0,0.0,0.0,-0.6,0.0,0.2,0,0,5681,90,90,180,180,90,90,792,13,0,0
687,32,0.0,0.0,0.0,-0.5,-0.1,0.2,0,0,5681,90,90,180,180,90,90,792,13,0,0
688,32,0.0,0.0,0.0,-0.4,-0.4,0.2,0,0,5681,90,90,180,180,90,90,792,13,0,0
689,32,0.0,0.0,0.0,-0.5,-0.3,0.2,0,0,5681,90,90,180,180,90,90,792,13,0,0
690,32,0.0,0.0,0.0,-0.5,-0.1,0.2,0,0,5681,90,90,180,180,90,90,792,13,0,0
691,32,0.0,0.0,0.0,-0.5,0.0,0.2,0,0,5681,90,90,180,180,90,90,792,13,0,0
692,32,0.0,0.0,0.0,-0.5,-0.1,0.2,0,0,5681,90,90,180,180,90,90,792,13,0,0
693,32,0.0,0.0,0.0,-0.5,-0.3,0.2,0,0,5681,90,90,180,180,90,90,792,13,0,0
694,32,0.0,0.0,0.0,-0.6,-0.1,0.2,0,0,5681,90,90,180,180,90,90,792,13,0,0
695,32,0.0,0.0,0.0,-0.5,-0.1,0.2,0,0,5681,90,90,180,180,90,90,792,13,0,0
696,32,0.0,0.0,0.0,-0.5,0.0,0.2,0,0,5681,90,90,180,180,90,90,792,13,0,0
697,32,0.0,0.0,0.0,-0.5,-0.2,0.2,0,0,568,90,90,180,180,90,90,792,13,0,0
698,32,0.0,0.0,0.0,-0.4,-0.2,0.2,0,0,568,90,90,180,180,90,90,792,13,0,0
699,32,0.0,0.0,0.0,-0.5,-0.2,0.2,0,0,568,90,90,180,180,90,90,792,13,0,0
700,32,0.0,0.0,0.0,-0.4,-0.2,0.2,0,0,568,90,90,180,180,90,90,792,13,0,0
701,32,0.0,0.0,0.0,-0.5,0.0,0.2,0,0,568,90,90,180,180,90,90,792,13,0,0
702,32,0.0,0.0,0.0,-0.4,0.0,0.2,0,0,568,90,90,180,180,90,90,792,13,0,0
703,32,0.0,0.0,0.0,-0.5,0.0,0.2,0,0,568,90,90,180,180,90,90,792,13,0,0
704,32,0.0,0.0,0.0,-0.5,0.0,0.2,0,0,568,90,90,180,180,90,90,792,13,0,0
705,32,0.0,0.0,0.0,-0.5,0.0,0.2,0,0,568,90,90,180,180,90,90,792,13,0,0
706,32,0.0,0.0,0.0,-0.5,0.0,0.2,0,0,568,90,90,180,180,90,90,792,13,0,0
707,32,0.0,0.0,0.0,-0.5,0.0,0.2,0,0,568,90,90,180,180,90,90,792,13,0,0
708,32,0.0,0.0,0.0,-0.5,0.0,0.2,0,0,568,90,90,180,180,90,90,792,13,0,0
709,32,0.0,0.0,0.0,-0.4,0.0,0.2,0,0,568,90,90,180,180,90,90,792,13,0,0
710,32,0.0,0.0,0.0,-0.5,0.1,0.2,0,0,568,90,90,180,180,90,90,792,13,0,0
711,32,0.0,0.0,0.0,-0.5,0.0,0.2,0,0,568,90,90,180,180,90,90,792,13,0,0
712,32,0.0,0.0,0.0,-0.5,0.0,0.2,0,0,568,90,90,180,180,90,90,792,13,0,0
713,32,0.0,0.0,0.0,-0.6,0.0,0.4,0,0,0,90,90,180,180,90,90,792,13,0,0
714,32,0.0,0.0,0.0,-0.5,0.0,0.4,0,0,0,90,90,180,180,90,90,792,13,0,0
715,32,0.0,0.0,0.0,-0.5,0.0,0.4,0,0,0,90,90,180,180,90,90,792,13,0,0
716,32,0.0,0.0,0.0,-0.5,0.0,0.4,0,0,0,90,90,180,180,90,90,792,13,0,0
717,32,0.0,0.0,0.0,-0.4,0.0,0.4,0,0,0,90,90,180,180,90,90,792,13,0,0
718,32,0.0,0.0,0.0,-0.6,-0.1,0.2,0,0,568,90,90,180,180,90,90,792,13,0,0
719,32,0.0,0.0,0.0,-0.5,0.1,0.2,0,0,568,90,90,180,180,90,90,792,13,0,0
720,32,0.0,0.0,0.0,-0.4,0.3,0.2,0,0,568,90,90,180,180,90,90,792,13,0,0
721,32,0.0,0.0,0.0,-0.5,0.4,0.2,0,0,568,90,90,180,180,90,90,792,13,0,0
722,32,0.0,0.0,0.0,-0.5,0.3,0.0,0,0,0,90,90,180,180,90,90,792,13,0,0
723,32,0.0,0.0,0.0,-0.5,0.4,0.0,0,0,0,90,90,180,180,90,90,792,13,0,0
724,32,0.0,0.0,0.0,-0.5,0.5,0.0,0,0,0,90,90,180,180,90,90,792,13,0,0
725,32,0.0,0.0,0.0,-0.8,0.4,0.0,0,0,0,90,90,180,180,90,90,792,13,0,0
726,32,0.0,0.0,0.0,-0.6,0.5,0.0,0,0,0,90,90,180,180,90,90,792,13,0,0
727,32,0.0,0.0,0.0,-0.5,0.5,0.2,0,0,5682,90,90,180,180,90,90,792,13,0,0
728,32,0.0,0.0,0.0,-0.5,0.4,0.2,0,0,5682,90,90,180,180,90,90,792,13,0,0
729,32,0.0,0.0,0.0,-0.5,0.6,0.2,0,0,5682,90,90,180,180,90,90,792,13,0,0
730,32,0.0,0.0,0.0,-0.5,0.5,0.2,0,0,5682,90,90,180,180,90,90,792,13,0,0
731,32,0.0,0.0,0.0,-0.6,0.5,0.0,0,0,0,90,90,180,180,90,90,792,13,0,0
732,32,0.0,0.0,0.0,-0.4,0.6,0.0,0,0,0,90,90,180,180,90,90,792,13,0,0
733,32,0.0,0.0,0.0,-0.3,0.6,0.0,0,0,0,90,90,180,180,90,90,792,13,0,0
734,32,0.0,0.0,0.0,-0.4,0.5,0.0,0,0,0,90,90,180,180,90,90,792,13,0,0
735,32,0.0,0.0,0.0,-0.5,0.6,0.0,0,0,0,90,90,180,180,90,90,792,13,0,0
736,32,0.0,0.0,0.0,-0.6,0.5,0.2,0,0,5680,90,90,180,180,90,90,792,13,0,0
737,32,0.0,0.0,0.0,-0.5,0.4,0.2,0,0,5680,90,90,180,180,90,90,792,13,0,0
738,32,0.0,0.0,0.0,-0.6,0.5,0.2,0,0,5680,90,90,180,180,90,90,792,13,0,0
739,32,0.0,0.0,0.0,-0.7,0.4,0.2,0,0,5680,90,90,180,180,90,90,792,13,0,0
740,32,0.0,0.0,0.0,-0.7,0.6,0.2,0,0,5680,90,90,180,180,90,90,792,13,0,0
741,32,0.0,0.0,0.0,-0.4,0.6,0.2,0,0,5680,90,90,180,180,90,90,792,13,0,0
742,32,0.0,0.0,0.0,-0.4,0.6,0.2,0,0,5680,90,90,180,180,90,90,792,13,0,0
743,32,0.0,0.0,0.0,-0.4,0.5,0.2,0,0,5680,90,90,180,180,90,90,792,13,0,0
744,32,0.0,0.0,0.0,-0.1,0.4,0.2,0,0,5680,90,90,180,180,90,90,792,13,0,0
745,32,0.0,0.0,0.0,-0.9,0.4,0.2,0,0,567,90,90,180,180,90,90,792,13,0,0
746,32,0.0,0.0,0.0,-0.6,0.3,0.2,0,0,567,90,90,180,180,90,90,792,13,0,0
747,32,0.0,0.0,0.0,-0.5,0.0,0.2,0,0,567,90,90,180,180,90,90,792,13,0,0
748,32,0.0,0.0,0.0,-0.6,0.1,0.2,0,0,567,90,90,180,180,90,90,792,13,0,0
749,32,0.0,0.0,0.0,-0.6,0.0,0.2,0,0,567,90,90,180,180,90,90,792,13,0,0
750,32,0.0,0.0,0.0,-0.5,0.0,0.2,0,0,567,90,90,180,180,90,90,792,13,0,0
751,32,0.0,0.0,0.0,-0.4,0.2,0.2,0,0,567,90,90,180,180,90,90,792,13,0,0
752,32,0.0,0.0,0.0,-0.3,0.1,0.2,0,0,567,90,90,180,180,90,90,792,13,0,0
753,32,0.0,0.0,0.0,-0.4,0.0,0.2,0,0,567,90,90,180,180,90,90,792,13,0,0
754,32,0.0,0.0,0.0,-0.5,0.1,0.2,0,0,567,90,90,180,180,90,90,792,13,0,0
755,32,0.0,0.0,0.0,-0.6,0.2,0.2,0,0,567,90,90,180,180,90,90,792,13,0,0
756,32,0.0,0.0,0.0,-0.4,0.3,0.2,0,0,567,90,90,180,180,90,90,792,13,0,0
757,32,0.0,0.0,0.0,-0.4,0.1,0.2,0,0,567,90,90,180,180,90,90,792,13,0,0
758,32,0.0,0.0,0.0,-0.4,0.1,0.2,0,0,567,90,90,180,180,90,90,792,13,0,0
759,32,0.0,0.0,0.0,-0.5,0.2,0.2,0,0,567,90,90,180,180,90,90,792,13,0,0
760,32,0.0,0.0,0.0,-0.5,0.2,0.2,0,0,567,90,90,180,180,90,90,792,13,0,0
761,32,0.0,0.0,0.0,-0.5,0.2,0.2,0,0,568,90,90,180,180,90,90,792,13,0,0
762,32,0.0,0.0,0.0,-0.5,0.3,0.2,0,0,568,90,90,180,180,90,90,792,13,0,0
763,32,0.0,0.0,0.0,-0.4,0.2,0.2,0,0,568,90,90,180,180,90,90,792,13,0,0
764,32,0.0,0.0,0.0,-0.4,0.1,0.2,0,0,568,90,90,180,180,90,90,792,13,0,0
765,32,0.0,0.0,0.0,-0.5,0.2,0.2,0,0,568,90,90,180,180,90,90,792,13,0,0
766,32,0.0,0.0,0.0,-0.5,0.2,0.2,0,0,568,90,90,180,180,90,90,792,13,0,0
767,32,0.0,0.0,0.0,-0.6,0.1,0.2,0,0,568,90,90,180,180,90,90,792,13,0,0
768,32,0.0,0.0,0.0,-0.6,0.2,0.2,0,0,568,90,90,180,180,90,90,792,13,0,0
769,32,0.0,0.0,0.0,-0.6,0.2,0.2,0,0,568,90,90,180,180,90,90,792,13,0,0
770,32,0.0,0.0,0.0,-0.5,0.3,0.2,0,5,6816,90,90,180,180,90,90,792,13,0,0
771,32,0.0,0.0,0.0,-0.6,0.3,0.2,0,5,6816,90,90,180,180,90,90,792,13,0,0
772,32,0.0,0.0,0.0,-0.5,0.2,0.2,0,5,6816,90,90,180,180,90,90,792,13,0,0
773,32,0.0,0.0,0.0,-0.5,0.4,0.2,0,5,6816,90,90,180,180,90,90,792,13,0,0
774,32,0.0,0.0,0.0,-0.6,0.3,0.2,0,5,6816,90,90,180,180,90,90,792,13,0,0
775,32,0.0,0.0,0.0,-0.6,0.3,0.2,0,5,6816,90,90,180,180,90,90,792,13,0,0
776,32,0.0,0.0,0.0,-0.6,0.2,0.0,0,0,0,90,90,180,180,90,90,792,13,0,0
777,32,0.0,0.0,0.0,-0.4,0.3,0.0,0,0,0,90,90,180,180,90,90,792,13,0,0
778,32,0.0,0.0,0.0,-0.5,0.3,0.0,0,0,0,90,90,180,180,90,90,792,13,0,0
779,32,0.0,0.0,0.0,-0.5,0.5,0.2,0,0,5683,90,90,180,180,90,90,792,13,0,0
780,32,0.0,0.0,0.0,-0.5,0.4,0.2,0,0,5683,90,90,180,180,90,90,792,13,0,0
781,32,0.0,0.0,0.0,-0.5,0.4,0.2,0,0,5683,90,90,180,180,90,90,792,13,0,0
782,32,0.0,0.0,0.0,-0.5,0.4,0.2,0,0,5683,90,90,180,180,90,90,792,13,0,0
783,32,0.0,0.0,0.0,-0.4,0.6,0.0,0,0,0,90,90,180,180,90,90,792,13,0,0
784,32,0.0,0.0,0.0,-0.5,0.5,0.0,0,0,0,90,90,180,180,90,90,792,13,0,0
785,32,0.0,0.0,0.0,-0.5,0.5,0.0,0,0,0,90,90,180,180,90,90,792,13,0,0
786,32,0.0,0.0,0.0,-0.5,0.5,0.0,0,0,0,90,90,180,180,90,90,792,13,0,0
787,32,0.0,0.0,0.0,-0.5,0.6,0.0,0,0,0,90,90,180,180,90,90,792,13,0,0
788,32,0.0,0.0,0.0,-0.5,0.6,0.3,0,0,5681,90,90,180,180,90,90,792,13,0,0
789,32,0.0,0.0,0.0,-0.5,0.7,0.3,0,0,5681,90,90,180,180,90,90,792,13,0,0
790,32,0.0,0.0,0.0,-0.7,0.5,0.3,0,0,5681,90,90,180,180,90,90,792,13,0,0
791,32,0.0,0.0,0.0,-0.5,0.5,0.3,0,0,5681,90,90,180,180,90,90,792,13,0,0
792,32,0.0,0.0,0.0,-0.3,0.5,0.3,0,0,5681,90,90,180,180,90,90,792,13,0,0
793,32,0.0,0.0,0.0,-0.4,0.5,0.3,0,0,5681,90,90,180,180,90,90,792,13,0,0
794,32,0.0,0.0,0.0,-0.4,0.6,0.3,0,0,568,90,90,180,180,90,90,792,13,0,0
795,32,0.0,0.0,0.0,-0.4,0.5,0.3,0,0,568,90,90,180,180,90,90,792,13,0,0
796,32,0.0,0.0,0.0,-0.4,0.6,0.3,0,0,568,90,90,180,180,90,90,792,13,0,0
797,32,0.0,0.0,0.0,-0.1,0.1,0.3,0,0,568,90,90,180,180,90,90,792,13,0,0
798,32,0.0,0.0,0.0,-0.6,0.0,0.3,0,0,568,90,90,180,180,90,90,792,13,0,0
799,32,0.0,0.0,0.0,-0.3,-0.2,0.3,0,0,568,90,90,180,180,90,90,792,13,0,0
800,32,0.0,0.0,0.0,-0.7,-0.5,0.3,0,0,568,90,90,180,180,90,90,792,13,0,0
801,32,0.0,0.0,0.0,-0.6,-0.5,0.3,0,0,568,90,90,180,180,90,90,792,13,0,0
802,32,0.0,0.0,0.0,-0.4,-0.7,0.3,0,0,568,90,90,180,180,90,90,792,13,0,0
803,32,0.0,0.0,0.0,-0.3,0.0,0.3,0,0,568,90,90,180,180,90,90,792,13,0,0
804,32,0.0,0.0,0.0,-0.3,0.3,0.3,0,0,568,90,90,180,180,90,90,792,13,0,0
805,32,0.0,0.0,0.0,-0.3,0.3,0.3,0,0,568,90,90,180,180,90,90,792,13,0,0
806,32,0.0,0.0,0.0,-0.3,0.1,0.3,0,0,568,90,90,180,180,90,90,792,13,0,0
