time*0.5 [s],altitude [cm],rot_old [rpm],airspeed [m/s],yaw [deg],pitch [deg],roll [deg],rot_twe [rpm],thrust_h,thrust_m,thrust_l,rudder,elevator,rudderFB,elevatorFB,rudderTrim,elevatortrim,battVoltage,battCurrent,nunchuckC,nunchuckZ
1,19,0.0,0.0,0.0,-2.1,84.6,0.0,0,0,0,0,0,0,0,0,0,0,0,0,0
2,19,0.0,0.0,0.0,-1.7,93.1,0.8,0,0,0,0,0,0,0,0,0,0,0,0,0
3,19,0.0,0.0,0.0,-1.2,101.8,0.8,0,0,0,0,0,0,0,0,0,0,0,0,0
4,19,0.0,0.0,0.0,-1.2,108.4,0.8,0,0,0,0,0,0,0,0,0,0,0,0,0
5,19,0.0,0.0,0.0,-1.7,117.4,0.8,0,0,0,0,0,0,0,0,0,0,0,0,0
6,19,0.0,0.0,0.0,-2.8,126.1,0.8,0,0,0,0,0,0,0,0,0,0,0,0,0
7,19,0.0,0.0,0.0,-3.9,131.7,0.8,0,567,9184,0,0,0,0,0,0,0,0,0,0
8,19,0.0,0.0,0.0,-5.3,137.8,0.8,0,567,9184,0,0,0,0,0,0,0,0,0,0
9,19,0.0,0.0,0.0,-6.4,142.5,0.6,0,0,0,0,0,0,0,0,0,0,0,0,0
10,19,0.0,0.0,0.0,-7.0,145.6,0.6,0,0,0,0,0,0,0,0,0,0,0,0,0
11,19,0.0,0.0,0.0,-7.5,149.5,0.6,0,0,0,0,0,0,0,0,0,0,0,0,0
12,19,0.0,0.0,0.0,-7.8,153.2,0.6,0,0,0,0,0,0,0,0,0,0,0,0,0
13,19,0.0,0.0,0.0,-7.7,155.7,0.6,0,567,8849,0,0,0,0,0,0,0,0,0,0
14,19,0.0,0.0,0.0,-7.3,158.7,0.6,0,567,8849,0,0,0,0,0,0,0,0,0,0
15,19,0.0,0.0,0.0,-6.6,161.2,0.6,0,567,8849,0,0,0,0,0,0,0,0,0,0
16,19,0.0,0.0,0.0,-5.9,163.1,0.6,0,0,56,0,0,0,0,0,0,0,0,0,0
17,19,0.0,0.0,0.0,-5.0,165.5,0.6,0,0,56,0,0,0,0,0,0,0,0,0,0
18,19,0.0,0.0,0.0,-4.2,167.8,0.6,0,0,56,0,0,0,0,0,0,0,0,0,0
19,19,0.0,0.0,0.0,-3.4,168.9,0.6,0,0,56,0,0,0,0,0,0,0,0,0,0
20,19,0.0,0.0,0.0,-2.4,170.5,0.6,0,567,8408,0,0,0,0,0,0,0,0,0,0
21,19,0.0,0.0,0.0,-1.3,171.8,0.6,0,567,8408,0,0,0,0,0,0,0,0,0,0
22,19,0.0,0.0,0.0,-0.6,172.6,0.6,0,567,8408,0,0,0,0,0,0,0,0,0,0
23,19,0.0,0.0,0.0,0.2,173.3,0.6,0,567,8408,0,0,0,0,0,0,0,0,0,0
24,19,0.0,0.0,0.0,0.8,173.8,0.6,0,567,8408,0,0,0,0,0,0,0,0,0,0
25,19,0.0,0.0,0.0,1.4,174.2,0.6,0,0,0,0,0,0,0,0,0,0,0,0,0
26,19,0.0,0.0,0.0,1.9,174.5,0.6,0,0,0,0,0,0,0,0,0,0,0,0,0
27,19,0.0,0.0,0.0,2.1,174.9,0.6,0,567,8484,0,0,0,0,0,0,0,0,0,0
28,19,0.0,0.0,0.0,2.3,175.1,0.6,0,567,8484,0,0,0,0,0,0,0,0,0,0
29,19,0.0,0.0,0.0,2.6,175.1,0.6,0,567,8484,0,0,0,0,0,0,0,0,0,0
30,19,0.0,0.0,0.0,2.7,175.2,0.6,0,567,8484,0,0,0,0,0,0,0,0,0,0
31,19,0.0,0.0,0.0,2.9,175.2,0.6,0,0,0,0,0,0,0,0,0,0,0,0,0
32,19,0.0,0.0,0.0,2.8,175.5,0.6,0,0,0,0,0,0,0,0,0,0,0,0,0
33,19,0.0,0.0,0.0,2.8,175.4,0.6,0,0,0,0,0,0,0,0,0,0,0,0,0
34,19,0.0,0.0,0.0,3.0,175.0,0.6,0,567,8706,0,0,0,0,0,0,0,0,0,0
35,19,0.0,0.0,0.0,3.1,175.0,0.6,0,567,8706,0,0,0,0,0,0,0,0,0,0
36,19,0.0,0.0,0.0,3.2,175.3,0.6,0,567,8706,0,0,0,0,0,0,0,0,0,0
37,19,0.0,0.0,0.0,3.2,175.1,0.6,0,567,8706,0,0,0,0,0,0,0,0,0,0
38,19,0.0,0.0,0.0,3.2,174.9,0.0,0,0,0,0,0,0,0,0,0,0,0,0,0
39,19,0.0,0.0,0.0,3.2,175.1,0.0,0,0,0,0,0,0,0,0,0,0,0,0,0
40,19,0.0,0.0,0.0,3.2,175.1,0.0,0,0,0,0,0,0,0,0,0,0,0,0,0
41,19,0.0,0.0,0.0,3.2,175.1,0.0,0,0,0,0,0,0,0,0,0,0,0,0,0
42,19,0.0,0.0,0.0,3.1,175.2,0.0,0,0,0,0,0,0,0,0,0,0,0,0,0
43,19,0.0,0.0,0.0,3.1,175.2,0.6,0,567,7910,0,0,0,0,0,0,0,0,0,0
44,19,0.0,0.0,0.0,3.2,175.3,0.6,0,567,7910,0,0,0,0,0,0,0,0,0,0
45,19,0.0,0.0,0.0,3.1,175.4,0.0,0,0,0,0,0,0,0,0,0,0,0,0,0
46,19,0.0,0.0,0.0,3.2,175.5,0.0,0,0,0,0,0,0,0,0,0,0,0,0,0
47,19,0.0,0.0,0.0,3.0,175.4,0.0,0,0,0,0,0,0,0,0,0,0,0,0,0
48,19,0.0,0.0,0.0,3.0,175.4,0.0,0,0,0,0,0,0,0,0,0,0,0,0,0
49,19,0.0,0.0,0.0,3.0,175.5,0.6,0,567,7868,0,0,0,0,0,0,0,0,0,0
50,19,0.0,0.0,0.0,3.0,175.6,0.6,0,567,7868,0,0,0,0,0,0,0,0,0,0
51,19,0.0,0.0,0.0,3.0,175.7,0.6,0,567,7868,0,0,0,0,0,0,0,0,0,0
52,19,0.0,0.0,0.0,3.2,175.5,0.0,0,0,0,0,0,0,0,0,0,0,0,0,0
53,19,0.0,0.0,0.0,3.3,175.2,0.0,0,0,0,0,0,0,0,0,0,0,0,0,0
54,19,0.0,0.0,0.0,3.2,175.3,0.0,0,0,0,0,0,0,0,0,0,0,0,0,0
55,19,0.0,0.0,0.0,3.2,175.4,0.0,0,0,0,0,0,0,0,0,0,0,0,0,0
56,19,0.0,0.0,0.0,3.1,175.4,0.6,0,567,8226,0,0,0,0,0,0,0,0,0,0
57,19,0.0,0.0,0.0,3.1,175.4,0.6,0,567,8226,0,0,0,0,0,0,0,0,0,0
58,19,0.0,0.0,0.0,3.3,175.2,0.6,0,567,8226,0,0,0,0,0,0,0,0,0,0
59,19,0.0,0.0,0.0,3.4,175.2,0.6,0,567,8226,0,0,0,0,0,0,0,0,0,0
60,19,0.0,0.0,0.0,3.3,175.2,0.6,0,567,8226,0,0,0,0,0,0,0,0,0,0
61,19,0.0,0.0,0.0,3.3,175.2,0.6,0,567,8226,0,0,0,0,0,0,0,0,0,0
62,19,0.0,0.0,0.0,3.3,175.4,0.6,0,567,8226,90,90,180,180,90,90,792,14,0,0
63,19,0.0,0.0,0.0,3.2,175.4,0.0,0,0,0,90,90,180,180,90,90,792,13,0,0
64,19,0.0,0.0,0.0,3.2,175.3,0.0,0,0,0,90,90,180,180,90,90,792,15,0,0
65,19,0.0,0.0,0.0,3.2,175.5,0.6,0,567,7861,90,90,180,180,90,90,792,15,0,0
66,19,0.0,0.0,0.0,3.3,175.4,0.6,0,567,7861,90,90,180,180,90,90,791,14,0,0
67,19,0.0,0.0,0.0,3.2,175.3,0.6,0,567,7861,18,90,180,180,90,90,780,151,0,0
68,19,0.0,0.0,0.0,3.1,175.3,0.6,0,567,7861,4,90,180,180,90,90,792,5,0,0
69,19,0.0,0.0,0.0,3.1,175.3,0.6,0,567,7861,90,90,180,180,90,90,792,9,0,0
70,19,0.0,0.0,0.0,3.1,175.5,0.6,0,0,0,90,90,180,180,90,90,791,25,0,0
71,19,0.0,0.0,0.0,3.0,175.6,0.6,0,0,0,177,90,180,180,90,90,791,16,0,0
72,19,0.0,0.0,0.0,3.0,175.6,0.6,0,0,0,129,90,180,180,90,90,792,7,0,0
73,19,0.0,0.0,0.0,3.1,175.5,0.6,0,0,0,90,138,180,180,90,90,780,144,0,0
74,19,0.0,0.0,0.0,3.2,175.5,0.6,0,0,0,96,176,180,180,90,90,792,15,0,0
75,19,0.0,0.0,0.0,3.2,175.3,0.6,0,0,0,90,90,180,180,90,90,785,87,0,0
76,19,0.0,0.0,0.0,3.4,175.1,0.0,0,0,0,86,9,180,180,90,90,791,17,0,0
77,19,0.0,0.0,0.0,3.4,175.1,0.0,0,0,0,90,90,180,180,90,90,767,479,0,0
78,19,0.0,0.0,0.0,3.3,175.2,0.0,0,0,0,90,90,180,180,90,90,792,10,0,0
79,19,0.0,0.0,0.0,3.2,175.2,0.6,0,0,0,90,90,180,180,90,90,792,12,0,0
80,19,0.0,0.0,0.0,3.3,174.9,0.6,0,0,0,90,90,180,180,90,90,791,23,0,0
81,19,0.0,0.0,0.0,3.3,174.8,0.6,0,0,0,90,90,180,180,90,90,792,15,0,0
82,19,0.0,0.0,0.0,3.3,174.8,0.6,0,0,0,90,90,180,180,90,90,791,15,0,0
83,19,0.0,0.0,0.0,3.3,174.8,0.0,0,0,0,90,90,180,180,90,90,792,17,0,0
84,19,0.0,0.0,0.0,3.4,174.8,0.0,0,0,0,90,90,180,180,90,90,792,8,0,0
85,19,0.0,0.0,0.0,3.2,175.2,0.0,0,0,0,90,90,180,180,90,90,791,15,0,0
86,19,0.0,0.0,0.0,3.1,175.2,0.0,0,0,0,90,90,180,180,90,90,792,15,0,0
87,19,0.0,0.0,0.0,3.1,175.2,0.0,0,0,0,90,90,180,180,90,90,791,17,0,0
88,19,0.0,0.0,0.0,3.2,175.4,0.0,0,0,0,90,90,180,180,90,90,792,8,0,0
89,19,0.0,0.0,0.0,3.1,175.2,0.0,0,0,0,90,90,180,180,90,90,792,15,0,0
90,19,0.0,0.0,0.0,3.1,175.0,60.0,0,0,0,90,90,180,180,90,90,792,15,0,0
91,19,0.0,0.0,0.0,3.1,175.1,60.0,0,0,0,90,90,180,180,90,90,792,16,0,0
92,19,0.0,0.0,0.0,3.2,174.9,60.0,0,0,0,90,90,180,180,90,90,792,16,0,0
93,19,0.0,0.0,0.0,3.3,174.7,60.0,0,0,0,90,90,180,180,90,90,792,15,0,0
94,19,0.0,0.0,0.0,3.3,174.6,60.0,0,0,0,90,90,180,180,90,90,792,15,0,0
95,19,0.0,0.0,0.0,3.2,174.6,60.0,0,0,0,90,90,180,180,90,90,791,15,0,0
96,19,0.0,0.0,0.0,3.3,175.1,0.5,0,0,0,90,90,180,180,90,90,792,21,0,0
97,19,0.0,0.0,0.0,3.2,175.3,0.5,0,0,0,90,90,180,180,90,90,792,15,0,0
98,19,0.0,0.0,0.0,3.3,175.3,0.5,0,0,0,90,90,180,180,90,90,792,15,0,0
99,19,0.0,0.0,0.0,3.4,175.1,0.5,0,0,0,90,90,180,180,90,90,792,15,0,0
100,19,0.0,0.0,0.0,3.4,175.1,0.5,0,0,0,90,90,180,180,90,90,792,15,0,0
101,19,0.0,0.0,0.0,3.3,175.2,0.5,0,0,0,90,90,180,180,90,90,792,16,0,0
102,19,0.0,0.0,0.0,3.4,175.0,0.5,0,0,0,90,90,180,180,90,90,792,9,0,0
103,19,0.0,0.0,0.0,3.4,174.9,0.5,0,0,0,90,78,180,180,90,90,792,16,0,0
104,19,0.0,0.0,0.0,3.2,175.0,0.5,0,0,0,94,75,180,180,90,90,792,9,0,0
105,19,0.0,0.0,0.0,3.2,174.9,0.5,0,0,0,95,74,180,180,90,90,792,9,0,0
106,19,0.0,0.0,0.0,3.1,175.0,0.0,0,0,0,96,73,180,180,90,90,792,7,0,0
107,19,0.0,0.0,0.0,3.1,175.1,0.0,0,0,0,94,81,180,180,90,90,789,54,0,0
108,19,0.0,0.0,0.0,3.1,174.9,0.0,0,0,0,90,90,180,180,90,90,792,11,0,0
109,19,0.0,0.0,0.0,3.3,174.6,0.0,0,0,0,90,90,180,180,90,90,791,13,0,0
110,19,0.0,0.0,0.0,3.3,174.5,0.0,0,0,0,90,90,180,180,90,90,792,16,0,0
111,19,0.0,0.0,0.0,3.2,174.5,0.0,0,0,0,90,90,180,180,90,90,792,17,0,0
112,19,0.0,0.0,0.0,3.1,174.8,0.0,0,0,0,90,90,180,180,90,90,791,15,0,0
113,19,0.0,0.0,0.0,3.1,175.0,0.0,0,0,0,90,90,180,180,90,90,792,16,0,0
114,19,0.0,0.0,0.0,3.1,174.9,0.0,0,0,0,90,90,180,180,90,90,792,16,0,0
115,19,0.0,0.0,0.0,3.2,174.9,0.0,0,0,0,90,90,180,180,90,90,791,14,0,0
116,19,0.0,0.0,0.0,3.3,174.9,0.0,0,0,0,90,90,180,180,90,90,792,14,0,0
117,19,0.0,0.0,0.0,3.2,174.9,0.0,0,0,0,90,90,180,180,90,90,792,14,0,0
118,19,0.0,0.0,0.0,3.2,174.9,0.0,0,0,0,90,90,180,180,90,90,792,15,0,0
119,19,0.0,0.0,0.0,3.2,174.9,0.0,0,0,0,90,90,180,180,90,90,792,15,0,0
120,19,0.0,0.0,0.0,3.3,174.8,0.0,0,0,0,90,90,180,180,90,90,792,13,0,0
121,19,0.0,0.0,0.0,3.5,174.4,0.0,0,0,0,90,90,180,180,90,90,792,14,0,0
122,19,0.0,0.0,0.0,3.3,174.5,0.0,0,0,0,90,90,180,180,90,90,792,14,0,0
123,19,0.0,0.0,0.0,3.3,174.5,0.0,0,0,0,90,90,180,180,90,90,792,13,0,0
124,19,0.0,0.0,0.0,3.2,174.2,0.0,0,0,0,90,90,180,180,90,90,792,15,0,0
125,19,0.0,0.0,0.0,3.2,174.4,0.0,0,0,0,90,90,180,180,90,90,792,14,0,0
126,19,0.0,0.0,0.0,3.2,174.5,0.0,0,0,0,16,90,180,180,90,90,792,5,0,0
127,19,0.0,0.0,0.0,3.2,174.4,0.0,0,0,0,178,90,180,180,90,90,791,17,0,0
128,19,0.0,0.0,0.0,3.2,174.4,0.0,0,0,0,178,90,180,180,90,90,792,10,0,0
129,19,0.0,0.0,0.0,3.2,174.7,0.0,0,0,0,156,90,180,180,90,90,792,5,0,0
130,19,0.0,0.0,0.0,3.2,174.7,0.0,0,0,0,90,90,180,180,90,90,792,13,0,0
131,19,0.0,0.0,0.0,3.2,174.5,0.0,0,0,0,178,90,180,180,90,90,792,5,0,0
132,19,0.0,0.0,0.0,3.1,174.6,0.0,0,0,0,90,90,180,180,90,90,790,45,0,0
133,19,0.0,0.0,0.0,3.0,174.7,0.0,0,0,0,90,40,180,180,90,90,784,140,0,0
134,19,0.0,0.0,0.0,3.0,174.8,0.0,0,0,0,90,90,180,180,90,90,791,12,0,0
135,19,0.0,0.0,0.0,3.1,174.8,0.0,0,0,0,90,110,180,180,90,90,792,11,0,0
136,19,0.0,0.0,0.0,3.1,174.9,0.0,0,0,0,90,178,180,180,90,90,791,23,0,0
137,19,0.0,0.0,0.0,3.1,174.9,0.0,0,0,0,90,90,180,180,90,90,790,37,0,0
138,19,0.0,0.0,0.0,2.9,175.2,0.0,0,0,0,90,72,180,180,90,90,790,32,0,0
139,19,0.0,0.0,0.0,2.9,175.1,0.0,0,0,0,90,90,180,180,90,90,780,144,0,0
140,19,0.0,0.0,0.0,3.1,175.1,0.0,0,0,0,90,156,180,180,90,90,785,111,0,0
141,19,0.0,0.0,0.0,3.1,175.0,0.0,0,0,0,90,179,180,180,90,90,792,15,0,0
142,19,0.0,0.0,0.0,3.1,175.1,0.0,0,0,0,90,90,180,180,90,90,791,18,0,0
143,19,0.0,0.0,0.0,3.1,175.1,0.0,0,0,0,90,104,180,180,90,90,791,24,0,0
144,19,0.0,0.0,0.0,3.1,175.4,0.0,0,0,0,90,179,180,180,90,90,790,28,0,0
145,19,0.0,0.0,0.0,3.2,175.4,0.0,0,0,0,90,90,180,180,90,90,785,70,0,0
146,19,0.0,0.0,0.0,3.2,174.9,0.0,0,0,0,90,92,180,180,90,90,791,14,0,0
147,19,0.0,0.0,0.0,3.3,174.9,0.0,0,0,0,90,178,180,180,90,90,791,27,0,0
148,19,0.0,0.0,0.0,3.2,175.1,0.0,0,0,0,90,90,180,180,90,90,779,158,0,0
149,19,0.0,0.0,0.0,3.2,175.1,0.0,0,0,0,90,90,180,180,90,90,791,26,0,0
150,19,0.0,0.0,0.0,3.2,175.2,0.0,0,0,0,90,66,180,180,90,90,783,124,0,0
151,19,0.0,0.0,0.0,3.1,175.2,0.0,0,0,0,90,72,180,180,90,90,788,81,0,0
152,19,0.0,0.0,0.0,3.1,175.1,0.0,0,0,0,90,90,180,180,90,90,791,17,0,0
153,19,0.0,0.0,0.0,3.2,175.2,0.0,0,0,0,90,90,180,180,90,90,792,15,0,0
154,19,0.0,0.0,0.0,3.2,175.3,0.0,0,0,0,90,128,180,180,90,90,791,15,0,0
155,19,0.0,0.0,0.0,3.2,175.2,0.0,0,0,0,90,93,180,180,90,90,785,86,0,0
156,19,0.0,0.0,0.0,3.2,174.9,0.0,0,0,0,90,90,180,180,90,90,791,14,0,0
157,19,0.0,0.0,0.0,3.3,175.0,0.0,0,0,0,90,90,180,180,90,90,791,16,0,0
158,19,0.0,0.0,0.0,3.2,175.2,0.0,0,0,0,90,74,180,180,90,90,791,17,0,0
159,19,0.0,0.0,0.0,3.2,175.2,0.0,0,0,0,90,90,180,180,90,90,788,65,0,0
160,19,0.0,0.0,0.0,3.1,175.2,0.0,0,0,0,90,116,180,180,90,90,791,15,0,0
161,19,0.0,0.0,0.0,3.1,174.9,0.0,0,0,0,90,128,180,180,90,90,790,26,0,0
162,19,0.0,0.0,0.0,3.2,174.7,0.0,0,0,0,90,114,180,180,90,90,789,48,0,0
163,19,0.0,0.0,0.0,3.2,175.0,0.0,0,0,0,90,91,180,180,90,90,791,16,0,0
164,19,0.0,0.0,0.0,3.2,175.0,0.0,0,0,0,90,78,180,180,90,90,792,15,0,0
165,19,0.0,0.0,0.0,3.3,174.9,0.0,0,0,0,90,90,180,180,90,90,791,22,0,0
166,19,0.0,0.0,0.0,3.3,175.0,0.0,0,0,0,90,129,180,180,90,90,790,28,0,0
167,19,0.0,0.0,0.0,3.3,175.3,0.0,0,0,0,90,90,180,180,90,90,785,125,0,0
168,19,0.0,0.0,0.0,3.3,175.4,0.0,0,0,0,90,83,180,180,90,90,791,18,0,0
169,19,0.0,0.0,0.0,3.3,175.1,0.0,0,0,0,90,79,180,180,90,90,791,18,0,0
170,19,0.0,0.0,0.0,3.2,175.1,0.0,0,0,0,90,90,180,180,90,90,791,25,0,0
171,19,0.0,0.0,0.0,3.2,175.3,0.0,0,0,0,90,90,180,180,90,90,791,15,0,0
172,19,0.0,0.0,0.0,3.1,175.4,0.0,0,0,0,90,90,180,180,90,90,792,14,0,0
173,19,0.0,0.0,0.0,3.0,175.4,0.0,0,0,0,90,90,180,180,90,90,791,20,0,0
174,19,0.0,0.0,0.0,3.0,175.4,0.0,0,0,0,90,90,180,180,90,90,791,13,0,0
175,19,0.0,0.0,0.0,3.1,175.6,0.0,0,0,0,90,90,180,180,90,90,792,15,0,0
176,19,0.0,0.0,0.0,3.1,175.5,0.0,0,0,0,90,90,180,180,90,90,791,13,0,0
177,19,0.0,0.0,0.0,3.1,175.5,0.4,0,0,0,90,90,180,180,90,90,792,12,0,0
178,19,0.0,0.0,0.0,3.0,175.3,0.4,0,0,0,90,90,180,180,90,90,791,21,0,0
179,19,0.0,0.0,0.0,3.1,175.6,0.4,0,0,0,90,90,180,180,90,90,791,15,0,0
180,19,0.0,0.0,0.0,3.1,175.5,0.0,0,0,0,90,90,180,180,90,90,791,25,0,0
181,19,0.0,0.0,0.0,3.0,175.0,0.0,0,0,0,90,90,180,180,90,90,791,17,0,0
182,19,0.0,0.0,0.0,3.2,175.1,0.0,0,0,0,90,90,180,180,90,90,791,13,0,0
183,19,0.0,0.0,0.0,3.3,175.1,0.0,0,0,0,90,90,180,180,90,90,791,14,0,0
184,19,0.0,0.0,0.0,3.1,175.2,0.0,0,0,0,90,90,180,180,90,90,791,12,0,0
185,19,0.0,0.0,0.0,2.9,175.4,0.0,0,0,0,90,90,180,180,90,90,791,15,0,0
186,19,0.0,0.0,0.0,2.9,175.4,0.0,0,0,0,90,90,180,180,90,90,792,15,0,0
187,19,0.0,0.0,0.0,3.0,175.4,0.0,0,0,0,90,90,180,180,90,90,791,15,0,0
188,19,0.0,0.0,0.0,3.2,175.3,0.0,0,0,0,90,90,180,180,90,90,791,17,0,0
189,19,0.0,0.0,0.0,3.3,175.2,0.0,0,0,0,90,90,180,180,90,90,791,16,0,0
190,19,0.0,0.0,0.0,3.4,175.2,0.0,0,0,0,90,90,180,180,90,90,791,17,0,0
191,19,0.0,0.0,0.0,3.3,175.4,0.0,0,0,0,90,90,180,180,90,90,791,17,0,0
192,19,0.0,0.0,0.0,3.3,175.3,0.0,0,0,0,90,90,180,180,90,90,791,15,0,0
193,19,0.0,0.0,0.0,3.2,175.2,0.0,0,0,0,90,90,180,180,90,90,791,17,0,0
194,19,0.0,0.0,0.0,3.2,175.2,0.0,0,0,0,90,90,180,180,90,90,792,15,0,0
195,19,0.0,0.0,0.0,3.0,175.3,0.0,0,0,0,90,90,180,180,90,90,791,16,0,0
196,19,0.0,0.0,0.0,3.1,175.2,0.0,0,0,0,90,90,180,180,90,90,791,20,0,0
197,19,0.0,0.0,0.0,3.3,175.2,0.0,0,0,0,90,90,180,180,90,90,791,14,0,0
198,19,0.0,0.0,0.0,3.3,175.2,0.0,0,0,0,90,90,180,180,90,90,791,15,0,0
199,19,0.0,0.0,0.0,3.3,175.2,0.0,0,0,0,90,90,180,180,90,90,791,16,0,0
200,19,0.0,0.0,0.0,3.2,175.3,0.0,0,0,0,90,90,180,180,90,90,791,15,0,0
201,19,0.0,0.0,0.0,3.3,175.2,0.0,0,0,0,90,90,180,180,90,90,792,13,0,0
202,19,0.0,0.0,0.0,3.3,175.3,0.0,0,0,0,90,90,180,180,90,90,791,14,0,0
203,19,0.0,0.0,0.0,3.3,175.0,0.0,0,0,0,90,90,180,180,90,90,791,18,0,0
204,19,0.0,0.0,0.0,3.4,175.0,0.0,0,0,0,90,90,180,180,90,90,791,15,0,0
205,19,0.0,0.0,0.0,3.4,175.1,0.0,0,0,0,90,90,180,180,90,90,791,14,0,0
206,19,0.0,0.0,0.0,3.3,175.1,0.0,0,0,0,90,90,180,180,90,90,791,17,0,0
207,19,0.0,0.0,0.0,3.1,175.2,0.0,0,0,0,90,90,180,180,90,90,791,16,0,0
208,19,0.0,0.0,0.0,3.2,175.3,0.0,0,0,0,90,90,180,180,90,90,790,17,0,0
209,19,0.0,0.0,0.0,3.2,175.3,0.0,0,0,0,90,90,180,180,90,90,791,17,0,0
210,19,0.0,0.0,0.0,3.1,175.4,0.0,0,0,0,90,90,180,180,90,90,792,14,0,0
211,19,0.0,0.0,0.0,3.1,175.4,0.0,0,0,0,90,90,180,180,90,90,791,16,0,0
212,19,0.0,0.0,0.0,3.1,175.5,0.0,0,0,0,90,90,180,180,90,90,791,15,0,0
213,19,0.0,0.0,0.0,3.0,175.5,0.0,0,0,0,90,90,180,180,90,90,792,12,0,0
214,19,0.0,0.0,0.0,3.2,175.4,0.0,0,0,0,90,90,180,180,90,90,791,12,0,0
215,19,0.0,0.0,0.0,3.2,175.4,0.0,0,0,0,90,90,180,180,90,90,791,17,0,0
216,19,0.0,0.0,0.0,3.2,175.4,0.0,0,0,0,90,90,180,180,90,90,792,10,0,0
217,19,0.0,0.0,0.0,3.0,175.4,0.0,0,0,0,90,90,180,180,90,90,791,15,0,0
218,19,0.0,0.0,0.0,3.1,175.3,0.0,0,0,0,90,90,180,180,90,90,792,13,0,0
219,19,0.0,0.0,0.0,3.2,175.0,0.0,0,0,0,90,90,180,180,90,90,791,15,0,0
220,19,0.0,0.0,0.0,3.2,175.0,0.0,0,0,0,90,90,180,180,90,90,792,13,0,0
221,19,0.0,0.0,0.0,3.2,175.2,0.0,0,0,0,90,90,180,180,90,90,791,18,0,0
222,19,0.0,0.0,0.0,3.2,175.1,0.0,0,0,0,90,90,180,180,90,90,792,13,0,0
223,19,0.0,0.0,0.0,3.2,175.1,0.0,0,0,0,90,90,180,180,90,90,792,15,0,0
224,19,0.0,0.0,0.0,3.0,175.3,0.0,0,0,0,90,90,180,180,90,90,791,17,0,0
225,19,0.0,0.0,0.0,2.9,175.4,0.0,0,0,0,90,90,180,180,90,90,791,15,0,0
226,19,0.0,0.0,0.0,3.2,175.5,0.0,0,0,0,90,90,180,180,90,90,790,27,0,0
227,19,0.0,0.0,0.0,3.3,175.4,0.0,0,0,0,90,90,180,180,90,90,791,13,0,0
228,19,0.0,0.0,0.0,3.3,175.4,0.0,0,0,0,90,90,180,180,90,90,791,18,0,0
229,19,0.0,0.0,0.0,3.2,175.3,0.1,0,0,0,90,90,180,180,90,90,791,15,0,0
230,19,0.0,0.0,0.0,3.2,175.3,0.1,0,0,0,90,90,180,180,90,90,791,16,0,0
231,19,0.0,0.0,0.0,3.3,175.5,0.1,0,0,0,90,90,180,180,90,90,791,15,0,0
232,19,0.0,0.0,0.0,3.2,175.6,0.1,0,0,0,90,90,180,180,90,90,792,12,0,0
233,19,0.0,0.0,0.0,3.3,175.6,0.1,0,0,0,90,90,180,180,90,90,791,17,0,0
234,19,0.0,0.0,0.0,3.3,175.9,0.1,0,0,0,90,90,180,180,90,90,791,16,0,0
235,19,0.0,0.0,0.0,3.3,176.0,0.1,0,0,0,90,90,180,180,90,90,792,15,0,0
236,19,0.0,0.0,0.0,3.3,176.0,0.4,0,0,0,90,90,180,180,90,90,791,16,0,0
237,19,0.0,0.0,0.0,3.2,175.9,0.4,0,0,0,90,90,180,180,90,90,791,15,0,0
238,19,0.0,0.0,0.0,3.3,175.9,0.4,0,0,0,90,90,180,180,90,90,792,13,0,0
239,19,0.0,0.0,0.0,3.2,175.9,0.4,0,0,0,90,90,180,180,90,90,791,16,0,0
240,19,0.0,0.0,0.0,3.2,175.9,0.4,0,0,0,90,90,180,180,90,90,791,14,0,0
241,19,0.0,0.0,0.0,3.2,176.0,0.4,0,0,0,90,90,180,180,90,90,792,14,0,0
242,19,0.0,0.0,0.0,3.2,176.2,0.4,0,0,0,90,90,180,180,90,90,792,15,0,0
243,19,0.0,0.0,0.0,3.3,176.1,0.4,0,0,0,90,90,180,180,90,90,791,21,0,0
244,19,0.0,0.0,0.0,3.4,176.0,0.4,0,0,0,90,90,180,180,90,90,791,15,0,0
245,19,0.0,0.0,0.0,3.4,175.9,0.4,0,0,0,90,90,180,180,90,90,791,15,0,0
246,19,0.0,0.0,0.0,3.3,175.7,0.4,0,0,0,90,90,180,180,90,90,791,16,0,0
247,19,0.0,0.0,0.0,3.2,175.7,0.2,0,0,0,90,90,180,180,90,90,792,15,0,0
248,19,0.0,0.0,0.0,3.2,175.5,0.2,0,0,0,90,90,180,180,90,90,792,16,0,0
249,19,0.0,0.0,0.0,3.2,175.7,0.2,0,0,0,90,90,180,180,90,90,791,15,0,0
250,19,0.0,0.0,0.0,3.3,175.9,0.2,0,0,0,90,90,180,180,90,90,791,15,0,0
251,19,0.0,0.0,0.0,3.3,176.0,0.2,0,0,0,90,90,180,180,90,90,790,18,0,0
252,19,0.0,0.0,0.0,3.2,176.1,0.2,0,0,0,90,90,180,180,90,90,791,16,0,0
253,19,0.0,0.0,0.0,3.1,176.2,0.2,0,0,0,90,90,180,180,90,90,791,16,0,0
254,19,0.0,0.0,0.0,3.2,176.0,0.2,0,0,0,90,90,180,180,90,90,791,17,0,0
255,19,0.0,0.0,0.0,3.3,176.0,0.2,0,0,0,90,90,180,180,90,90,791,17,0,0
256,19,0.0,0.0,0.0,3.2,176.0,0.2,0,0,0,90,90,180,180,90,90,791,16,0,0
257,19,0.0,0.0,0.0,3.3,175.9,0.2,0,0,0,90,90,180,180,90,90,791,16,0,0
258,19,0.0,0.0,0.0,3.2,175.7,0.2,0,0,56,90,90,180,180,90,90,791,17,0,0
259,19,0.0,0.0,0.0,3.1,176.0,0.2,0,0,56,90,90,180,180,90,90,791,17,0,0
260,19,0.0,0.0,0.0,2.9,176.2,0.2,0,0,56,90,90,180,180,90,90,791,17,0,0
261,19,0.0,0.0,0.0,3.0,176.0,0.2,0,0,0,90,90,180,180,90,90,790,17,0,0
262,19,0.0,0.0,0.0,3.0,176.1,0.2,0,0,0,90,90,180,180,90,90,791,16,0,0
263,19,0.0,0.0,0.0,3.0,176.1,0.2,0,0,5,90,90,180,180,90,90,791,17,0,0
264,19,0.0,0.0,0.0,3.1,176.0,0.2,0,0,5,90,90,180,180,90,90,791,16,0,0
265,19,0.0,0.0,0.0,3.2,175.8,0.2,0,0,0,90,90,180,180,90,90,791,11,0,0
266,19,0.0,0.0,0.0,3.2,175.8,0.2,0,0,0,90,90,180,180,90,90,791,17,0,0
267,19,0.0,0.0,0.0,3.2,175.9,0.2,0,0,0,90,90,180,180,90,90,791,16,0,0
268,19,0.0,0.0,0.0,3.3,176.0,0.2,0,0,0,90,90,180,180,90,90,791,15,0,0
269,19,0.0,0.0,0.0,3.3,176.1,0.2,0,0,0,90,90,180,180,90,90,791,15,0,0
270,19,0.0,0.0,0.0,3.3,176.0,0.2,0,0,0,90,90,180,180,90,90,790,17,0,0
271,19,0.0,0.0,0.0,3.3,175.8,0.2,0,0,0,90,90,180,180,90,90,791,15,0,0
272,19,0.0,0.0,0.0,3.4,176.1,0.2,0,0,0,90,90,180,180,90,90,791,15,0,0
273,19,0.0,0.0,0.0,3.4,176.1,0.2,0,0,0,90,90,180,180,90,90,792,14,0,0
274,19,0.0,0.0,0.0,3.5,176.0,0.2,0,0,5,90,90,180,180,90,90,791,15,0,0
275,19,0.0,0.0,0.0,3.5,175.9,0.2,0,0,5,90,90,180,180,90,90,791,14,0,0
276,19,0.0,0.0,0.0,3.4,176.0,0.2,0,0,0,90,90,180,180,90,90,792,14,0,0
277,19,0.0,0.0,0.0,3.3,176.2,0.2,0,0,0,90,90,180,180,90,90,791,15,0,0
278,19,0.0,0.0,0.0,3.2,176.3,0.2,0,0,0,90,90,180,180,90,90,791,14,0,0
279,19,0.0,0.0,0.0,3.3,176.2,0.2,0,0,0,90,90,180,180,90,90,791,17,0,0
280,19,0.0,0.0,0.0,3.2,176.2,0.2,0,0,0,90,90,180,180,90,90,791,15,0,0
281,19,0.0,0.0,0.0,3.2,176.1,0.2,0,0,0,90,90,180,180,90,90,792,15,0,0
282,19,0.0,0.0,0.0,3.1,176.2,0.2,0,0,0,90,90,180,180,90,90,792,18,0,0
283,19,0.0,0.0,0.0,3.2,176.1,0.2,0,0,0,90,90,180,180,90,90,791,19,0,0
284,19,0.0,0.0,0.0,3.3,176.1,0.2,0,0,0,90,90,180,180,90,90,792,16,0,0
285,19,0.0,0.0,0.0,3.3,176.2,0.2,0,0,0,90,90,180,180,90,90,791,16,0,0
286,19,0.0,0.0,0.0,3.3,176.2,0.2,0,0,0,90,90,180,180,90,90,791,16,0,0
287,19,0.0,0.0,0.0,3.2,176.2,0.2,0,0,0,90,90,180,180,90,90,791,15,0,0
288,19,0.0,0.0,0.0,3.2,176.2,0.2,0,0,8,90,90,180,180,90,90,791,15,0,0
289,19,0.0,0.0,0.0,3.3,176.0,0.2,0,0,8,90,90,180,180,90,90,791,18,0,0
290,19,0.0,0.0,0.0,3.2,176.1,0.2,0,0,6807,90,90,180,180,90,90,791,14,0,0
291,19,0.0,0.0,0.0,3.3,175.9,0.2,0,0,6807,90,90,180,180,90,90,791,15,0,0
292,19,0.0,0.0,0.0,3.4,175.9,0.2,0,0,0,90,90,180,180,90,90,791,14,0,0
293,19,0.0,0.0,0.0,3.4,176.1,0.2,0,0,0,90,90,180,180,90,90,791,16,0,0
294,19,0.0,0.0,0.0,3.3,176.2,0.2,0,0,0,90,90,180,180,90,90,792,17,0,0
295,19,0.0,0.0,0.0,3.3,176.0,0.2,0,0,0,90,90,180,180,90,90,792,16,0,0
296,19,0.0,0.0,0.0,3.4,175.9,0.2,0,0,0,90,90,180,180,90,90,791,16,0,0
297,19,0.0,0.0,0.0,3.4,176.1,0.2,0,0,0,90,90,180,180,90,90,791,15,0,0
298,19,0.0,0.0,0.0,3.4,176.1,0.2,0,0,0,90,90,180,180,90,90,791,16,0,0
299,19,0.0,0.0,0.0,3.5,176.0,0.0,0,0,0,90,90,180,180,90,90,791,15,0,0
300,19,0.0,0.0,0.0,3.6,175.8,0.0,0,0,0,90,90,180,180,90,90,792,15,0,0
301,19,0.0,0.0,0.0,3.4,175.9,0.2,0,56,7849,90,90,180,180,90,90,792,16,0,0
302,19,0.0,0.0,0.0,3.2,176.1,0.2,0,56,7849,90,90,180,180,90,90,791,15,0,0
303,19,0.0,0.0,0.0,3.2,176.2,0.2,0,0,0,90,90,180,180,90,90,791,16,0,0
304,19,0.0,0.0,0.0,3.2,176.1,0.2,0,0,0,90,90,180,180,90,90,791,16,0,0
305,19,0.0,0.0,0.0,3.3,176.2,0.2,0,0,0,90,90,180,180,90,90,791,16,0,0
306,19,0.0,0.0,0.0,3.4,176.3,0.2,0,567,8654,90,90,180,180,90,90,791,16,0,0
307,19,0.0,0.0,0.0,3.3,176.4,0.2,0,567,8654,90,90,180,180,90,90,791,21,0,0
308,19,0.0,0.0,0.0,3.3,176.3,0.2,0,0,0,90,90,180,180,90,90,791,15,0,0
309,19,0.0,0.0,0.0,3.3,176.2,0.2,0,0,0,90,90,180,180,90,90,791,15,0,0
310,19,0.0,0.0,0.0,3.3,176.2,0.2,0,0,0,90,90,180,180,90,90,791,17,0,0
311,19,0.0,0.0,0.0,3.3,176.1,0.2,0,0,0,90,90,180,180,90,90,791,15,0,0
312,19,0.0,0.0,0.0,3.3,176.2,0.2,0,0,0,90,90,180,180,90,90,791,14,0,0
313,19,0.0,0.0,0.0,3.3,176.3,0.2,0,0,0,90,90,180,180,90,90,792,15,0,0
314,19,0.0,0.0,0.0,3.2,176.3,0.2,0,0,0,90,90,180,180,90,90,791,15,0,0
315,19,0.0,0.0,0.0,3.0,176.3,0.2,0,0,0,90,90,180,180,90,90,791,15,0,0
316,19,0.0,0.0,0.0,3.1,176.2,0.2,0,0,0,90,90,180,180,90,90,792,15,0,0
317,19,0.0,0.0,0.0,3.3,176.3,0.2,0,0,56,90,90,180,180,90,90,791,15,0,0
318,19,0.0,0.0,0.0,3.3,176.4,0.2,0,0,56,90,90,180,180,90,90,791,15,0,0
319,19,0.0,0.0,0.0,3.4,176.3,0.2,0,0,5981,90,90,180,180,90,90,791,15,0,0
320,19,0.0,0.0,0.0,3.5,176.1,0.2,0,0,5981,90,90,180,180,90,90,791,15,0,0
321,19,0.0,0.0,0.0,3.5,176.2,0.2,0,0,5981,90,90,180,180,90,90,792,14,0,0
322,19,0.0,0.0,0.0,3.4,176.4,0.2,0,0,56,90,90,180,180,90,90,791,15,0,0
323,19,0.0,0.0,0.0,3.3,176.3,0.2,0,0,56,90,90,180,180,90,90,791,14,0,0
324,19,0.0,0.0,0.0,3.3,176.2,0.2,0,0,5,90,90,180,180,90,90,791,15,0,0
325,19,0.0,0.0,0.0,3.2,176.3,0.2,0,0,5,90,90,180,180,90,90,791,14,0,0
326,19,0.0,0.0,0.0,3.3,176.4,0.2,0,0,5,90,90,180,180,90,90,791,16,0,0
327,19,0.0,0.0,0.0,3.3,176.4,0.2,0,0,5,90,90,180,180,90,90,792,14,0,0
328,19,0.0,0.0,0.0,3.3,176.3,0.2,0,0,5,90,90,180,180,90,90,791,11,0,0
329,19,0.0,0.0,0.0,3.5,176.2,0.2,0,0,5,90,90,180,180,90,90,791,16,0,0
330,19,0.0,0.0,0.0,3.5,176.3,0.2,0,0,5,90,90,180,180,90,90,792,14,0,0
331,19,0.0,0.0,0.0,3.5,176.3,0.2,0,0,0,90,90,180,180,90,90,791,19,0,0
332,19,0.0,0.0,0.0,3.5,176.1,0.2,0,0,0,90,90,180,180,90,90,792,14,0,0
333,19,0.0,0.0,0.0,3.4,176.2,0.2,0,0,5,90,90,180,180,90,90,792,15,0,0
334,19,0.0,0.0,0.0,3.4,176.3,0.2,0,0,5,90,90,180,180,90,90,791,14,0,0
335,19,0.0,0.0,0.0,3.4,176.2,0.2,0,0,0,90,90,180,180,90,90,791,15,0,0
336,19,0.0,0.0,0.0,3.4,176.2,0.2,0,0,0,90,90,180,180,90,90,791,18,0,0
337,19,0.0,0.0,0.0,3.4,176.2,0.2,0,0,0,90,90,180,180,90,90,791,15,0,0
338,19,0.0,0.0,0.0,3.4,176.4,0.2,0,0,0,90,90,180,180,90,90,791,15,0,0
339,19,0.0,0.0,0.0,3.3,176.3,0.2,0,0,0,90,90,180,180,90,90,791,14,0,0
340,19,0.0,0.0,0.0,3.3,176.3,0.2,0,0,0,90,90,180,180,90,90,791,14,0,0
341,19,0.0,0.0,0.0,3.2,176.4,0.2,0,0,0,90,90,180,180,90,90,792,14,0,0
342,19,0.0,0.0,0.0,3.2,176.5,0.2,0,0,0,90,90,180,180,90,90,792,15,0,0
343,19,0.0,0.0,0.0,3.2,176.5,0.2,0,0,0,90,90,180,180,90,90,791,17,0,0
344,19,0.0,0.0,0.0,3.2,176.6,0.2,0,50,5607,90,90,180,180,90,90,791,14,0,0
345,19,0.0,0.0,0.0,3.1,176.5,0.2,0,50,5607,90,90,180,180,90,90,791,15,0,0
346,19,0.0,0.0,0.0,3.2,176.1,0.0,0,0,0,90,90,180,180,90,90,791,15,0,0
347,19,0.0,0.0,0.0,3.3,176.0,0.0,0,0,0,90,90,180,180,90,90,791,15,0,0
348,19,0.0,0.0,0.0,3.4,176.2,0.0,0,0,0,90,90,180,180,90,90,791,15,0,0
349,19,0.0,0.0,0.0,3.3,176.2,0.0,0,0,0,90,90,180,180,90,90,791,21,0,0
350,19,0.0,0.0,0.0,3.2,176.2,0.0,0,0,0,90,90,180,180,90,90,790,20,0,0
351,19,0.0,0.0,0.0,3.2,176.3,0.0,0,0,0,90,90,180,180,90,90,791,15,0,0
352,19,0.0,0.0,0.0,3.1,176.3,0.0,0,0,0,90,90,180,180,90,90,791,15,0,0
353,19,0.0,0.0,0.0,3.0,176.4,0.0,0,0,0,90,90,180,180,90,90,791,14,0,0
354,19,0.0,0.0,0.0,3.1,176.3,0.0,0,0,0,90,90,180,180,90,90,792,15,0,0
355,19,0.0,0.0,0.0,3.3,176.0,0.0,0,0,0,90,90,180,180,90,90,791,14,0,0
356,19,0.0,0.0,0.0,3.3,176.2,0.0,0,0,0,90,90,180,180,90,90,791,15,0,0
357,19,0.0,0.0,0.0,3.3,176.4,0.0,0,0,0,90,90,180,180,90,90,791,14,0,0
358,19,0.0,0.0,0.0,3.4,176.1,0.0,0,0,0,90,90,180,180,90,90,791,21,0,0
359,19,0.0,0.0,0.0,3.4,176.1,0.0,0,0,0,90,90,180,180,90,90,791,14,0,0
360,19,0.0,0.0,0.0,3.1,176.2,0.0,0,0,0,90,90,180,180,90,90,791,15,0,0
361,19,0.0,0.0,0.0,3.1,176.3,0.0,0,0,0,90,90,180,180,90,90,791,19,0,0
362,19,0.0,0.0,0.0,3.2,176.3,0.0,0,0,0,90,90,180,180,90,90,791,15,0,0
363,19,0.0,0.0,0.0,3.1,176.3,0.0,0,0,0,90,90,180,180,90,90,791,15,0,0
364,19,0.0,0.0,0.0,3.1,176.4,0.0,0,0,0,90,90,180,180,90,90,791,15,0,0
365,19,0.0,0.0,0.0,3.3,176.1,0.0,0,0,0,90,90,180,180,90,90,791,14,0,0
366,19,0.0,0.0,0.0,3.4,176.0,0.0,0,0,0,90,90,180,180,90,90,791,15,0,0
367,19,0.0,0.0,0.0,3.3,176.1,0.2,0,0,61,90,90,180,180,90,90,792,15,0,0
368,19,0.0,0.0,0.0,3.3,176.2,0.2,0,0,61,90,90,180,180,90,90,791,17,0,0
369,19,0.0,0.0,0.0,3.4,176.1,0.2,0,0,61,90,90,180,180,90,90,791,16,0,0
370,19,0.0,0.0,0.0,3.4,176.2,0.2,0,0,61,90,90,180,180,90,90,791,15,0,0
371,19,0.0,0.0,0.0,3.4,176.3,0.0,0,0,0,90,90,180,180,90,90,790,16,0,0
372,19,0.0,0.0,0.0,3.4,176.5,0.0,0,0,0,90,90,180,180,90,90,791,16,0,0
373,19,0.0,0.0,0.0,3.4,176.4,0.2,0,0,567,90,90,180,180,90,90,791,14,0,0
374,19,0.0,0.0,0.0,3.3,176.2,0.2,0,0,567,90,90,180,180,90,90,791,14,0,0
375,19,0.0,0.0,0.0,3.2,176.3,0.2,0,0,567,90,90,180,180,90,90,791,20,0,0
376,19,0.0,0.0,0.0,3.2,176.5,0.2,0,0,567,90,90,180,180,90,90,792,15,0,0
377,19,0.0,0.0,0.0,3.2,176.4,0.2,0,0,567,90,90,180,180,90,90,791,16,0,0
378,19,0.0,0.0,0.0,3.3,176.4,0.2,0,0,567,90,90,180,180,90,90,791,16,0,0
379,19,0.0,0.0,0.0,3.4,176.3,0.2,0,0,567,90,90,180,180,90,90,791,15,0,0
380,19,0.0,0.0,0.0,3.3,176.2,0.0,0,0,0,90,90,180,180,90,90,791,22,0,0
381,19,0.0,0.0,0.0,3.2,176.4,0.0,0,0,0,90,90,180,180,90,90,791,19,0,0
382,19,0.0,0.0,0.0,3.4,176.4,0.2,0,0,56,90,90,180,180,90,90,791,14,0,0
383,19,0.0,0.0,0.0,3.4,176.3,0.2,0,0,56,90,90,180,180,90,90,791,16,0,0
384,19,0.0,0.0,0.0,3.3,176.2,0.2,0,0,56,90,90,180,180,90,90,791,14,0,0
385,19,0.0,0.0,0.0,3.3,176.1,0.2,0,0,56,90,90,180,180,90,90,791,15,0,0
386,19,0.0,0.0,0.0,3.3,176.2,0.2,0,0,56,90,90,180,180,90,90,791,15,0,0
387,19,0.0,0.0,0.0,3.3,176.4,0.0,0,0,0,90,90,180,180,90,90,791,8,0,0
388,19,0.0,0.0,0.0,3.4,176.4,0.0,0,0,0,90,90,180,180,90,90,791,14,0,0
389,19,0.0,0.0,0.0,3.4,176.4,0.2,0,0,56,90,90,180,180,90,90,791,15,0,0
390,19,0.0,0.0,0.0,3.4,176.3,0.2,0,0,56,90,90,180,180,90,90,791,15,0,0
391,19,0.0,0.0,0.0,3.3,176.3,0.2,0,0,56,90,90,180,180,90,90,790,14,0,0
392,19,0.0,0.0,0.0,3.3,176.4,0.2,0,0,56,90,90,180,180,90,90,791,15,0,0
393,19,0.0,0.0,0.0,3.3,176.5,0.2,0,0,56,90,90,180,180,90,90,791,14,0,0
394,19,0.0,0.0,0.0,3.3,176.6,0.0,0,0,0,90,90,180,180,90,90,791,15,0,0
395,19,0.0,0.0,0.0,3.3,176.6,0.0,0,0,0,90,90,180,180,90,90,791,15,0,0
396,19,0.0,0.0,0.0,3.3,176.3,0.2,0,0,56,90,90,180,180,90,90,791,17,0,0
397,19,0.0,0.0,0.0,3.3,176.2,0.2,0,0,56,90,90,180,180,90,90,792,13,0,0
398,19,0.0,0.0,0.0,3.2,176.4,0.2,0,0,56,90,90,180,180,90,90,791,15,0,0
399,19,0.0,0.0,0.0,3.2,176.2,0.2,0,0,56,90,90,180,180,90,90,791,16,0,0
400,19,0.0,0.0,0.0,3.2,176.2,0.2,0,0,56,90,90,180,180,90,90,791,14,0,0
401,19,0.0,0.0,0.0,3.4,176.1,0.2,0,0,56,90,90,180,180,90,90,791,14,0,0
402,19,0.0,0.0,0.0,3.4,176.1,0.2,0,0,56,90,90,180,180,90,90,791,13,0,0
403,19,0.0,0.0,0.0,3.5,176.2,0.2,0,0,56,90,90,180,180,90,90,791,13,0,0
404,19,0.0,0.0,0.0,3.4,176.1,0.2,0,0,56,90,90,180,180,90,90,791,14,0,0
405,19,0.0,0.0,0.0,3.4,176.2,0.2,0,0,56,90,90,180,180,90,90,791,16,0,0
406,19,0.0,0.0,0.0,3.4,176.2,0.2,0,0,56,90,90,180,180,90,90,791,14,0,0
407,19,0.0,0.0,0.0,3.4,176.1,0.2,0,0,56,90,90,180,180,90,90,791,14,0,0
408,19,0.0,0.0,0.0,3.4,176.3,0.2,0,0,56,90,90,180,180,90,90,791,16,0,0
409,19,0.0,0.0,0.0,3.4,176.2,0.0,0,0,0,90,90,180,180,90,90,791,15,0,0
410,19,0.0,0.0,0.0,3.4,176.1,0.0,0,0,0,90,90,180,180,90,90,791,15,0,0
411,19,0.0,0.0,0.0,3.3,176.1,0.0,0,0,0,90,90,180,180,90,90,791,16,0,0
412,19,0.0,0.0,0.0,3.3,176.2,0.2,0,0,56,90,90,180,180,90,90,791,15,0,0
413,19,0.0,0.0,0.0,3.2,176.2,0.2,0,0,56,90,90,180,180,90,90,791,17,0,0
414,19,0.0,0.0,0.0,3.3,176.0,0.2,0,0,56,90,90,180,180,90,90,791,14,0,0
415,19,0.0,0.0,0.0,3.2,176.1,0.2,0,0,56,90,90,180,180,90,90,791,16,0,0
416,19,0.0,0.0,0.0,3.3,176.3,0.2,0,0,0,90,90,180,180,90,90,791,18,0,0
417,19,0.0,0.0,0.0,3.4,176.3,0.2,0,0,0,90,90,180,180,90,90,791,15,0,0
418,19,0.0,0.0,0.0,3.4,176.2,0.2,0,0,56,90,90,180,180,90,90,791,15,0,0
419,19,0.0,0.0,0.0,3.4,176.3,0.2,0,0,56,90,90,180,180,90,90,791,14,0,0
420,19,0.0,0.0,0.0,3.2,176.3,0.2,0,0,56,90,90,180,180,90,90,791,15,0,0
421,19,0.0,0.0,0.0,3.2,176.3,0.2,0,0,56,90,90,180,180,90,90,791,14,0,0
422,19,0.0,0.0,0.0,3.1,176.4,0.2,0,0,56,90,90,180,180,90,90,791,16,0,0
423,19,0.0,0.0,0.0,3.1,176.3,0.2,0,0,0,90,90,180,180,90,90,791,15,0,0
424,19,0.0,0.0,0.0,3.3,176.3,0.2,0,0,0,90,90,180,180,90,90,791,18,0,0
425,19,0.0,0.0,0.0,3.4,176.2,0.2,0,0,5,90,90,180,180,90,90,791,16,0,0
426,19,0.0,0.0,0.0,3.4,176.0,0.2,0,0,5,90,90,180,180,90,90,791,15,0,0
427,19,0.0,0.0,0.0,3.5,176.0,0.2,0,0,5,90,90,180,180,90,90,791,16,0,0
428,19,0.0,0.0,0.0,3.5,176.2,0.2,0,0,5,90,90,180,180,90,90,791,14,0,0
429,19,0.0,0.0,0.0,3.4,176.3,0.2,0,0,5,90,90,180,180,90,90,791,16,0,0
430,19,0.0,0.0,0.0,3.2,176.2,0.0,0,0,6387,90,90,180,180,90,90,791,15,0,0
431,19,0.0,0.0,0.0,3.2,176.0,0.0,0,0,6387,90,90,180,180,90,90,791,15,0,0
432,19,0.0,0.0,0.0,3.2,176.2,0.2,0,0,0,90,90,180,180,90,90,791,15,0,0
433,19,0.0,0.0,0.0,3.2,176.4,0.2,0,0,0,90,90,180,180,90,90,792,14,0,0
434,19,0.0,0.0,0.0,3.2,176.2,0.2,0,0,0,90,90,180,180,90,90,791,15,0,0
435,19,0.0,0.0,0.0,3.2,176.3,0.2,0,0,0,90,90,180,180,90,90,791,15,0,0
436,19,0.0,0.0,0.0,3.4,176.3,0.2,0,0,0,90,90,180,180,90,90,791,14,0,0
437,19,0.0,0.0,0.0,3.3,176.6,0.2,0,0,0,90,90,180,180,90,90,791,15,0,0
438,19,0.0,0.0,0.0,3.3,176.5,0.2,0,0,0,90,90,180,180,90,90,791,16,0,0
439,19,0.0,0.0,0.0,3.3,176.3,0.2,0,0,0,90,90,180,180,90,90,791,15,0,0
440,19,0.0,0.0,0.0,3.3,176.2,0.2,0,0,0,90,90,180,180,90,90,791,15,0,0
441,19,0.0,0.0,0.0,3.2,176.1,0.2,0,0,0,90,90,180,180,90,90,791,15,0,0
442,19,0.0,0.0,0.0,3.3,176.1,0.2,0,0,0,90,90,180,180,90,90,792,10,0,0
443,19,0.0,0.0,0.0,3.2,176.2,0.2,0,0,0,90,90,180,180,90,90,791,16,0,0
444,19,0.0,0.0,0.0,3.2,176.3,0.2,0,0,0,90,90,180,180,90,90,791,15,0,0
445,19,0.0,0.0,0.0,3.2,176.4,0.2,0,0,0,90,90,180,180,90,90,791,14,0,0
446,19,0.0,0.0,0.0,3.2,176.3,0.2,0,0,0,90,90,180,180,90,90,791,15,0,0
447,19,0.0,0.0,0.0,3.3,176.2,0.2,0,0,0,90,90,180,180,90,90,791,16,0,0
448,19,0.0,0.0,0.0,3.3,176.3,0.2,0,0,0,90,90,180,180,90,90,791,15,0,0
449,19,0.0,0.0,0.0,3.2,176.3,0.2,0,0,0,90,90,180,180,90,90,791,15,0,0
450,19,0.0,0.0,0.0,3.3,176.3,0.2,0,0,0,90,90,180,180,90,90,792,16,0,0
451,19,0.0,0.0,0.0,3.2,176.3,0.2,0,0,0,90,90,180,180,90,90,791,15,0,0
452,19,0.0,0.0,0.0,3.1,176.3,0.2,0,0,0,90,90,180,180,90,90,791,15,0,0
453,19,0.0,0.0,0.0,3.1,176.3,0.2,0,0,0,90,90,180,180,90,90,791,15,0,0
454,19,0.0,0.0,0.0,3.2,176.3,0.2,0,0,0,90,90,180,180,90,90,791,15,0,0
455,19,0.0,0.0,0.0,3.2,176.4,0.2,0,0,0,90,90,180,180,90,90,791,15,0,0
456,19,0.0,0.0,0.0,3.4,176.2,0.2,0,0,0,90,90,180,180,90,90,791,15,0,0
457,19,0.0,0.0,0.0,3.5,175.8,0.2,0,0,0,90,90,180,180,90,90,791,15,0,0
458,19,0.0,0.0,0.0,3.5,175.7,0.2,0,0,0,90,90,180,180,90,90,791,16,0,0
459,19,0.0,0.0,0.0,3.4,176.1,0.2,0,0,5,90,90,180,180,90,90,791,15,0,0
460,19,0.0,0.0,0.0,3.3,176.0,0.2,0,0,5,90,90,180,180,90,90,791,19,0,0
461,19,0.0,0.0,0.0,3.4,175.8,0.2,0,0,0,90,90,180,180,90,90,791,15,0,0
462,19,0.0,0.0,0.0,3.3,176.1,0.2,0,0,0,90,90,180,180,90,90,791,16,0,0
463,19,0.0,0.0,0.0,3.3,176.2,0.2,0,0,0,90,90,180,180,90,90,791,15,0,0
464,19,0.0,0.0,0.0,3.3,176.2,0.2,0,0,0,90,90,180,180,90,90,791,15,0,0
465,19,0.0,0.0,0.0,3.4,176.2,0.2,0,0,0,90,90,180,180,90,90,791,16,0,0
466,19,0.0,0.0,0.0,3.4,176.1,0.0,0,0,0,90,90,180,180,90,90,791,14,0,0
467,19,0.0,0.0,0.0,3.4,176.1,0.0,0,0,0,90,90,180,180,90,90,791,15,0,0
468,19,0.0,0.0,0.0,3.5,176.1,0.3,0,0,0,90,90,180,180,90,90,791,14,0,0
469,19,0.0,0.0,0.0,3.5,176.2,0.3,0,0,0,90,90,180,180,90,90,791,15,0,0
470,19,0.0,0.0,0.0,3.4,176.3,0.3,0,0,0,90,90,180,180,90,90,791,14,0,0
471,19,0.0,0.0,0.0,3.4,176.2,0.3,0,0,0,90,90,180,180,90,90,791,10,0,0
472,19,0.0,0.0,0.0,3.6,176.1,0.0,0,0,0,90,90,180,180,90,90,791,16,0,0
473,19,0.0,0.0,0.0,3.5,176.2,0.0,0,0,0,90,90,180,180,90,90,791,15,0,0
474,19,0.0,0.0,0.0,3.4,176.2,0.0,0,0,0,90,90,180,180,90,90,791,15,0,0
475,19,0.0,0.0,0.0,3.3,176.3,0.3,0,0,0,90,90,180,180,90,90,791,11,0,0
476,19,0.0,0.0,0.0,3.3,176.3,0.3,0,0,0,90,90,180,180,90,90,791,15,0,0
477,19,0.0,0.0,0.0,3.4,176.2,0.3,0,0,0,90,90,180,180,90,90,791,17,0,0
478,19,0.0,0.0,0.0,3.4,176.4,0.3,0,0,0,90,90,180,180,90,90,791,14,0,0
479,19,0.0,0.0,0.0,3.4,176.3,0.0,0,0,0,90,90,180,180,90,90,791,15,0,0
480,19,0.0,0.0,0.0,3.5,176.1,0.0,0,0,0,90,90,180,180,90,90,791,15,0,0
481,19,0.0,0.0,0.0,3.4,176.2,0.0,0,0,0,90,90,180,180,90,90,791,15,0,0
482,19,0.0,0.0,0.0,3.4,176.3,0.0,0,0,0,90,90,180,180,90,90,791,17,0,0
483,19,0.0,0.0,0.0,3.4,176.4,0.0,0,0,0,90,90,180,180,90,90,791,14,0,0
484,19,0.0,0.0,0.0,3.4,176.5,0.0,0,0,0,90,90,180,180,90,90,791,16,0,0
485,19,0.0,0.0,0.0,3.3,176.6,0.0,0,0,0,90,90,180,180,90,90,791,15,0,0
486,19,0.0,0.0,0.0,3.1,176.4,0.0,0,0,0,90,90,180,180,90,90,791,15,0,0
487,19,0.0,0.0,0.0,3.0,176.3,0.0,0,0,0,90,90,180,180,90,90,791,15,0,0
488,19,0.0,0.0,0.0,2.9,176.4,0.3,0,0,8,90,90,180,180,90,90,791,16,0,0
489,19,0.0,0.0,0.0,3.0,176.4,0.3,0,0,8,90,90,180,180,90,90,791,10,0,0
490,19,0.0,0.0,0.0,3.2,176.4,0.3,0,0,8,90,90,180,180,90,90,792,15,0,0
491,19,0.0,0.0,0.0,3.3,176.2,0.3,0,0,8,90,90,180,180,90,90,791,13,0,0
492,21,0.0,0.0,0.0,3.3,176.1,0.3,0,0,8,90,90,180,180,90,90,791,13,0,0
493,21,0.0,0.0,0.0,3.4,176.0,0.3,0,0,567,90,90,180,180,90,90,791,16,0,0
494,21,0.0,0.0,0.0,3.5,176.0,0.3,0,0,567,90,90,180,180,90,90,791,15,0,0
495,19,0.0,0.0,0.0,3.3,176.1,0.3,0,0,567,90,90,180,180,90,90,791,13,0,0
496,19,0.0,0.0,0.0,3.3,175.9,0.3,0,0,567,90,90,180,180,90,90,791,14,0,0
497,21,0.0,0.0,0.0,3.2,176.3,0.0,0,0,0,90,90,180,180,90,90,791,14,0,0
498,21,0.0,0.0,0.0,3.2,176.4,0.0,0,0,0,90,90,180,180,90,90,791,13,0,0
499,19,0.0,0.0,0.0,3.2,176.2,0.3,0,567,52,90,90,180,180,90,90,791,16,0,0
500,19,0.0,0.0,0.0,3.3,176.1,0.3,0,567,52,90,90,180,180,90,90,789,18,0,0
501,19,0.0,0.0,0.0,3.2,176.2,0.3,0,567,52,90,90,180,180,90,90,791,14,0,0
502,19,0.0,0.0,0.0,3.2,176.2,0.3,0,567,52,90,90,180,180,90,90,791,13,0,0
503,19,0.0,0.0,0.0,3.3,176.1,0.3,0,567,52,90,90,180,180,90,90,791,15,0,0
504,19,0.0,0.0,0.0,3.4,176.2,0.0,0,0,0,90,90,180,180,90,90,791,14,0,0
505,19,0.0,0.0,0.0,3.4,176.2,0.0,0,0,0,90,90,180,180,90,90,791,17,0,0
506,19,0.0,0.0,0.0,3.4,176.2,0.3,0,567,8781,90,90,180,180,90,90,791,16,0,0
507,19,0.0,0.0,0.0,3.3,176.3,0.3,0,567,8781,90,90,180,180,90,90,791,16,0,0
508,19,0.0,0.0,0.0,3.5,176.4,0.3,0,567,8781,90,90,180,180,90,90,791,19,0,0
509,19,0.0,0.0,0.0,3.4,176.5,0.3,0,567,8781,90,90,180,180,90,90,791,15,0,0
510,19,0.0,0.0,0.0,3.4,176.7,0.3,0,567,8781,90,90,180,180,90,90,791,15,0,0
511,19,0.0,0.0,0.0,3.5,176.6,0.0,0,0,0,90,90,180,180,90,90,791,13,0,0
512,19,0.0,0.0,0.0,3.5,176.4,0.0,0,0,0,90,90,180,180,90,90,791,15,0,0
513,19,0.0,0.0,0.0,3.5,176.6,0.3,0,567,8748,90,90,180,180,90,90,791,15,0,0
514,19,0.0,0.0,0.0,3.4,176.6,0.3,0,567,8748,90,90,180,180,90,90,791,14,0,0
515,19,0.0,0.0,0.0,3.5,176.6,0.3,0,567,8748,90,90,180,180,90,90,791,15,0,0
516,19,0.0,0.0,0.0,3.5,176.6,0.3,0,567,8748,90,90,180,180,90,90,791,14,0,0
517,19,0.0,0.0,0.0,3.3,176.6,0.3,0,567,8748,90,90,180,180,90,90,791,16,0,0
518,19,0.0,0.0,0.0,3.2,176.7,0.3,0,567,8748,90,90,180,180,90,90,791,15,0,0
519,19,0.0,0.0,0.0,3.1,176.6,0.3,0,567,8748,90,90,180,180,90,90,791,14,0,0
520,19,0.0,0.0,0.0,3.3,176.5,0.3,0,567,8759,90,90,180,180,90,90,792,15,0,0
521,19,0.0,0.0,0.0,3.3,176.6,0.3,0,567,8759,90,90,180,180,90,90,791,14,0,0
522,19,0.0,0.0,0.0,3.2,176.6,0.3,0,567,8759,90,90,180,180,90,90,791,16,0,0
523,19,0.0,0.0,0.0,3.3,176.6,0.3,0,567,8759,90,90,180,180,90,90,791,15,0,0
524,19,0.0,0.0,0.0,3.3,176.4,0.3,0,567,8759,90,90,180,180,90,90,791,16,0,0
525,19,0.0,0.0,0.0,3.3,176.4,0.3,0,567,8759,90,90,180,180,90,90,791,14,0,0
526,19,0.0,0.0,0.0,3.4,176.4,0.0,0,0,0,90,90,180,180,90,90,791,14,0,0
527,19,0.0,0.0,0.0,3.2,176.5,0.0,0,0,0,90,90,180,180,90,90,791,10,0,0
528,19,0.0,0.0,0.0,3.2,176.6,0.3,0,56,7868,90,90,180,180,90,90,791,14,0,0
529,19,0.0,0.0,0.0,3.3,176.5,0.3,0,56,7868,90,90,180,180,90,90,791,15,0,0
530,21,0.0,0.0,0.0,3.3,176.5,0.3,0,56,7868,90,90,180,180,90,90,791,14,0,0
531,21,0.0,0.0,0.0,3.4,176.6,0.3,0,56,7868,90,90,180,180,90,90,791,18,0,0
532,21,0.0,0.0,0.0,3.4,176.5,0.3,0,56,7868,90,90,180,180,90,90,791,14,0,0
533,19,0.0,0.0,0.0,3.4,176.5,0.0,0,0,0,90,90,180,180,90,90,791,14,0,0
534,19,0.0,0.0,0.0,3.4,176.4,0.0,0,0,0,90,90,180,180,90,90,791,15,0,0
535,19,0.0,0.0,0.0,3.4,176.2,0.3,0,56,7843,90,90,180,180,90,90,791,13,0,0
536,19,0.0,0.0,0.0,3.4,176.4,0.3,0,56,7843,90,90,180,180,90,90,791,17,0,0
537,19,0.0,0.0,0.0,3.2,176.6,5.8,0,0,10,90,90,180,180,90,90,791,17,0,0
538,19,0.0,0.0,0.0,3.3,176.6,5.8,0,0,10,90,90,180,180,90,90,791,16,0,0
539,19,0.0,0.0,0.0,3.4,176.4,5.8,0,0,10,90,90,180,180,90,90,791,15,0,0
540,19,0.0,0.0,0.0,3.4,176.2,0.3,0,56,7886,90,90,180,180,90,90,791,11,0,0
541,19,0.0,0.0,0.0,3.5,176.3,0.3,0,56,7886,90,90,180,180,90,90,791,13,0,0
542,19,0.0,0.0,0.0,3.5,176.3,0.3,0,56,7886,90,90,180,180,90,90,791,15,0,0
543,19,0.0,0.0,0.0,3.3,176.3,0.3,0,56,7886,90,90,180,180,90,90,790,15,0,0
544,19,0.0,0.0,0.0,3.4,176.3,0.0,0,0,0,90,90,180,180,90,90,791,14,0,0
545,19,0.0,0.0,0.0,3.5,176.1,0.0,0,0,0,90,90,180,180,90,90,791,15,0,0
546,19,0.0,0.0,0.0,3.4,176.3,0.3,0,56,7901,90,90,180,180,90,90,791,17,0,0
547,19,0.0,0.0,0.0,3.3,176.4,0.3,0,56,7901,90,90,180,180,90,90,791,15,0,0
548,19,0.0,0.0,0.0,3.4,176.3,0.3,0,56,7901,90,90,180,180,90,90,791,15,0,0
549,19,0.0,0.0,0.0,3.3,176.4,0.3,0,56,7901,90,90,180,180,90,90,791,15,0,0
550,19,0.0,0.0,0.0,3.3,176.3,0.3,0,56,7901,90,90,180,180,90,90,791,13,0,0
551,19,0.0,0.0,0.0,3.2,176.4,0.3,0,56,7901,90,90,180,180,90,90,791,14,0,0
552,19,0.0,0.0,0.0,3.3,176.5,0.3,0,56,7901,90,90,180,180,90,90,791,22,0,0
553,19,0.0,0.0,0.0,3.3,176.3,0.3,0,567,8738,90,90,180,180,90,90,791,13,0,0
554,19,0.0,0.0,0.0,3.3,176.1,0.3,0,567,8738,90,90,180,180,90,90,791,14,0,0
555,19,0.0,0.0,0.0,3.3,176.1,0.3,0,567,8738,90,90,180,180,90,90,791,13,0,0
556,19,0.0,0.0,0.0,3.2,176.2,0.3,0,567,8738,90,90,180,180,90,90,791,14,0,0
557,19,0.0,0.0,0.0,3.2,176.2,0.3,0,567,8738,90,90,180,180,90,90,791,15,0,0
558,19,0.0,0.0,0.0,3.4,176.2,0.3,0,567,8738,90,90,180,180,90,90,791,15,0,0
559,19,0.0,0.0,0.0,3.3,176.2,0.3,0,567,8738,90,90,180,180,90,90,791,17,0,0
560,19,0.0,0.0,0.0,3.3,176.3,0.3,0,567,8660,90,90,180,180,90,90,791,16,0,0
561,19,0.0,0.0,0.0,3.4,176.6,0.3,0,567,8660,90,90,180,180,90,90,791,16,0,0
562,19,0.0,0.0,0.0,3.3,176.8,0.3,0,567,8660,90,90,180,180,90,90,791,15,0,0
563,19,0.0,0.0,0.0,3.4,176.4,0.3,0,567,8660,90,90,180,180,90,90,791,15,0,0
564,19,0.0,0.0,0.0,3.4,176.1,0.3,0,567,8660,90,90,180,180,90,90,791,17,0,0
565,19,0.0,0.0,0.0,3.4,175.9,0.3,0,567,8660,90,90,180,180,90,90,791,15,0,0
566,19,0.0,0.0,0.0,3.3,176.0,0.3,0,567,8660,90,90,180,180,90,90,791,14,0,0
567,19,0.0,0.0,0.0,3.4,176.0,0.3,0,567,8660,90,90,180,180,90,90,791,14,0,0
568,19,0.0,0.0,0.0,3.4,175.8,0.3,0,567,8660,90,90,180,180,90,90,791,15,0,0
569,19,0.0,0.0,0.0,3.3,176.0,0.3,0,567,8294,90,90,180,180,90,90,791,14,0,0
570,19,0.0,0.0,0.0,3.3,175.9,0.3,0,567,8294,90,90,180,180,90,90,791,15,0,0
571,19,0.0,0.0,0.0,3.3,175.8,0.3,0,567,8294,90,90,180,180,90,90,792,8,0,0
572,19,0.0,0.0,0.0,3.4,175.8,0.3,0,567,8294,90,90,180,180,90,90,791,17,0,0
573,19,0.0,0.0,0.0,3.4,175.9,0.3,0,567,8294,90,90,180,180,90,90,791,15,0,0
574,19,0.0,0.0,0.0,3.4,176.1,0.3,0,567,8294,90,90,180,180,90,90,791,16,0,0
