time*0.5 [s],altitude [cm],rotation [rpm],airspeed [m/s],yaw [deg],pitch [deg],roll [deg]
1,0,3.3,1.545,-32.35,0.33,-0.99
2,0,3.3,1.532,-32.35,0.33,-0.99
3,0,3.3,1.499,-32.27,0.33,-1.34
4,0,3.3,1.407,-32.27,0.28,-1.21
5,0,3.3,1.343,-32.27,0.28,-1.21
6,0,3.3,1.306,-32.75,0.35,-0.87
7,0,3.3,1.275,-32.75,0.35,-0.87
8,0,3.3,1.26,-33.05,0.42,-0.55
9,1,3.3,1.248,-33.05,0.42,-0.55
10,1,3.3,1.233,-32.92,0.62,-0.95
11,1,3.3,1.229,-32.92,0.62,-0.95
12,1,3.3,1.233,-32.92,0.62,-0.95
13,1,3.3,1.212,-32.92,0.62,-0.95
14,1,3.3,1.156,-32.92,0.62,-0.95
15,1,3.3,1.089,-33.08,0.9,-0.54
16,1,3.3,1.038,-33.08,0.9,-0.54
17,1,3.3,1.014,-33.15,0.79,-0.66
18,1,3.3,1.016,-33.15,0.79,-0.66
19,1,3.3,1.033,-33.25,0.78,-0.54
20,0,3.3,1.071,-33.25,0.78,-0.54
21,0,3.3,1.124,-33.22,1.09,-0.42
22,0,3.3,1.162,-33.22,1.09,-0.42
23,0,3.3,1.189,-33.23,0.68,-0.46
24,0,3.3,1.182,-33.26,0.58,-0.45
25,0,3.3,1.173,-33.26,0.58,-0.45
26,0,3.3,1.198,-33.21,0.46,-0.47
27,0,3.3,1.21,-33.21,0.46,-0.47
28,0,3.3,1.205,-33.21,0.4,0.0
29,0,3.3,1.194,-33.21,0.4,0.0
30,0,3.3,1.173,-33.21,0.32,-0.2
31,0,3.3,1.165,-33.21,0.32,-0.2
32,0,3.3,1.173,-33.25,0.32,-0.03
33,0,3.3,1.187,-33.25,0.32,-0.03
34,0,3.3,1.21,-33.28,0.38,-0.23
35,0,3.3,1.267,-33.35,0.25,-0.08
36,0,3.3,1.298,-33.38,0.29,0.07
37,0,3.3,1.308,-33.35,0.34,-0.12
38,0,3.3,1.316,-33.35,0.34,-0.12
39,0,3.3,1.376,-33.46,0.31,0.25
40,0,3.3,1.437,-33.46,0.31,0.25
41,0,3.3,1.505,-33.35,0.28,-0.25
42,0,3.3,1.552,-33.35,0.28,-0.25
43,0,3.3,1.597,-33.43,0.34,0.21
44,0,3.3,1.634,-33.43,0.34,0.21
45,0,3.3,1.691,-33.43,0.34,0.21
46,0,3.3,1.728,-33.45,0.34,0.38
47,0,3.3,1.765,-33.45,0.34,0.38
48,0,3.3,1.8,-33.43,0.32,0.07
49,0,3.3,1.8,-33.43,0.32,0.07
50,0,3.3,1.809,-33.43,0.33,0.22
51,0,3.3,1.827,-33.43,0.33,0.22
52,0,3.3,1.827,-33.43,0.33,0.22
53,0,3.3,1.818,-33.47,0.36,0.48
54,0,3.3,1.8,-33.47,0.36,0.48
55,0,3.3,1.769,-33.47,0.36,0.48
56,0,3.3,1.736,-33.48,0.36,0.45
57,0,3.3,1.728,-33.49,0.36,0.44
58,0,3.3,1.707,-33.49,0.36,0.44
59,0,3.3,1.687,-33.52,0.36,0.44
60,0,3.3,1.676,-33.53,0.35,0.22
61,0,3.3,1.619,-33.52,0.36,0.19
62,0,3.3,1.58,-33.52,0.36,0.19
63,0,3.3,1.555,-33.48,0.34,0.07
64,0,3.3,1.539,-33.48,0.34,0.07
65,0,3.3,1.525,-33.48,0.34,0.07
66,0,3.3,1.532,-33.47,0.35,0.12
67,0,3.3,1.559,-33.47,0.35,0.12
68,0,3.3,1.566,-33.46,0.31,0.12
69,0,3.3,1.58,-33.46,0.31,0.12
70,0,3.3,1.601,-33.53,0.34,0.28
71,0,3.3,1.638,-33.53,0.34,0.28
72,0,3.3,1.664,-33.53,0.35,0.67
73,0,3.3,1.66,-33.52,0.33,0.69
74,0,3.3,1.649,-33.52,0.33,0.69
75,0,3.3,1.664,-33.56,0.28,0.25
76,0,3.3,1.691,-33.56,0.28,0.25
77,0,3.3,1.724,-33.58,0.23,0.37
78,0,3.3,1.748,-33.58,0.23,0.37
79,0,3.3,1.753,-33.6,0.27,0.43
80,0,3.3,1.8,-33.6,0.27,0.43
81,0,3.3,1.822,-33.57,0.3,0.22
82,0,3.3,1.85,-33.57,0.3,0.22
83,0,3.3,1.859,-33.69,0.48,0.66
84,0,3.3,1.836,-33.69,0.48,0.66
85,0,3.3,1.827,-33.9,0.58,0.9
86,0,3.3,1.831,-33.9,0.58,0.9
87,0,3.3,1.859,-33.9,0.58,0.9
88,0,3.3,1.878,-33.94,2.61,0.42
89,0,3.3,1.845,-33.94,2.61,0.42
90,0,3.3,1.757,-34.2,3.41,0.09
91,0,3.3,1.559,-34.2,3.41,0.09
92,0,3.3,1.431,-34.55,3.78,0.7
93,1,3.3,1.311,-34.55,3.78,0.7
94,1,3.3,1.139,-34.58,3.92,0.79
95,0,3.3,0.885,-34.58,3.92,0.79
96,0,3.3,0.675,-35.07,4.13,0.71
97,0,3.3,0.416,-34.75,4.24,1.6
98,1,3.3,0.416,-34.75,4.24,1.6
99,1,3.3,0.416,-34.31,3.32,1.03
100,0,3.3,0.034,-34.31,3.32,1.03
101,0,3.3,0.003,-33.96,1.4,0.0
102,0,3.3,0.126,-33.96,1.4,0.0
103,0,33.3,0.451,-33.96,1.4,0.0
104,0,46.6,0.758,-33.96,1.4,0.0
105,0,36.6,1.167,-33.96,1.4,0.0
106,0,46.6,1.452,-33.96,1.4,0.0
107,0,53.3,1.699,-33.96,1.4,0.0
108,0,56.6,1.854,-33.96,1.4,0.0
109,0,63.3,2.067,-33.23,1.79,5.38
110,0,36.6,2.208,-33.39,1.67,6.46
111,0,43.3,2.291,-33.39,1.67,6.46
112,0,56.6,2.428,-32.31,3.03,9.52
113,0,40.0,2.694,-32.31,3.03,9.52
114,0,53.3,2.851,-31.57,3.3,9.79
115,0,50.0,3.019,-31.78,5.1,9.02
116,0,50.0,3.137,-31.78,5.1,9.02
117,0,66.6,3.137,-30.85,6.2,7.72
118,0,63.3,3.2,-30.85,6.2,7.72
119,0,76.6,3.359,-30.02,4.71,7.31
120,0,66.6,3.217,-30.02,4.71,7.31
121,0,56.6,3.522,-29.83,-0.58,4.98
122,0,70.0,3.378,-29.83,-0.58,4.98
123,0,56.6,3.2,-31.9,0.82,8.6
124,0,46.6,3.359,-31.9,0.82,8.6
125,0,53.3,3.712,-34.39,3.57,8.7
126,0,46.6,3.544,-34.39,3.57,8.7
127,0,60.0,3.438,-36.5,2.02,5.66
128,0,63.3,3.764,-38.59,1.54,4.29
129,0,43.3,3.82,-38.59,1.54,4.29
130,0,60.0,3.939,-39.23,0.79,4.69
131,0,50.0,3.878,-39.23,0.79,4.69
132,1,46.6,4.146,-40.45,0.69,7.24
133,1,56.6,4.265,-40.45,0.69,7.24
134,1,43.3,3.971,-41.54,2.62,6.04
135,0,60.0,4.658,-41.54,2.62,6.04
136,0,73.3,5.164,-42.4,3.45,8.12
137,0,63.3,4.996,-42.4,3.45,8.12
138,0,60.0,4.719,-42.4,3.45,8.12
139,0,60.0,4.495,-42.4,3.45,8.12
140,0,60.0,4.719,-42.4,3.45,8.12
141,1,63.3,5.258,-39.0,-0.42,3.36
142,1,63.3,5.735,-39.0,-0.42,3.36
143,1,60.0,5.077,-40.99,-2.02,3.27
144,2,56.6,4.351,-40.99,-2.02,3.27
145,2,56.6,4.445,-42.48,-6.58,2.98
146,2,56.6,4.547,-42.48,-6.58,2.98
147,1,50.0,5.36,-40.26,-7.03,2.87
148,1,46.6,4.782,-40.26,-7.03,2.87
149,1,50.0,4.397,-32.84,-8.73,0.18
150,1,46.6,4.073,-23.64,-10.73,-1.21
151,0,40.0,3.479,-23.64,-10.73,-1.21
152,0,36.6,3.479,-10.04,-12.21,-2.81
153,0,30.0,3.479,-10.04,-12.21,-2.81
154,0,20.0,3.479,5.93,-11.89,1.0
155,0,16.6,3.479,8.67,-9.91,4.31
156,0,16.6,3.479,8.67,-9.91,4.31
157,0,13.3,3.479,15.53,-10.25,7.31
158,0,6.6,3.479,15.53,-10.25,7.31
159,0,3.3,3.479,16.08,-5.73,10.9
160,1,3.3,3.479,15.36,-4.11,12.04
161,1,3.3,3.479,15.36,-4.11,12.04
162,1,3.3,3.479,15.36,-4.11,12.04
163,1,6.6,3.479,15.2,-1.01,8.03
164,1,6.6,3.479,15.2,-1.01,8.03
165,1,6.6,1.455,14.98,-0.21,7.86
166,1,6.6,1.373,14.98,-0.21,7.86
167,1,6.6,1.298,15.36,0.12,2.86
168,1,6.6,1.221,15.36,0.12,2.86
169,1,3.3,1.105,15.42,0.12,1.44
170,1,3.3,1.029,15.42,0.12,1.44
171,1,3.3,0.958,15.52,0.12,0.39
172,1,3.3,0.889,15.54,0.13,0.34
173,1,3.3,0.826,15.54,0.13,0.34
174,1,3.3,0.773,15.63,0.15,-0.22
175,1,3.3,0.758,15.61,0.1,-0.43
176,1,3.3,0.751,15.64,0.16,-0.19
177,1,3.3,0.744,15.64,0.16,-0.19
178,1,3.3,0.738,15.65,0.16,-0.56
179,1,3.3,0.744,15.65,0.16,-0.56
180,1,3.3,0.758,15.75,0.16,-0.62
181,1,3.3,0.762,15.75,0.16,-0.62
182,1,3.3,0.709,15.76,0.15,-0.99
183,1,3.3,0.668,15.76,0.2,-0.93
184,1,3.3,0.633,15.76,0.2,-0.93
185,1,3.3,0.603,15.74,0.19,-1.17
186,1,3.3,0.579,15.74,0.19,-1.17
187,1,3.3,0.539,15.71,0.23,-0.77
188,1,3.3,0.524,15.71,0.23,-0.77
189,1,3.3,0.518,15.68,0.18,-1.04
190,1,3.3,0.509,15.68,0.18,-1.04
191,1,3.3,0.473,15.68,0.18,-1.04
192,1,3.3,0.441,15.68,0.18,-1.04
193,1,3.3,0.397,15.68,0.18,-1.04
194,1,3.3,0.351,15.7,0.16,-0.57
195,1,3.3,0.301,15.7,0.16,-0.57
196,1,3.3,0.228,15.65,0.22,-0.99
197,1,3.3,0.182,15.65,0.22,-0.99
198,1,3.3,0.147,15.61,0.23,-1.07
199,1,3.3,0.136,15.61,0.23,-1.07
200,1,3.3,0.141,15.57,0.23,-1.14
201,1,3.3,0.137,15.57,0.23,-1.14
202,1,3.3,0.151,15.57,0.23,-1.14
203,1,3.3,0.18,15.68,0.22,-1.35
204,1,3.3,0.199,15.68,0.22,-1.35
205,1,3.3,0.19,15.65,0.24,-1.54
206,1,3.3,0.172,15.65,0.24,-1.54
207,1,3.3,0.172,15.72,0.23,-1.52
208,1,3.3,0.179,15.72,0.23,-1.52
209,1,3.3,0.189,15.76,0.14,-1.84
210,1,3.3,0.212,15.76,0.14,-1.84
211,1,3.3,0.236,14.87,0.06,-1.83
212,1,3.3,0.247,14.87,0.06,-1.83
213,1,3.3,0.263,14.87,0.06,-1.83
214,1,3.3,0.288,14.83,0.28,-1.25
215,1,3.3,0.371,14.83,0.28,-1.25
216,1,3.3,0.438,15.0,0.54,-0.71
217,1,3.3,0.508,15.0,0.54,-0.71
218,1,3.3,0.575,15.27,0.57,-0.48
219,1,3.3,0.615,15.35,0.6,-0.56
220,1,3.3,0.622,15.35,0.6,-0.56
221,1,3.3,0.659,15.54,0.54,-0.44
222,1,3.3,0.712,15.54,0.54,-0.44
223,1,3.3,0.769,15.54,0.54,-0.44
224,1,3.3,0.863,15.45,0.67,-0.72
225,1,3.3,0.923,15.57,0.43,-1.04
226,1,3.3,0.958,15.57,0.43,-1.04
227,1,3.3,0.968,15.58,0.4,-1.44
228,1,3.3,0.918,15.58,0.4,-1.44
229,1,3.3,0.87,15.57,0.2,-0.95
230,1,3.3,0.841,15.57,0.2,-0.95
231,1,3.3,0.841,15.57,0.2,-0.95
232,1,3.3,0.867,15.5,0.21,-0.77
233,1,3.3,0.953,15.5,0.21,-0.77
234,1,3.3,1.007,15.41,0.23,-0.87
235,1,3.3,1.033,15.41,0.23,-0.87
236,1,3.3,1.025,15.32,0.22,-0.85
237,1,3.3,1.025,15.32,0.22,-0.85
238,1,3.3,1.025,15.31,0.2,-0.52
239,0,3.3,1.025,15.31,0.2,-0.52
240,0,3.3,1.025,15.25,0.1,-0.44
241,0,3.3,1.025,15.25,0.1,-0.44
242,0,3.3,1.025,15.22,0.07,-0.49
243,0,3.3,1.025,15.22,0.07,-0.49
244,0,3.3,1.025,15.23,0.05,-0.38
245,0,3.3,1.025,15.23,0.05,-0.38
246,0,3.3,0.354,15.31,0.21,-0.09
247,0,3.3,0.385,15.25,0.18,-0.08
248,0,3.3,0.425,15.25,0.18,-0.08
249,0,3.3,0.445,15.06,0.07,0.13
250,0,3.3,0.412,15.06,0.07,-0.01
251,1,3.3,0.372,15.06,0.07,-0.01
252,1,3.3,0.402,15.02,0.18,0.23
253,1,3.3,0.486,15.02,0.18,0.23
254,1,3.3,0.641,14.98,0.12,0.01
