time*0.5 [s],altitude [cm],rotation [rpm],airspeed [m/s],yaw [deg],pitch [deg],roll [deg]
1,0,3.3,2.291,0.0,0.16,-0.81
2,0,3.3,2.291,-0.020000000000003126,0.16,-0.68
3,0,3.3,2.291,-0.020000000000003126,0.16,-0.68
4,0,3.3,1.897,0.03999999999999915,0.17,-0.61
5,0,3.3,2.365,0.03999999999999915,0.17,-0.61
6,0,3.3,3.268,0.00999999999999801,0.16,-0.38
7,0,3.3,0.0,0.00999999999999801,0.16,-0.38
8,0,3.3,0.0,0.00999999999999801,0.17,-0.44
9,0,3.3,0.0,-0.020000000000003126,0.17,-0.54
10,0,3.3,3.479,-0.020000000000003126,0.17,-0.54
11,0,3.3,3.479,-0.00999999999999801,0.12,-0.68
12,0,3.3,3.479,-0.00999999999999801,0.12,-0.68
13,0,3.3,0.0,0.020000000000003126,0.16,-0.42
14,0,3.3,0.0,0.020000000000003126,0.16,-0.42
15,0,3.3,0.0,0.0,0.15,-0.51
16,0,3.3,0.0,0.0,0.15,-0.51
17,0,3.3,0.0,0.0799999999999983,0.16,-0.87
18,0,3.3,0.0,0.0799999999999983,0.16,-0.87
19,0,3.3,0.0,0.0899999999999963,0.16,-0.76
20,0,3.3,0.0,0.0899999999999963,0.16,-0.76
21,0,3.3,0.0,0.11999999999999744,0.15,-0.79
22,0,3.3,0.0,0.11999999999999744,0.16,-0.84
23,0,3.3,2.604,0.14000000000000057,0.16,-0.88
24,0,3.3,2.604,0.14000000000000057,0.16,-0.86
25,0,3.3,2.604,0.14000000000000057,0.16,-0.86
26,0,3.3,2.604,0.14000000000000057,0.14,-0.9
27,0,3.3,2.604,0.14000000000000057,0.14,-0.9
28,0,3.3,2.604,0.14000000000000057,0.15,-0.96
29,0,3.3,2.604,0.14000000000000057,0.15,-0.96
30,0,3.3,2.604,0.1700000000000017,0.15,-0.77
31,0,3.3,2.604,0.1700000000000017,0.15,-0.69
32,0,3.3,0.0,0.1700000000000017,0.15,-0.69
33,0,3.3,0.0,0.20000000000000284,0.17,-0.65
34,0,3.3,2.9,0.20000000000000284,0.17,-0.65
35,0,3.3,2.9,0.21999999999999886,0.16,-0.54
36,0,3.3,2.9,0.21999999999999886,0.16,-0.54
37,0,3.3,2.9,0.240000000000002,0.18,-0.4
38,0,3.3,2.9,0.240000000000002,0.18,-0.4
39,0,3.3,2.176,0.2700000000000031,0.17,-0.56
40,0,3.3,2.176,0.2700000000000031,0.17,-0.56
41,0,3.3,2.176,0.259999999999998,0.17,-0.69
42,0,3.3,3.019,0.2700000000000031,0.18,-0.71
43,0,3.3,3.019,0.2700000000000031,0.18,-0.71
44,0,3.3,3.019,0.3100000000000023,0.16,-0.76
45,0,3.3,3.019,0.3100000000000023,0.16,-0.76
46,0,3.3,3.019,0.3200000000000003,0.16,-0.66
47,0,3.3,0.0,0.3200000000000003,0.16,-0.66
48,0,3.3,0.0,0.3100000000000023,0.16,-0.78
49,0,3.3,0.0,0.3100000000000023,0.16,-0.78
50,0,3.3,4.224,0.3100000000000023,0.15,-0.88
51,0,3.3,4.224,0.3100000000000023,0.15,-0.88
52,0,3.3,4.224,0.29999999999999716,0.16,-0.89
53,0,3.3,4.224,0.29999999999999716,0.16,-0.94
54,0,3.3,4.224,0.29999999999999716,0.16,-0.94
55,0,3.3,3.076,0.3100000000000023,0.15,-0.89
56,0,3.3,3.076,0.3100000000000023,0.15,-0.89
57,0,3.3,3.076,0.3299999999999983,0.16,-0.87
58,0,3.3,3.076,0.3299999999999983,0.16,-0.87
59,0,3.3,3.076,0.3100000000000023,0.16,-0.89
60,0,3.3,3.076,0.3100000000000023,0.16,-0.89
61,0,3.3,3.076,0.3100000000000023,0.16,-0.89
62,0,3.3,2.072,0.3200000000000003,0.14,-0.88
63,0,3.3,2.235,0.3200000000000003,0.14,-0.88
64,0,3.3,2.235,0.35999999999999943,0.16,-0.87
65,0,3.3,2.235,0.35999999999999943,0.16,-0.87
66,0,3.3,2.235,0.3299999999999983,0.15,-0.96
67,0,3.3,0.0,0.3200000000000003,0.15,-0.76
68,0,3.3,0.796,0.3200000000000003,0.15,-0.76
69,0,3.3,0.7,0.3200000000000003,0.15,-0.76
70,0,3.3,0.576,0.3100000000000023,0.15,-0.71
71,0,3.3,0.51,0.3100000000000023,0.15,-0.71
72,0,3.3,0.51,0.2700000000000031,0.13,-0.88
73,0,3.3,0.597,0.2700000000000031,0.13,-0.88
74,0,3.3,0.597,0.2700000000000031,0.13,-0.88
75,0,3.3,1.63,0.28000000000000114,0.15,-0.83
76,0,3.3,1.63,0.28000000000000114,0.15,-0.83
77,0,3.3,2.208,0.28999999999999915,-0.17,-0.64
78,0,3.3,2.208,0.28999999999999915,-0.17,-0.64
79,0,3.3,2.863,0.25,-0.02,-0.71
80,0,3.3,2.863,0.25,-0.02,-0.71
81,0,3.3,1.711,0.25,-0.02,-0.71
82,0,3.3,1.711,0.25,0.41,-0.58
83,0,3.3,2.195,0.25,0.41,-0.58
84,0,3.3,2.195,0.3500000000000014,0.07,-0.43
85,0,3.3,2.195,0.3500000000000014,0.07,-0.43
86,0,3.3,2.195,0.3399999999999963,0.0,-0.7
87,0,3.3,2.195,0.3399999999999963,0.0,-0.7
88,0,3.3,2.195,0.36999999999999744,0.08,-0.42
89,0,3.3,2.195,0.36999999999999744,0.08,-0.42
90,0,3.3,2.195,0.3399999999999963,0.13,-0.45
91,0,3.3,0.0,0.3399999999999963,0.13,-0.45
92,0,3.3,0.0,0.35999999999999943,0.1,-0.59
93,0,3.3,0.0,0.35999999999999943,0.1,-0.59
94,0,3.3,0.0,0.36999999999999744,0.09,-0.43
95,0,3.3,0.0,0.39000000000000057,0.09,-0.32
96,0,3.3,0.0,0.39000000000000057,0.09,-0.32
97,0,3.3,2.851,0.39000000000000057,0.14,-0.41
98,0,10.0,1.822,0.39000000000000057,0.14,-0.41
99,0,30.0,0.845,0.4099999999999966,0.11,0.0
100,0,30.0,0.845,0.4099999999999966,0.11,0.0
101,0,43.3,0.19,0.4299999999999997,0.46,-0.32
102,0,46.6,0.211,0.4299999999999997,0.46,-0.32
103,0,43.3,0.211,0.5200000000000031,0.51,-0.24
104,0,36.6,0.396,0.5200000000000031,0.51,-0.24
105,0,43.3,1.883,1.0700000000000003,2.34,0.32
106,0,40.0,1.883,1.3900000000000006,2.78,0.27
107,0,50.0,2.436,1.3900000000000006,2.78,0.27
108,0,40.0,0.0,2.280000000000001,2.7,-0.07
109,0,40.0,0.0,3.3999999999999986,2.55,-0.21
110,0,46.6,0.0,3.3999999999999986,2.55,-0.21
111,0,33.3,0.0,3.9299999999999997,2.15,-0.63
112,0,43.3,1.313,3.9299999999999997,2.15,-0.63
113,0,30.0,0.754,3.9299999999999997,2.15,-0.63
114,0,33.3,0.694,4.039999999999999,1.87,-0.61
115,0,43.3,0.907,4.039999999999999,1.87,-0.61
116,0,26.6,1.29,2.520000000000003,2.77,-1.07
117,0,40.0,1.552,1.6499999999999986,1.84,-2.64
118,0,40.0,1.796,1.6499999999999986,1.84,-2.64
119,0,33.3,1.989,0.4200000000000017,1.92,-2.39
120,0,43.3,2.277,0.4200000000000017,1.92,-2.39
121,0,26.6,2.388,-0.5600000000000023,3.02,-3.71
122,0,36.6,2.461,-0.14000000000000057,3.63,-3.28
123,0,50.0,2.469,-0.14000000000000057,3.63,-3.28
124,0,33.3,2.548,-0.14000000000000057,3.63,-3.28
125,0,50.0,2.595,1.1199999999999974,2.96,-2.07
126,0,46.6,2.653,1.1199999999999974,2.96,-2.07
127,0,36.6,2.663,1.1199999999999974,2.96,-2.07
128,0,43.3,2.77,1.75,1.45,-3.05
129,0,30.0,2.863,1.75,1.45,-3.05
130,0,43.3,2.839,3.270000000000003,1.87,-4.9
131,0,46.6,2.863,3.270000000000003,1.87,-4.9
132,0,33.3,3.047,1.6700000000000017,2.65,-6.23
133,0,53.3,3.2,1.6700000000000017,2.65,-6.23
134,0,36.6,3.076,1.6700000000000017,2.65,-6.23
135,0,33.3,2.991,-0.8599999999999994,2.05,-9.46
136,0,46.6,2.964,-0.8599999999999994,2.05,-9.46
137,0,33.3,3.378,-2.9400000000000013,3.15,-9.88
138,0,50.0,3.544,-2.9400000000000013,3.15,-9.88
139,0,50.0,3.417,-3.6000000000000014,2.52,-7.34
140,0,33.3,3.522,-3.6000000000000014,2.52,-7.34
141,0,46.6,3.5,-3.41,2.34,-6.72
142,0,36.6,3.712,-3.41,2.34,-6.72
143,0,36.6,3.417,-2.1799999999999997,0.33,-5.35
144,0,50.0,3.304,-2.1799999999999997,0.33,-5.35
145,0,30.0,3.378,-0.7700000000000031,-0.16,-3.39
146,0,46.6,3.686,-0.7700000000000031,-0.16,-3.39
147,0,46.6,3.522,-1.3800000000000026,1.05,-0.76
148,0,36.6,3.589,-1.2299999999999969,1.23,-1.15
149,0,53.3,3.322,-1.3800000000000026,1.29,-0.34
150,0,36.6,3.398,-1.0499999999999972,1.69,0.81
151,0,36.6,3.686,-1.0499999999999972,1.69,0.81
152,0,50.0,4.146,-1.1799999999999997,0.9,-0.92
153,0,33.3,4.265,-1.1799999999999997,0.9,-0.92
154,0,46.6,4.265,-1.5,-0.33,-0.4
155,1,46.6,4.224,-1.5,-0.33,-0.4
156,1,33.3,4.224,-0.8400000000000034,2.35,5.0
157,1,50.0,4.445,-0.8400000000000034,2.35,5.0
158,0,50.0,5.36,-0.8400000000000034,2.35,5.0
159,0,50.0,5.36,-0.10000000000000142,1.06,4.46
160,0,50.0,4.658,-0.10000000000000142,1.06,4.46
161,0,50.0,4.719,-0.28000000000000114,2.15,2.9
162,0,50.0,4.351,-0.28000000000000114,2.15,2.9
163,0,50.0,3.971,-0.28000000000000114,2.15,2.9
164,0,53.3,3.848,-0.5,2.66,1.61
165,0,43.3,4.109,-0.5,2.66,1.61
166,0,53.3,4.184,-0.6400000000000006,1.74,-0.93
167,0,66.6,4.996,-0.6400000000000006,1.74,-0.93
168,0,46.6,4.782,-0.6400000000000006,1.74,-0.93
169,0,53.3,4.782,-1.2899999999999991,4.18,-4.56
170,0,40.0,5.597,-1.2199999999999989,3.14,-4.87
171,0,46.6,4.109,-1.2199999999999989,3.14,-4.87
172,0,60.0,4.109,-1.5399999999999991,1.39,-4.99
173,0,56.6,4.658,-2.41,0.84,-4.81
174,1,63.3,5.473,-2.41,0.84,-4.81
175,1,60.0,5.735,-2.5,-0.5,-5.82
176,0,56.6,4.849,-2.5,-0.5,-5.82
177,0,53.3,4.265,-1.9399999999999977,4.14,-2.58
178,0,50.0,4.038,-1.9399999999999977,4.14,-2.58
179,0,50.0,4.397,-0.9799999999999969,4.33,-1.66
180,0,40.0,4.397,-0.9799999999999969,4.33,-1.66
181,0,36.6,4.397,1.5600000000000023,0.04,-4.03
182,0,36.6,4.397,1.5600000000000023,0.04,-4.03
183,0,36.6,4.397,3.030000000000001,-2.64,-2.75
184,0,33.3,4.397,3.030000000000001,-2.64,-2.75
185,0,36.6,4.397,6.439999999999998,-1.73,-4.56
186,0,33.3,4.397,6.439999999999998,-1.73,-4.56
187,0,30.0,4.397,6.439999999999998,-1.73,-4.56
188,0,26.6,4.397,12.229999999999997,-3.02,-4.94
189,0,20.0,4.397,12.229999999999997,-3.02,-4.94
190,0,23.3,4.397,13.64,-2.63,-5.38
191,0,23.3,4.397,13.64,-2.63,-5.38
192,0,16.6,4.397,14.420000000000002,-1.09,-3.59
193,0,6.6,2.614,14.420000000000002,-1.09,-3.59
194,0,10.0,2.576,15.060000000000002,-2.04,-3.76
195,0,13.3,2.567,15.060000000000002,-2.04,-3.76
196,0,6.6,2.539,13.350000000000001,-1.7,-3.21
197,0,3.3,2.453,13.350000000000001,-1.7,-3.21
198,2,3.3,2.412,11.979999999999997,-0.96,-2.59
199,2,3.3,2.35,11.770000000000003,-1.37,-3.04
200,0,3.3,2.291,11.770000000000003,-1.37,-3.04
201,0,3.3,2.215,9.689999999999998,-1.44,-3.49
202,2,3.3,2.132,9.689999999999998,-1.44,-3.49
203,2,3.3,2.027,8.729999999999997,-1.91,-1.69
204,2,3.3,1.932,8.729999999999997,-1.91,-1.69
205,0,3.3,1.778,8.009999999999998,-1.83,-1.31
206,0,3.3,1.539,7.689999999999998,-1.65,-0.63
207,1,3.3,1.437,7.689999999999998,-1.65,-0.63
208,1,3.3,1.308,7.479999999999997,-2.39,-0.04
209,1,3.3,1.167,7.479999999999997,-2.39,-0.04
210,1,3.3,0.938,7.479999999999997,-2.39,-0.04
211,1,3.3,0.795,7.479999999999997,-2.39,-0.04
212,0,3.3,0.643,7.75,-2.44,-0.95
213,0,3.3,0.515,7.75,-2.44,-0.95
214,0,3.3,0.403,7.740000000000002,-1.18,-0.42
215,0,3.3,0.257,7.740000000000002,-1.18,-0.42
216,0,3.3,0.185,7.57,-0.29,-0.57
217,0,3.3,0.124,7.57,-0.29,-0.57
218,0,3.3,0.077,6.43,0.01,-0.83
219,0,3.3,0.035,6.43,0.01,-0.83
220,0,3.3,0.007,6.43,0.01,-0.83
221,0,3.3,0.003,6.43,0.01,-0.83
222,0,3.3,0.014,6.43,0.01,-0.83
223,0,3.3,0.057,5.890000000000001,0.31,-1.02
224,0,3.3,0.112,5.890000000000001,0.31,-1.02
225,0,3.3,0.249,5.710000000000001,0.37,-1.11
226,0,3.3,1.1,5.710000000000001,0.37,-1.11
227,0,3.3,1.1,5.710000000000001,0.37,-1.11
228,0,3.3,0.749,5.25,0.24,-1.44
229,0,3.3,0.749,5.25,0.24,-1.44
230,0,3.3,0.284,5.560000000000002,0.43,-1.13
231,0,3.3,0.284,5.560000000000002,0.43,-1.13
232,0,3.3,0.028,5.589999999999996,0.5,-1.14
233,0,3.3,0.0,5.589999999999996,0.5,-1.14
234,1,3.3,0.0,5.409999999999997,0.51,-1.2
235,1,3.3,0.0,5.409999999999997,0.51,-1.2
236,1,3.3,0.0,4.909999999999997,0.47,-0.65
237,1,3.3,0.0,4.909999999999997,0.47,-0.65
238,1,3.3,0.0,4.490000000000002,0.6,-0.47
239,0,3.3,0.0,4.490000000000002,0.6,-0.47
240,0,3.3,0.0,4.359999999999999,0.59,-0.35
241,0,3.3,0.0,4.359999999999999,0.59,-0.35
242,0,3.3,2.839,4.369999999999997,0.46,0.02
243,0,3.3,2.839,4.369999999999997,0.46,0.02
244,0,3.3,2.839,4.369999999999997,0.46,0.02
245,0,3.3,2.839,4.350000000000001,0.42,0.12
246,0,3.3,2.643,4.350000000000001,0.42,0.12
247,0,3.3,2.643,4.490000000000002,0.38,0.15
248,0,3.3,2.643,4.579999999999998,0.39,0.27
249,0,3.3,2.643,4.579999999999998,0.39,0.27
250,0,3.3,2.643,4.43,0.36,0.07
251,1,3.3,2.643,4.43,0.36,0.07
252,1,3.3,2.643,4.729999999999997,0.37,0.04
253,1,3.3,2.643,4.729999999999997,0.37,0.04
254,1,3.3,2.643,4.979999999999997,0.4,0.39
255,0,3.3,0.0,4.979999999999997,0.4,0.39
256,0,3.3,0.0,5.509999999999998,0.42,0.35
257,0,3.3,0.0,5.509999999999998,0.42,0.35
258,0,3.3,0.0,5.829999999999998,0.54,0.41
259,0,3.3,0.0,5.829999999999998,0.54,0.41
260,0,3.3,0.0,5.799999999999997,0.43,0.42
261,0,3.3,0.0,5.799999999999997,0.43,0.42
262,0,3.3,0.0,5.700000000000003,0.41,0.33
263,0,3.3,0.0,5.700000000000003,0.41,0.33
264,0,3.3,0.0,5.240000000000002,0.36,0.93
265,0,3.3,0.0,5.140000000000001,0.42,0.82
266,1,3.3,0.0,5.140000000000001,0.42,0.82
267,1,3.3,0.0,5.079999999999998,0.49,0.76
268,1,3.3,0.0,5.079999999999998,0.49,0.76
269,1,3.3,0.0,5.060000000000002,0.38,0.7
