time*0.5 [s],altitude [cm],rotation [rpm],airspeed [m/s],yaw [deg],pitch [deg],roll [deg]
1,0,3.3,0.0,0.0,0.02,0.08
2,0,3.3,0.0,0.0,0.02,0.08
3,0,3.3,0.0,-0.029999999999999805,0.03,-0.11
4,0,3.3,0.0,-0.029999999999999805,0.03,-0.11
5,0,3.3,0.0,-0.020000000000000018,0.03,0.0
6,0,3.3,0.0,-0.020000000000000018,0.03,0.0
7,0,3.3,0.0,-0.08999999999999986,0.03,-0.16
8,0,3.3,0.0,-0.08999999999999986,0.03,-0.16
9,0,3.3,0.0,-0.10999999999999988,0.03,0.21
10,0,3.3,0.0,-0.10999999999999988,0.03,0.21
11,0,3.3,0.0,-0.029999999999999805,0.03,0.75
12,0,3.3,0.0,-0.009999999999999787,0.03,0.66
13,0,3.3,0.0,-0.009999999999999787,0.03,0.66
14,0,3.3,0.0,-0.020000000000000018,0.06,0.76
15,0,3.3,0.0,-0.020000000000000018,0.06,0.76
16,0,3.3,0.0,0.040000000000000036,0.05,0.89
17,0,3.3,0.0,0.040000000000000036,0.05,0.89
18,0,3.3,0.0,0.06000000000000005,0.02,0.44
19,0,3.3,0.0,0.06000000000000005,0.02,0.44
20,0,3.3,0.0,0.06000000000000005,0.04,0.87
21,0,3.3,0.0,0.08000000000000007,0.06,0.98
22,0,3.3,0.0,0.08000000000000007,0.06,0.98
23,0,3.3,0.0,0.07000000000000006,0.11,0.64
24,0,3.3,0.0,0.07000000000000006,0.11,0.64
25,0,3.3,0.0,0.1200000000000001,0.1,0.62
26,0,3.3,0.0,0.1200000000000001,0.1,0.62
27,0,3.3,0.0,0.13000000000000012,0.11,0.83
28,0,3.3,0.0,0.13000000000000012,0.11,0.83
29,0,3.3,0.0,0.1200000000000001,0.18,0.67
30,0,3.3,0.0,0.1200000000000001,0.18,0.67
31,0,3.3,0.0,0.16999999999999993,-0.03,0.73
32,0,3.3,0.0,0.16999999999999993,-0.03,0.73
33,0,3.3,0.0,0.16999999999999993,-0.03,0.73
34,0,3.3,0.0,0.14000000000000012,-0.07,0.66
35,0,3.3,0.0,0.14000000000000012,-0.07,0.66
36,0,3.3,0.0,0.20999999999999996,-0.07,0.79
37,0,3.3,0.0,0.20999999999999996,-0.07,0.79
38,0,3.3,0.0,0.19999999999999996,-0.04,0.61
39,0,3.3,0.0,0.19999999999999996,-0.04,0.61
40,0,3.3,0.0,0.21999999999999997,-0.02,0.66
41,0,3.3,0.0,0.21999999999999997,-0.02,0.66
42,0,3.3,0.0,0.22999999999999998,0.01,0.6
43,0,3.3,0.0,0.25,-0.01,0.64
44,0,3.3,0.0,0.25,-0.01,0.64
45,0,3.3,0.0,0.27,-0.01,0.58
46,0,3.3,0.0,0.27,-0.01,0.58
47,0,6.6,0.0,0.27,-0.03,0.74
48,0,3.3,0.0,0.27,-0.03,0.74
49,0,3.3,0.0,0.19999999999999996,0.06,0.54
50,0,3.3,0.0,0.19999999999999996,0.06,0.54
51,0,3.3,0.0,0.21999999999999997,0.04,0.56
52,0,3.3,0.0,0.21999999999999997,0.04,0.56
53,0,3.3,0.0,0.21999999999999997,0.04,0.56
54,0,3.3,0.0,0.30000000000000004,-0.21,0.91
55,0,3.3,0.0,0.30000000000000004,-0.21,0.91
56,0,3.3,0.0,0.25,0.16,1.01
57,0,3.3,0.0,0.25,0.16,1.01
58,0,3.3,0.0,0.25,-0.18,1.01
59,0,3.3,0.0,0.16999999999999993,-0.04,0.59
60,0,3.3,0.0,0.16999999999999993,-0.04,0.59
61,0,3.3,0.0,0.17999999999999994,-0.04,0.8
62,0,3.3,0.0,0.17999999999999994,-0.04,0.8
63,0,3.3,0.0,0.24,0.3,1.0
64,0,3.3,0.0,0.24,0.3,1.0
65,0,3.3,0.0,0.22999999999999998,-0.11,0.98
66,0,3.3,0.0,0.22999999999999998,-0.11,0.98
67,0,3.3,0.0,0.25,0.3,0.57
68,0,3.3,0.0,0.25,0.3,0.57
69,0,3.3,0.0,0.22999999999999998,0.01,0.59
70,0,3.3,0.0,0.22999999999999998,0.01,0.59
71,0,3.3,0.0,0.27,-0.15,0.87
72,0,3.3,0.0,0.27,-0.15,0.87
73,0,3.3,0.0,0.28,-0.23,0.94
74,0,3.3,0.0,0.28,-0.23,0.94
75,0,3.3,0.0,0.30000000000000004,0.09,0.99
76,0,3.3,0.0,0.3500000000000001,-0.18,0.91
77,0,3.3,0.0,0.3500000000000001,-0.18,0.91
78,0,3.3,0.0,0.3500000000000001,0.16,0.68
79,0,3.3,0.0,0.3500000000000001,0.16,0.68
80,0,3.3,0.0,0.5,0.03,0.74
81,0,3.3,0.0,0.5,0.03,0.74
82,0,3.3,0.0,0.5,0.03,0.74
83,0,3.3,0.0,0.45999999999999996,-0.05,0.63
84,0,3.3,0.0,0.45999999999999996,-0.05,0.63
85,0,3.3,0.0,0.51,0.0,1.1
86,0,3.3,0.0,0.51,0.0,1.1
87,0,3.3,0.0,0.51,0.01,0.46
88,0,3.3,0.0,0.51,0.01,0.46
89,0,3.3,0.0,0.52,0.01,0.53
90,0,3.3,0.0,0.52,0.01,0.53
91,0,3.3,0.0,0.52,0.01,0.53
92,0,3.3,0.0,0.52,0.01,0.53
93,0,3.3,0.0,0.52,0.01,0.53
94,0,3.3,0.0,0.52,0.01,0.53
95,0,3.3,0.0,0.52,0.01,0.53
96,0,3.3,0.0,0.5900000000000001,0.03,0.63
97,0,3.3,0.0,0.5900000000000001,0.03,0.63
98,0,3.3,0.0,0.6499999999999999,0.06,0.93
99,0,3.3,0.0,0.6499999999999999,0.06,0.93
100,0,3.3,0.0,0.6599999999999999,0.04,0.37
101,0,3.3,0.0,0.6599999999999999,0.04,0.37
102,0,3.3,0.0,0.6699999999999999,0.04,0.16
103,0,3.3,0.0,0.6699999999999999,0.04,0.16
104,0,3.3,0.0,0.6599999999999999,0.04,-0.08
105,0,3.3,0.0,0.6599999999999999,0.04,-0.08
106,0,3.3,0.0,0.6599999999999999,0.04,-0.08
107,0,3.3,0.0,0.6799999999999999,0.03,-0.07
108,0,3.3,0.0,0.6799999999999999,0.03,-0.07
109,0,3.3,0.0,0.69,0.03,-0.03
110,0,3.3,0.0,0.69,0.03,-0.03
111,0,3.3,0.0,0.7,0.04,0.0
112,0,3.3,0.0,0.7,0.04,0.0
113,0,3.3,0.0,0.71,0.04,-0.09
114,0,3.3,0.0,0.71,0.04,-0.09
115,0,3.3,0.0,0.69,0.03,-0.06
116,0,3.3,0.0,0.69,0.03,-0.06
117,0,3.3,0.0,0.69,0.03,-0.02
118,0,3.3,0.0,0.6799999999999999,0.03,-0.09
119,0,3.3,0.0,0.6799999999999999,0.03,-0.09
120,0,3.3,0.0,0.69,0.02,-0.05
121,0,3.3,0.0,0.69,0.02,-0.05
122,0,3.3,0.0,0.7,0.03,-0.1
123,0,3.3,0.0,0.7,0.03,-0.1
124,0,3.3,0.0,0.69,0.02,-0.12
125,0,3.3,0.0,0.69,0.02,-0.12
126,0,3.3,0.0,0.69,0.02,-0.14
127,0,3.3,0.0,0.69,0.02,-0.16
128,0,3.3,0.0,0.69,0.02,-0.16
129,0,3.3,0.0,0.69,0.02,-0.09
130,0,3.3,0.0,0.69,0.02,-0.09
131,0,3.3,0.0,0.69,0.04,-0.13
132,0,3.3,0.0,0.69,0.04,-0.13
133,0,3.3,0.0,0.71,0.03,-0.09
134,0,3.3,0.0,0.71,0.03,-0.09
135,0,3.3,0.0,0.71,0.03,-0.09
136,0,3.3,0.0,0.71,0.03,-0.11
137,0,3.3,0.0,0.71,0.03,-0.11
138,0,3.3,0.0,0.7,0.03,-0.08
139,0,3.3,0.0,0.7,0.03,-0.08
140,0,3.3,0.0,0.71,0.03,-0.07
141,0,3.3,0.0,0.71,0.03,-0.07
142,0,3.3,0.0,0.7,0.03,-0.16
143,0,3.3,0.0,0.7,0.03,-0.16
144,0,3.3,0.0,0.71,0.03,-0.01
145,0,3.3,0.0,0.71,0.03,-0.01
146,0,3.3,0.0,0.74,0.03,0.0
147,0,3.3,0.0,0.74,0.03,0.0
148,0,3.3,0.0,0.74,0.03,0.0
149,0,3.3,0.0,0.76,0.03,-0.08
150,0,3.3,0.0,0.76,0.03,-0.08
151,0,3.3,0.0,0.77,0.03,-0.08
152,0,3.3,0.0,0.77,0.03,-0.08
153,0,3.3,0.0,0.77,0.04,-0.06
154,0,3.3,0.0,0.77,0.04,-0.06
155,0,3.3,0.0,0.79,0.03,-0.14
156,0,3.3,0.0,0.79,0.03,-0.14
157,0,3.3,0.0,0.8200000000000001,0.03,-0.19
158,0,3.3,0.0,0.8200000000000001,0.03,-0.19
159,0,3.3,0.0,0.8200000000000001,0.03,-0.19
160,0,3.3,0.0,0.8300000000000001,0.03,-0.32
161,0,3.3,0.0,0.8300000000000001,0.03,-0.32
162,0,3.3,0.0,0.8200000000000001,0.01,-0.33
163,0,3.3,0.0,0.8200000000000001,0.01,-0.33
164,0,3.3,0.0,0.8200000000000001,0.01,-0.32
165,0,3.3,0.0,0.8200000000000001,0.01,-0.32
166,0,3.3,0.0,0.81,0.01,-0.28
167,0,3.3,0.0,0.81,0.01,-0.28
168,0,3.3,0.0,0.8,0.01,-0.29
169,0,3.3,0.0,0.81,0.01,-0.17
170,0,3.3,0.0,0.81,0.01,-0.17
171,0,3.3,0.0,0.8300000000000001,0.0,-0.29
172,0,3.3,0.0,0.8300000000000001,0.0,-0.29
173,0,3.3,0.0,0.8300000000000001,0.01,-0.2
174,0,3.3,0.0,0.8300000000000001,0.01,-0.2
175,0,3.3,0.0,0.8400000000000001,0.03,-0.06
176,0,3.3,0.0,0.8400000000000001,0.03,-0.06
177,0,3.3,0.0,0.8300000000000001,0.03,-0.02
178,0,3.3,0.0,0.8300000000000001,0.03,-0.02
179,0,3.3,0.0,0.8300000000000001,0.02,0.0
180,0,3.3,0.0,0.8300000000000001,0.02,-0.02
181,0,3.3,0.0,0.8300000000000001,0.02,-0.02
182,0,3.3,0.0,0.8300000000000001,0.02,-0.06
183,0,3.3,0.0,0.8300000000000001,0.02,-0.06
184,0,3.3,0.0,0.8300000000000001,0.03,-0.05
185,0,3.3,0.0,0.8300000000000001,0.03,-0.05
186,0,3.3,0.0,0.8300000000000001,0.04,-0.02
187,0,3.3,0.0,0.8300000000000001,0.04,-0.02
188,0,3.3,0.0,0.8200000000000001,0.03,-0.05
189,0,3.3,0.0,0.8200000000000001,0.03,-0.05
190,0,3.3,0.0,0.8300000000000001,0.03,-0.03
191,0,3.3,0.0,0.8400000000000001,0.04,-0.05
192,0,3.3,0.0,0.8400000000000001,0.04,-0.05
193,0,3.3,0.0,0.8600000000000001,0.03,-0.03
194,0,3.3,0.0,0.8600000000000001,0.03,-0.03
195,0,3.3,0.0,0.8700000000000001,0.03,-0.02
196,0,3.3,0.0,0.8700000000000001,0.03,-0.02
197,0,3.3,0.0,0.8700000000000001,0.03,-0.03
198,0,3.3,0.0,0.8700000000000001,0.03,-0.03
199,0,3.3,0.0,0.8700000000000001,0.02,-0.07
200,0,3.3,0.0,0.8700000000000001,0.02,-0.07
201,0,3.3,0.0,0.8700000000000001,0.02,-0.07
202,0,3.3,0.0,0.8800000000000001,0.01,0.01
203,0,3.3,0.0,0.8800000000000001,0.01,0.01
204,0,3.3,0.0,0.8800000000000001,0.02,0.04
205,0,3.3,0.0,0.8800000000000001,0.02,0.04
206,0,3.3,0.0,0.8800000000000001,0.03,0.06
207,0,3.3,0.0,0.8800000000000001,0.03,0.06
208,0,3.3,0.0,0.8999999999999999,0.03,0.18
209,0,3.3,0.0,0.8900000000000001,0.03,0.19
210,0,3.3,0.0,0.8900000000000001,0.03,0.19
211,0,3.3,0.0,0.8999999999999999,0.03,0.19
212,0,3.3,0.0,0.8999999999999999,0.03,0.19
213,0,3.3,0.0,0.9099999999999999,0.04,0.23
214,0,3.3,0.0,0.9099999999999999,0.04,0.23
215,0,3.3,0.0,0.8999999999999999,0.05,0.28
216,0,3.3,0.0,0.8999999999999999,0.05,0.28
217,0,3.3,0.0,0.9099999999999999,0.05,0.31
218,0,3.3,0.0,0.9299999999999999,0.04,0.36
219,0,3.3,0.0,0.9299999999999999,0.04,0.36
220,0,3.3,0.0,0.9299999999999999,0.03,0.28
221,0,3.3,0.0,0.9299999999999999,0.03,0.28
222,0,3.3,0.0,0.94,0.04,0.34
223,0,3.3,0.0,0.94,0.04,0.34
224,0,3.3,0.0,0.9299999999999999,0.03,0.35
225,0,3.3,0.0,0.9299999999999999,0.03,0.35
226,0,3.3,0.0,0.9299999999999999,0.03,0.13
227,0,3.3,0.0,0.9299999999999999,0.03,0.13
228,0,3.3,0.0,0.95,0.04,0.31
229,0,3.3,0.0,0.95,0.04,0.31
230,0,3.3,0.0,0.96,0.04,0.25
231,0,3.3,0.0,0.96,0.04,0.25
232,0,3.3,0.0,0.97,0.03,0.24
233,0,3.3,0.0,0.97,0.03,0.21
234,0,3.3,0.0,0.97,0.03,0.21
235,0,3.3,0.0,0.96,0.04,0.29
236,0,3.3,0.0,0.96,0.04,0.29
237,0,3.3,0.0,0.96,0.04,0.29
238,0,3.3,0.0,0.96,0.04,0.29
239,0,3.3,0.0,0.96,0.04,0.29
240,0,3.3,0.0,0.99,0.04,0.26
241,0,3.3,0.0,0.99,0.04,0.26
242,0,3.3,0.0,0.99,0.05,0.29
243,0,3.3,0.0,0.99,0.05,0.29
244,0,3.3,0.0,0.99,0.04,0.32
245,0,3.3,0.0,0.99,0.04,0.32
246,0,3.3,0.0,0.99,0.04,0.29
247,0,3.3,0.0,0.99,0.04,0.29
248,0,3.3,0.0,0.99,0.02,0.33
249,0,3.3,0.0,0.99,0.02,0.33
250,0,3.3,0.0,0.99,0.03,0.29
251,0,3.3,0.0,0.99,0.03,0.29
252,0,3.3,0.0,1.0,0.03,0.32
253,0,3.3,0.0,1.0,0.04,0.29
254,0,3.3,0.0,1.0,0.04,0.29
255,0,3.3,0.0,1.02,0.04,0.3
256,0,3.3,0.0,1.02,0.04,0.3
257,0,3.3,0.0,1.03,0.02,0.31
258,0,3.3,0.0,1.03,0.02,0.31
259,0,3.3,0.0,1.04,0.03,0.23
260,0,3.3,0.0,1.04,0.03,0.23
261,0,3.3,0.0,1.06,0.02,0.31
262,0,3.3,0.0,1.04,0.03,0.17
263,0,3.3,0.0,1.04,0.03,0.06
264,0,3.3,0.0,1.04,0.03,0.24
265,0,3.3,0.0,1.04,0.03,0.24
266,0,3.3,0.0,1.03,0.03,0.27
267,0,3.3,0.0,1.03,0.03,0.27
268,0,3.3,0.0,1.04,0.07,0.37
269,0,3.3,0.0,1.04,0.07,0.37
270,0,3.3,0.0,1.07,0.05,0.23
271,0,3.3,0.0,1.07,0.05,0.23
272,0,3.3,0.0,1.07,0.05,0.39
273,0,3.3,0.0,1.07,0.05,0.39
274,0,3.3,0.0,1.07,0.05,0.39
275,0,3.3,0.0,1.08,0.05,0.44
276,0,3.3,0.0,1.08,0.05,0.44
277,0,3.3,0.0,1.0899999999999999,0.03,0.52
278,0,3.3,0.0,1.0899999999999999,0.03,0.52
279,0,3.3,0.0,1.1,0.05,0.63
280,0,3.3,0.0,1.1,0.05,0.63
281,0,3.3,0.0,1.1,0.03,0.47
282,0,3.3,0.0,1.1099999999999999,0.03,0.55
283,0,3.3,0.0,1.1099999999999999,0.03,0.55
284,0,3.3,0.0,1.1,0.02,0.51
285,0,3.3,2.747,1.1,0.02,0.51
286,0,3.3,2.747,1.13,0.02,0.57
287,0,3.3,2.747,1.13,0.02,0.57
288,0,3.3,2.747,1.1400000000000001,0.02,0.5
289,0,3.3,2.747,1.1400000000000001,0.02,0.5
290,0,3.3,2.747,1.1600000000000001,0.04,0.64
291,0,3.3,2.747,1.1600000000000001,0.04,0.64
292,0,3.3,2.747,1.19,0.05,0.62
293,0,3.3,0.0,1.19,0.05,0.62
294,0,3.3,0.0,1.19,0.03,0.49
295,0,3.3,0.0,1.1800000000000002,0.03,0.44
296,0,3.3,0.0,1.1800000000000002,0.03,0.44
297,0,3.3,0.0,1.2000000000000002,0.03,0.25
298,0,3.3,0.0,1.2000000000000002,0.03,0.25
299,0,3.3,0.0,1.2000000000000002,0.03,0.19
300,0,3.3,0.0,1.2000000000000002,0.03,0.19
301,0,3.3,0.0,1.2000000000000002,0.04,0.06
302,0,3.3,0.0,1.2000000000000002,0.04,0.06
303,0,3.3,0.0,1.21,0.03,-0.08
304,0,3.3,0.0,1.21,0.03,-0.08
305,0,3.3,0.0,1.21,0.03,-0.08
306,0,3.3,0.0,1.2000000000000002,0.03,-0.11
307,0,3.3,0.0,1.2000000000000002,0.03,-0.11
308,0,3.3,0.0,1.21,0.02,-0.18
309,0,3.3,0.0,1.21,0.02,-0.18
310,0,3.3,0.0,1.2000000000000002,0.02,-0.25
311,0,3.3,0.0,1.2000000000000002,0.02,-0.25
312,0,3.3,0.0,1.22,0.02,-0.16
313,0,3.3,0.0,1.22,0.02,-0.16
314,0,3.3,0.0,1.23,0.03,-0.06
315,0,3.3,0.0,1.23,0.03,-0.06
316,0,3.3,0.0,1.23,0.03,-0.06
317,0,3.3,0.0,1.21,0.02,-0.07
318,0,3.3,0.0,1.21,0.02,-0.07
319,0,3.3,0.0,1.21,0.03,-0.04
320,0,3.3,0.0,1.21,0.03,-0.04
321,0,3.3,0.0,1.21,0.03,-0.03
322,0,3.3,0.0,1.21,0.03,-0.03
323,0,3.3,0.0,1.22,0.03,0.01
324,0,3.3,0.0,1.22,0.03,0.01
325,0,3.3,0.0,1.22,0.03,0.01
326,0,3.3,0.0,1.22,0.02,-0.08
327,0,3.3,0.0,1.22,0.02,-0.08
328,0,3.3,0.0,1.22,0.02,0.01
329,0,3.3,0.0,1.22,0.02,0.01
330,0,3.3,0.0,1.23,0.03,0.09
331,0,3.3,0.0,1.23,0.03,0.09
332,0,3.3,0.0,1.23,0.02,0.14
333,0,3.3,0.0,1.23,0.02,0.14
334,0,3.3,0.0,1.26,0.03,0.28
335,0,3.3,0.0,1.26,0.03,0.28
336,0,3.3,0.0,1.27,0.02,0.25
337,0,3.3,0.0,1.27,0.01,0.31
338,0,3.3,0.0,1.27,0.01,0.31
339,0,3.3,0.0,1.25,0.01,0.09
340,0,3.3,0.0,1.25,0.01,0.09
341,0,3.3,0.0,1.28,0.02,0.22
342,0,3.3,0.0,1.24,0.0,0.1
343,0,3.3,0.0,1.24,0.0,0.1
344,0,3.3,0.0,1.29,0.02,0.24
345,0,3.3,0.0,1.29,0.02,0.24
346,0,3.3,0.0,1.29,0.02,0.24
347,0,3.3,0.0,1.35,0.1,0.35
348,0,3.3,0.0,1.29,-0.06,0.21
349,0,3.3,0.0,1.29,-0.06,0.21
350,0,3.3,0.0,1.35,-0.06,0.46
351,0,3.3,0.0,1.35,-0.06,0.46
352,0,3.3,0.0,1.37,-0.05,0.34
353,0,3.3,0.0,1.37,-0.05,0.34
354,0,3.3,0.0,1.42,-0.05,0.35
355,0,3.3,0.0,1.42,-0.05,0.35
356,0,3.3,0.0,1.4,-0.04,0.22
357,0,3.3,0.0,1.4,-0.04,0.22
358,0,3.3,0.0,1.4,-0.04,0.22
359,0,3.3,0.0,1.46,0.0,0.51
360,0,3.3,0.0,1.46,0.0,0.51
361,0,3.3,0.0,1.4100000000000001,-0.24,0.39
362,0,3.3,0.0,1.4100000000000001,-0.24,0.39
363,0,3.3,0.0,1.54,0.22,0.43
364,0,3.3,0.0,1.54,0.22,0.43
365,0,3.3,0.0,1.81,0.34,0.31
366,0,3.3,0.0,1.81,0.34,0.31
367,0,3.3,0.0,2.24,0.69,0.35
368,0,3.3,0.0,2.39,0.4,0.57
369,0,3.3,0.0,2.39,0.4,0.57
370,0,3.3,0.0,3.0,0.6,0.73
371,0,3.3,0.0,3.0,0.6,0.73
372,0,3.3,0.0,3.8,0.67,0.73
373,0,3.3,0.0,3.8,0.67,0.73
374,1,3.3,0.0,4.58,0.4,1.01
375,1,3.3,2.548,4.58,0.4,1.01
376,0,3.3,0.376,5.3,0.25,1.31
377,0,3.3,0.376,5.3,0.25,1.31
378,0,3.3,0.33,5.57,0.06,1.68
379,0,3.3,0.33,5.470000000000001,0.16,1.64
380,0,3.3,0.143,5.470000000000001,0.16,1.64
381,0,3.3,0.036,5.54,0.68,1.51
382,0,3.3,0.106,5.54,0.68,1.51
383,0,3.3,0.106,6.02,0.22,1.57
384,0,3.3,0.01,6.02,0.22,1.57
385,0,3.3,0.025,6.470000000000001,0.39,1.88
386,0,3.3,0.133,6.470000000000001,0.39,1.88
387,0,3.3,0.056,6.130000000000001,0.18,1.77
388,0,6.6,0.218,6.130000000000001,0.18,1.77
389,0,6.6,0.217,5.91,0.21,1.56
390,0,10.0,0.228,5.9,0.54,1.9
391,0,3.3,0.098,5.9,0.54,1.9
392,0,3.3,0.301,5.77,0.28,0.96
393,0,3.3,0.35,5.57,0.27,1.37
394,0,3.3,0.01,5.57,0.27,1.37
395,0,6.6,0.019,4.79,0.61,1.66
396,0,3.3,0.019,4.79,0.61,1.66
397,0,3.3,0.485,4.79,0.61,1.66
398,0,10.0,0.89,3.94,0.25,1.78
399,0,3.3,1.065,3.4299999999999997,0.04,1.27
400,0,6.6,0.029,3.4299999999999997,0.04,1.27
401,0,10.0,0.045,2.9,0.71,1.06
402,0,3.3,0.308,2.74,0.42,1.15
403,0,6.6,0.091,2.5300000000000002,0.19,1.18
404,0,6.6,0.098,2.5300000000000002,0.19,1.18
405,0,3.3,0.277,2.42,0.24,1.5
406,0,6.6,0.081,2.42,0.24,1.5
407,0,6.6,0.032,2.42,0.24,1.5
408,0,3.3,0.061,2.58,-0.13,1.36
409,0,10.0,0.006,2.58,-0.13,1.36
410,0,6.6,0.172,2.63,0.37,1.37
411,0,3.3,0.106,2.63,0.37,1.37
412,1,6.6,0.003,2.89,0.3,1.93
413,1,3.3,0.474,2.89,0.3,1.93
414,1,6.6,0.194,2.79,-0.08,1.49
415,0,6.6,0.194,2.79,-0.08,1.49
416,0,3.3,0.058,2.69,0.2,1.69
417,0,3.3,0.004,2.69,0.2,1.69
418,0,3.3,0.532,2.41,0.32,0.61
419,0,3.3,0.316,2.35,0.48,0.99
420,0,6.6,0.516,2.35,0.48,0.99
421,0,6.6,0.008,2.54,0.05,1.42
422,0,6.6,0.038,2.54,0.05,1.42
423,0,6.6,0.804,2.26,-0.09,1.57
424,1,6.6,0.0,2.02,0.05,2.59
425,1,6.6,0.0,2.02,0.05,2.59
426,0,3.3,3.908,1.91,0.42,1.96
427,0,3.3,3.908,1.91,0.42,1.96
428,0,3.3,3.908,1.91,0.42,1.96
429,0,3.3,0.0,1.79,1.07,1.94
430,0,3.3,2.067,1.79,1.07,1.94
431,0,3.3,2.067,1.79,1.07,1.94
432,0,3.3,1.461,1.61,0.89,2.72
433,0,3.3,1.461,1.61,0.89,2.72
434,0,3.3,1.461,1.91,0.14,3.49
435,0,3.3,1.461,1.91,0.14,3.49
436,0,3.3,1.461,2.35,0.51,2.65
437,0,3.3,1.461,2.35,0.51,2.65
438,0,3.3,1.461,2.51,0.24,2.09
439,1,3.3,0.008,2.51,0.24,2.09
440,1,3.3,0.02,2.95,0.04,1.87
441,1,3.3,0.039,2.99,0.75,1.6
442,0,3.3,0.412,2.99,0.75,1.6
443,0,3.3,0.441,3.38,0.42,1.25
444,0,3.3,0.847,3.4299999999999997,0.26,1.88
445,0,3.3,1.221,3.33,-0.3,1.79
446,0,3.3,1.545,3.33,-0.3,1.79
447,0,3.3,2.044,3.39,-0.02,1.85
448,0,3.3,2.044,3.39,-0.02,1.85
449,0,3.3,0.029,3.2199999999999998,-0.84,4.0
450,0,3.3,0.029,3.2199999999999998,-0.84,4.0
451,0,3.3,0.041,2.68,-0.28,2.84
452,1,3.3,0.296,2.7,0.06,2.57
453,1,3.3,0.004,2.7,0.06,2.57
454,0,3.3,0.014,2.29,-0.72,3.06
455,0,3.3,0.003,2.29,-0.72,3.06
456,0,3.3,0.036,1.24,0.07,2.62
457,0,3.3,0.036,1.24,0.07,2.62
458,0,3.3,0.036,0.3600000000000001,-0.24,2.12
459,0,3.3,0.036,0.3600000000000001,-0.24,2.12
460,0,3.3,0.036,-0.10000000000000009,-0.76,1.47
461,0,3.3,0.036,-0.18999999999999995,-0.85,1.44
462,0,3.3,0.036,-0.18999999999999995,-0.85,1.44
463,0,3.3,0.036,-0.41000000000000014,-0.68,1.73
464,0,3.3,0.036,-0.41000000000000014,-0.68,1.73
465,0,3.3,0.036,-0.3700000000000001,-0.38,1.2
466,0,3.3,0.036,-0.3700000000000001,-0.38,1.2
467,0,3.3,0.036,0.07000000000000006,0.47,2.49
468,0,3.3,0.036,0.07000000000000006,0.47,2.49
469,0,3.3,0.036,1.07,0.57,2.31
470,0,3.3,0.079,1.3,0.57,2.15
471,0,3.3,0.116,1.3,0.57,2.15
472,0,3.3,0.399,1.3,0.57,2.15
473,0,3.3,0.826,1.3,0.57,2.15
474,1,3.3,0.787,2.31,0.5,1.7
475,1,3.3,2.567,2.31,0.5,1.7
476,1,3.3,2.567,2.26,-0.51,2.51
477,1,3.3,3.848,2.26,-0.51,2.51
478,1,3.3,2.182,2.14,-0.4,2.51
479,1,3.3,0.079,2.14,-0.4,2.51
480,0,3.3,0.079,1.21,0.03,1.89
481,0,3.3,0.079,1.21,0.03,1.89
482,0,3.3,0.079,1.21,0.03,1.89
483,0,3.3,0.079,0.8,-0.08,1.73
484,1,3.3,0.079,0.8,-0.08,1.73
485,1,3.3,0.079,1.13,-0.05,2.02
486,0,3.3,0.079,1.13,-0.05,2.02
487,0,3.3,0.079,1.28,0.98,1.89
488,0,3.3,0.079,1.28,0.98,1.89
489,0,3.3,0.079,1.88,0.45,1.1
490,0,3.3,0.079,1.88,0.45,1.1
491,0,3.3,0.079,2.74,0.2,1.12
492,0,3.3,0.079,2.74,0.2,1.12
493,0,3.3,0.079,3.38,0.57,1.96
494,0,3.3,0.079,3.49,0.56,1.91
495,0,3.3,0.079,3.49,0.56,1.91
496,0,3.3,0.079,4.23,1.06,0.16
497,0,3.3,0.079,4.23,1.06,0.16
498,0,3.3,0.079,4.6,0.91,0.92
499,0,3.3,0.079,4.6,0.91,0.92
500,1,3.3,0.234,4.6,0.91,0.92
501,1,3.3,0.123,4.6,0.91,0.92
502,0,3.3,0.097,5.52,0.67,0.15
503,0,3.3,0.003,5.52,0.67,0.15
504,0,3.3,0.058,6.460000000000001,0.83,0.01
505,0,3.3,0.02,7.1,0.91,0.08
506,0,3.3,0.136,7.1,0.91,0.08
507,0,3.3,0.142,7.58,0.44,0.64
508,0,6.6,0.174,7.58,0.44,0.64
509,0,3.3,0.009,9.09,-0.4,0.22
510,0,3.3,0.017,9.09,-0.4,0.22
511,0,3.3,0.021,9.09,-0.4,0.22
512,0,3.3,0.0,11.09,-2.14,-0.82
513,0,3.3,2.604,11.09,-2.14,-0.82
514,0,3.3,2.604,11.09,-2.14,-0.82
515,0,3.3,2.604,11.09,-2.14,-0.82
516,0,3.3,2.604,11.059999999999999,-2.09,-1.68
517,0,3.3,2.614,11.059999999999999,-2.09,-1.68
518,0,3.3,2.614,11.139999999999999,-2.46,-0.66
519,1,3.3,2.614,11.139999999999999,-2.46,-0.66
520,1,3.3,2.614,11.1,-1.5,-0.48
521,1,3.3,2.614,11.1,-1.5,-0.48
522,1,3.3,2.614,11.01,-1.0,0.22
523,1,3.3,2.614,11.01,-1.0,0.22
524,1,3.3,2.614,10.95,-0.8,0.17
525,1,3.3,0.0,10.93,-0.77,0.1
526,1,3.3,0.0,10.93,-0.77,0.1
527,1,3.3,0.0,10.879999999999999,-0.7,0.24
528,1,3.3,0.0,10.879999999999999,-0.7,0.24
529,1,3.3,0.0,10.83,-0.69,0.37
530,1,3.3,0.0,10.83,-0.69,0.37
531,1,3.3,0.0,10.76,-0.66,0.5
532,1,3.3,0.0,10.76,-0.66,0.5
533,1,3.3,0.0,10.75,-0.66,0.54
534,1,3.3,0.0,10.75,-0.66,0.54
535,1,3.3,0.0,10.75,-0.66,0.54
536,1,3.3,0.0,10.77,-0.64,0.65
537,1,3.3,0.0,10.77,-0.64,0.65
538,1,3.3,0.0,10.76,-0.63,0.75
539,1,3.3,0.0,10.76,-0.63,0.75
540,1,3.3,0.0,10.76,-0.65,0.52
541,1,3.3,0.0,10.76,-0.65,0.52
542,1,3.3,0.0,10.76,-0.65,0.63
543,1,3.3,0.0,10.76,-0.65,0.63
544,1,3.3,0.0,10.77,-0.64,0.98
545,1,3.3,0.0,10.75,-0.64,0.88
546,1,3.3,0.0,10.75,-0.64,0.88
547,1,3.3,0.0,10.75,-0.63,1.28
548,1,3.3,0.0,10.75,-0.63,1.28
549,1,3.3,0.0,10.73,-0.63,0.98
550,1,3.3,0.0,10.73,-0.63,0.98
551,1,3.3,0.0,10.799999999999999,-0.63,0.85
552,1,3.3,0.0,10.799999999999999,-0.63,0.85
553,1,3.3,0.0,10.799999999999999,-0.62,0.82
554,1,3.3,0.0,10.799999999999999,-0.62,0.82
555,1,3.3,0.0,10.84,-0.63,1.0
556,1,3.3,0.0,10.85,-0.61,0.91
557,1,3.3,0.0,10.85,-0.61,0.91
558,1,3.3,0.0,10.86,-0.6,0.65
559,1,3.3,0.0,10.85,-0.64,0.42
560,1,3.3,0.0,10.86,-0.62,0.95
561,1,3.3,0.0,10.86,-0.62,0.95
562,1,3.3,0.0,10.87,-0.63,0.84
563,1,3.3,0.0,10.87,-0.63,0.84
564,1,3.3,0.0,10.93,-0.72,0.98
565,1,3.3,0.0,10.93,-0.72,0.98
566,1,3.3,0.0,10.91,-0.64,0.8
567,1,3.3,0.0,10.92,-0.62,1.02
568,1,3.3,0.0,10.92,-0.62,1.02
569,1,3.3,0.0,10.92,-0.61,0.91
570,1,3.3,0.0,10.92,-0.61,0.91
571,1,3.3,0.0,10.92,-0.61,0.77
572,1,3.3,0.0,10.92,-0.61,0.77
573,1,3.3,0.0,10.95,-0.61,0.64
574,1,3.3,0.0,10.95,-0.61,0.64
575,1,3.3,0.0,10.93,-0.62,1.0
576,1,3.3,0.0,10.95,-0.6,0.98
577,1,3.3,0.0,10.95,-0.6,0.98
578,1,3.3,0.0,10.98,-0.6,0.8
579,1,3.3,0.0,10.98,-0.6,0.8
580,1,3.3,0.0,10.969999999999999,-0.62,0.82
581,1,3.3,0.0,10.969999999999999,-0.62,0.82
582,1,3.3,0.0,10.93,-0.63,0.94
583,1,3.3,0.0,10.93,-0.63,0.94
584,1,3.3,0.0,10.94,-0.61,0.78
585,1,3.3,0.0,10.94,-0.61,0.78
586,1,3.3,0.0,10.93,-0.6,0.75
587,1,3.3,0.0,10.93,-0.6,0.75
588,1,3.3,0.0,10.93,-0.6,0.75
589,1,3.3,0.0,10.93,-0.61,0.75
590,1,3.3,0.0,10.93,-0.61,0.75
591,1,3.3,0.0,10.959999999999999,-0.59,0.51
592,1,3.3,0.0,10.959999999999999,-0.59,0.51
593,1,3.3,0.0,10.93,-0.63,0.88
594,1,3.3,0.0,10.93,-0.63,0.88
595,1,3.3,0.0,10.95,-0.61,0.78
596,1,3.3,0.0,10.95,-0.61,0.78
597,1,3.3,0.0,10.98,-0.61,0.89
598,1,3.3,0.0,10.98,-0.59,0.89
599,1,3.3,0.0,10.98,-0.59,0.89
600,1,3.3,0.0,10.98,-0.6,0.88
601,1,3.3,0.0,10.98,-0.6,0.88
602,1,3.3,0.0,10.99,-0.58,0.82
603,1,3.3,0.0,10.99,-0.58,0.82
604,1,3.3,0.0,11.0,-0.59,0.86
605,1,3.3,0.0,11.0,-0.59,0.86
606,1,3.3,0.0,11.0,-0.62,0.73
607,1,3.3,0.0,11.0,-0.62,0.73
608,1,3.3,0.0,11.1,-0.6,0.97
609,1,3.3,0.0,11.11,-0.62,0.97
610,1,3.3,0.0,11.11,-0.62,0.97
611,1,3.3,0.0,11.059999999999999,-0.69,0.81
612,1,3.3,0.0,11.059999999999999,-0.69,0.81
613,1,3.3,0.0,10.639999999999999,-0.77,0.56
614,1,3.3,0.0,10.639999999999999,-0.77,0.56
615,1,3.3,0.0,10.78,-0.5,0.81
616,1,3.3,0.0,10.78,-0.5,0.81
617,1,3.3,0.0,10.74,-0.61,0.77
618,1,3.3,0.0,10.74,-0.61,0.77
619,1,3.3,0.0,10.74,-0.61,0.77
620,1,3.3,0.0,10.629999999999999,-0.62,0.7
621,1,3.3,0.0,10.629999999999999,-0.62,0.7
622,1,3.3,0.0,10.42,-0.66,0.61
623,1,3.3,0.0,10.42,-0.66,0.61
624,1,3.3,0.0,10.299999999999999,-0.6,0.57
625,1,3.3,0.0,10.299999999999999,-0.6,0.57
626,1,3.3,0.0,10.28,-0.62,0.84
627,1,3.3,0.0,10.28,-0.62,0.84
628,1,3.3,0.0,10.19,-0.57,0.89
629,1,3.3,0.0,10.19,-0.57,0.89
630,1,3.3,0.0,10.19,-0.57,0.89
631,1,3.3,0.0,10.15,-0.58,0.87
632,1,3.3,0.0,10.15,-0.58,0.87
633,1,3.3,0.0,10.12,-0.58,0.65
634,1,3.3,0.0,10.12,-0.58,0.65
635,1,3.3,0.0,10.12,-0.58,0.65
636,1,3.3,0.0,10.12,-0.58,0.65
637,1,3.3,0.0,10.12,-0.58,0.65
638,1,3.3,0.0,10.12,-0.58,0.65
639,1,3.3,0.0,10.12,-0.58,0.65
640,1,3.3,0.0,10.209999999999999,-0.55,0.52
641,1,3.3,0.0,10.209999999999999,-0.55,0.52
642,1,3.3,0.0,10.23,-0.57,0.55
643,1,3.3,0.0,10.23,-0.57,0.55
644,1,3.3,0.0,10.219999999999999,-0.58,0.57
645,1,3.3,0.0,10.219999999999999,-0.58,0.57
646,1,3.3,0.0,10.23,-0.57,0.56
647,1,3.3,0.0,10.23,-0.57,0.56
648,1,3.3,0.0,10.23,-0.57,0.56
649,1,3.3,0.0,10.23,-0.57,0.56
650,1,3.3,0.0,10.23,-0.57,0.56
651,1,3.3,0.0,10.29,-0.58,0.55
652,1,3.3,0.0,10.29,-0.58,0.55
653,1,3.3,0.0,10.29,-0.59,0.67
654,1,3.3,0.0,10.29,-0.59,0.67
655,1,3.3,0.0,10.28,-0.58,0.62
656,1,3.3,0.0,10.28,-0.58,0.62
657,1,3.3,0.0,10.26,-0.57,0.7
658,1,3.3,0.0,10.26,-0.57,0.7
659,1,3.3,0.0,10.24,-0.59,0.64
660,1,3.3,0.0,10.24,-0.59,0.64
661,1,3.3,0.0,10.23,-0.53,0.58
662,1,3.3,0.0,10.219999999999999,-0.95,0.71
663,0,3.3,0.0,10.219999999999999,-0.95,0.71
664,0,3.3,0.0,10.19,-0.42,0.59
665,0,3.3,0.0,10.19,-0.42,0.59
666,1,3.3,0.0,10.11,-1.15,0.49
667,1,3.3,3.458,10.11,-1.15,0.49
668,1,3.3,3.458,10.29,-1.48,0.87
669,1,3.3,0.855,10.29,-1.48,0.87
670,1,3.3,0.748,10.82,-1.89,0.63
671,0,3.3,0.447,10.87,-1.86,0.63
672,0,3.3,0.447,10.87,-1.86,0.63
673,0,3.3,0.492,11.15,-1.58,1.13
674,0,3.3,0.94,11.15,-1.58,1.13
675,0,3.3,0.796,11.379999999999999,-0.88,0.74
676,0,3.3,0.796,11.379999999999999,-0.88,0.74
677,0,3.3,0.439,11.6,-1.52,0.54
678,0,3.3,0.14,11.6,-1.52,0.54
679,0,3.3,0.018,11.79,-1.0,0.14
680,0,3.3,0.022,11.79,-1.0,0.14
681,1,3.3,0.049,12.129999999999999,-0.53,0.27
682,1,3.3,0.21,12.09,-0.61,0.61
683,0,3.3,0.085,12.09,-0.61,0.61
684,0,3.3,0.085,12.209999999999999,0.08,0.27
685,0,3.3,0.151,12.209999999999999,0.08,0.27
686,0,3.3,0.01,11.95,0.73,0.54
687,0,3.3,0.003,11.95,0.73,0.54
688,0,3.3,0.003,12.84,1.69,0.46
689,0,3.3,0.003,12.84,1.69,0.46
690,0,3.3,0.008,12.75,1.15,0.58
691,0,3.3,0.008,12.75,1.15,0.58
692,0,3.3,0.194,12.75,1.15,0.58
693,0,3.3,0.194,12.26,1.2,0.93
694,0,3.3,1.042,12.26,1.2,0.93
695,0,3.3,1.042,12.15,0.76,0.95
696,1,3.3,1.736,12.15,0.76,0.95
697,1,3.3,1.736,12.5,0.74,0.53
698,1,3.3,0.0,12.5,0.74,0.53
699,1,3.3,0.0,12.58,0.61,0.59
700,1,3.3,0.0,12.58,0.61,0.59
701,1,3.3,0.0,12.58,0.8,0.37
702,1,3.3,0.0,12.58,0.8,0.37
703,0,3.3,0.0,12.37,1.15,0.42
704,0,3.3,0.0,12.4,1.05,0.38
705,0,3.3,0.0,12.4,1.05,0.38
706,0,3.3,0.0,12.45,0.77,0.34
707,0,3.3,0.0,12.45,0.77,0.34
708,0,3.3,0.0,12.48,0.61,0.2
709,0,3.3,0.0,12.48,0.55,0.19
710,0,3.3,0.0,12.48,0.55,0.19
711,0,3.3,0.0,12.59,0.5,0.24
712,0,3.3,0.0,12.59,0.5,0.24
713,0,3.3,0.0,12.61,0.46,0.12
714,0,3.3,0.0,12.61,0.46,0.12
715,0,3.3,0.0,12.559999999999999,0.46,0.07
716,0,3.3,0.0,12.559999999999999,0.46,0.07
717,0,3.3,0.0,12.54,0.42,0.1
718,0,3.3,0.0,12.54,0.42,0.1
719,0,3.3,0.0,12.51,0.46,0.14
720,0,3.3,0.0,12.51,0.46,0.14
721,0,3.3,0.0,12.549999999999999,0.45,0.37
722,0,3.3,0.0,12.549999999999999,0.45,0.37
723,0,3.3,0.0,11.76,0.48,0.26
724,0,3.3,0.0,11.51,0.51,0.28
725,0,3.3,0.0,11.51,0.51,0.28
726,0,3.3,0.0,9.76,0.36,0.26
727,0,3.3,0.0,9.76,0.36,0.26
728,1,3.3,0.0,6.98,-0.14,0.53
729,1,3.3,0.0,6.98,-0.14,0.53
730,1,3.3,0.0,4.7,-0.38,0.3
731,1,3.3,0.0,4.7,-0.38,0.3
732,1,3.3,0.0,2.96,-0.61,0.17
733,1,3.3,0.0,2.56,-0.76,0.16
734,1,3.3,0.0,2.56,-0.76,0.16
735,0,3.3,0.0,2.7,-0.75,0.46
736,0,3.3,0.0,2.7,-0.75,0.46
737,0,3.3,0.0,2.7199999999999998,-0.03,0.58
738,0,3.3,0.0,2.7199999999999998,-0.03,0.58
739,0,3.3,0.0,3.08,0.41,0.47
740,0,3.3,0.0,3.08,0.41,0.47
741,1,3.3,0.0,3.83,0.8,0.09
742,1,3.3,0.0,3.83,0.8,0.09
743,0,3.3,0.0,3.94,0.0,0.19
744,0,3.3,0.0,3.94,0.0,0.19
745,0,3.3,0.0,3.91,-0.75,0.23
746,0,3.3,0.0,3.92,-0.62,0.08
747,0,3.3,0.0,3.92,-0.62,0.08
748,0,3.3,2.912,4.51,-0.35,-0.06
749,0,3.3,2.096,4.51,-0.35,-0.06
750,0,3.3,0.401,5.63,-0.28,-0.4
751,0,3.3,0.025,5.63,-0.28,-0.4
752,0,3.3,0.023,6.300000000000001,0.09,-0.09
753,0,3.3,0.043,6.300000000000001,0.09,-0.09
754,0,3.3,0.007,7.119999999999999,0.38,-0.85
755,0,3.3,0.025,7.24,0.55,-0.52
756,0,3.3,0.148,7.24,0.55,-0.52
757,0,3.3,0.025,7.99,0.68,-0.73
758,0,3.3,0.112,7.99,0.68,-0.73
759,0,3.3,0.341,8.74,0.86,0.01
760,0,3.3,0.647,8.74,0.86,0.01
761,0,3.3,0.493,9.98,1.18,-0.05
762,0,3.3,0.285,9.98,1.18,-0.05
763,1,3.3,0.553,11.12,1.07,-0.24
764,1,3.3,0.018,11.12,1.07,-0.24
765,1,3.3,0.025,12.79,0.96,0.44
766,0,3.3,0.003,13.11,0.99,0.0
767,0,3.3,1.927,13.11,0.99,0.0
768,0,3.3,2.585,14.4,1.08,0.45
769,0,3.3,2.585,14.4,1.08,0.45
770,0,3.3,0.0,15.389999999999999,0.83,0.31
771,0,3.3,3.378,15.389999999999999,0.83,0.31
772,0,3.3,3.378,15.32,0.68,0.36
773,0,3.3,3.378,15.32,0.68,0.36
774,0,3.3,0.0,15.32,0.68,0.36
775,0,3.3,0.0,15.76,0.98,0.0
776,0,3.3,0.0,15.889999999999999,0.65,0.28
777,0,3.3,0.0,15.99,0.3,0.4
778,0,3.3,2.038,15.99,0.3,0.4
779,0,3.3,2.038,16.39,0.27,0.38
780,0,3.3,2.038,16.39,0.27,0.38
781,0,3.3,0.0,16.04,0.37,-0.33
782,0,3.3,0.0,16.04,0.37,-0.33
783,0,3.3,2.585,15.59,0.71,0.26
784,0,3.3,2.585,15.59,0.71,0.26
785,0,3.3,2.585,15.59,0.71,0.26
786,0,3.3,0.538,15.59,0.71,0.26
787,0,3.3,0.357,15.59,0.71,0.26
788,0,3.3,0.015,16.080000000000002,0.32,0.01
789,0,3.3,0.007,16.080000000000002,0.32,0.01
790,0,3.3,0.004,16.98,0.41,-0.16
791,0,3.3,0.014,16.98,0.41,-0.16
792,0,3.3,0.063,18.04,0.29,-0.35
793,0,3.3,0.262,18.04,0.29,-0.35
794,0,3.3,0.776,18.58,0.2,-1.18
795,0,3.3,0.0,18.58,0.2,-1.18
796,1,3.3,0.0,19.66,0.35,-0.57
797,1,3.3,0.0,19.72,0.04,-0.53
798,0,3.3,2.53,19.72,0.04,-0.53
799,0,3.3,2.53,20.69,0.26,0.07
800,0,3.3,1.892,20.69,0.26,0.07
801,0,3.3,2.815,21.94,0.44,0.24
802,0,3.3,2.815,21.94,0.44,0.24
803,0,3.3,0.0,22.849999999999998,0.42,-0.06
804,0,3.3,0.0,22.849999999999998,0.42,-0.06
805,0,3.3,0.0,22.849999999999998,0.42,-0.06
806,0,3.3,0.0,23.73,0.71,-0.53
807,1,3.3,0.0,23.73,0.71,-0.53
808,1,3.3,0.0,24.7,0.73,-0.29
809,0,3.3,0.0,24.7,0.73,-0.29
