time*0.5 [s],altitude [cm],rotation [rpm],airspeed [m/s],yaw [deg],pitch [deg],roll [deg]
1,0,33,8.187,-86.9,0.99,1.26
2,0,33,8.187,-86.9,0.99,1.26
3,1,33,8.187,-86.9,0.99,1.26
4,1,33,8.187,-86.9,0.99,1.26
5,1,33,8.187,-87.03,1.11,1.28
6,1,33,8.187,-87.03,1.11,1.28
7,1,33,8.187,-87.16,0.87,1.21
8,1,33,8.187,-87.16,0.87,1.21
9,1,33,2.684,-87.27,1.03,1.23
10,1,33,2.684,-87.27,1.03,1.23
11,1,33,2.684,-87.18,1.24,1.18
12,1,33,1.952,-87.18,1.24,1.18
13,1,33,1.932,-87.23,1.29,1.3
14,1,33,1.932,-87.18,1.26,1.23
15,1,33,1.437,-87.18,1.26,1.23
16,1,33,1.203,-86.94,1.32,1.15
17,1,33,1.203,-86.94,1.32,1.15
18,1,33,1.203,-86.68,1.24,1.48
19,1,33,1.203,-86.68,1.24,1.48
20,1,33,1.203,-86.89,1.42,1.32
21,1,33,1.203,-86.92,1.45,1.24
22,1,33,1.203,-86.92,1.45,1.24
23,1,33,1.203,-86.8,1.39,1.25
24,1,33,1.203,-86.8,1.39,1.25
25,1,33,0.0,-86.71,1.37,1.06
26,1,33,0.0,-86.71,1.37,1.06
27,1,33,0.0,-86.61,1.68,1.21
28,1,33,0.0,-86.61,1.68,1.21
29,0,33,3.417,-86.8,1.07,1.21
30,0,33,3.417,-86.8,1.07,1.21
31,0,33,2.305,-86.8,1.07,1.21
32,0,33,2.305,-86.9,1.02,1.18
33,0,33,2.305,-86.9,1.02,1.18
34,0,33,2.305,-86.9,1.02,1.18
35,1,33,2.305,-86.95,0.86,0.96
36,1,33,2.839,-86.86,0.87,1.01
37,1,33,2.839,-86.86,0.87,1.01
38,1,33,2.839,-86.84,0.96,1.07
39,1,33,2.839,-86.84,0.96,1.07
40,1,33,0.0,-86.98,0.93,1.0
41,1,33,0.0,-86.98,0.93,1.0
42,1,33,2.839,-86.9,1.09,0.91
43,1,33,2.839,-86.9,1.09,0.91
44,0,33,2.839,-86.9,1.09,0.91
45,0,33,2.839,-86.69,1.16,0.82
46,0,33,2.839,-86.69,1.16,0.82
47,0,33,2.839,-86.44,1.0,1.02
48,0,33,2.839,-86.44,1.0,1.02
49,0,33,2.839,-86.26,0.95,0.93
50,0,33,2.839,-86.26,0.95,0.93
51,0,33,2.839,-86.34,1.04,0.84
52,0,33,2.096,-86.34,1.04,0.84
53,0,33,2.096,-86.09,1.03,0.74
54,0,33,3.033,-86.09,1.03,0.74
55,0,33,3.033,-86.09,1.03,0.74
56,0,33,3.398,-86.15,1.19,0.67
57,0,33,3.398,-86.15,1.19,0.67
58,0,33,3.398,-86.37,1.22,0.62
59,0,33,3.398,-86.37,1.22,0.62
60,0,33,3.398,-86.18,1.14,0.94
61,0,33,3.398,-86.18,1.14,0.94
62,0,33,3.398,-86.15,0.87,0.97
63,0,33,3.398,-86.15,0.87,0.97
64,0,33,0.0,-86.12,1.12,0.89
65,0,33,0.0,-86.12,1.12,0.89
66,0,33,0.0,-86.12,1.12,0.89
67,0,33,0.0,-86.48,0.85,0.83
68,0,33,0.0,-86.48,0.85,0.83
69,0,33,0.0,-86.49,0.82,0.8
70,1,33,0.0,-86.49,0.82,0.8
71,1,33,2.781,-86.34,0.85,0.88
72,1,33,2.781,-86.34,0.85,0.88
73,1,33,2.781,-86.38,0.92,0.85
74,1,33,2.781,-86.38,0.92,0.85
75,1,33,1.984,-86.42,0.97,0.76
76,1,33,2.357,-86.42,0.97,0.76
77,1,33,2.357,-86.39,1.08,0.72
78,1,33,2.357,-86.38,1.11,0.69
79,1,33,2.357,-86.38,1.11,0.69
80,1,33,2.357,-86.33,1.23,0.85
81,1,33,2.357,-86.33,1.23,0.85
82,1,33,2.357,-86.31,1.4,0.83
83,1,33,3.792,-86.31,1.4,0.83
84,0,33,3.792,-86.2,1.17,0.8
85,0,33,3.359,-86.2,1.17,0.8
86,0,33,3.359,-86.25,0.78,0.72
87,0,33,3.359,-86.26,0.82,0.7
88,0,33,3.359,-86.26,0.82,0.7
89,0,33,2.284,-86.37,0.62,0.62
90,0,33,1.691,-86.37,0.62,0.62
91,0,33,1.545,-86.56,0.57,0.91
92,0,33,1.545,-86.56,0.57,0.91
93,0,33,1.545,-86.56,0.57,0.91
94,0,33,1.545,-86.88,0.6,0.99
95,0,33,1.545,-86.88,0.6,0.99
96,0,33,1.545,-87.09,0.53,0.91
97,0,33,1.947,-87.09,0.53,0.91
98,0,33,1.947,-87.01,0.52,1.06
99,1,33,1.947,-87.01,0.52,1.06
100,1,33,1.947,-87.05,0.8,0.9
101,1,33,1.947,-87.05,0.8,0.9
102,1,33,0.0,-87.18,0.8,0.85
103,1,33,0.0,-87.18,0.8,0.85
104,1,33,0.0,-87.06,0.94,1.12
105,1,33,0.0,-87.06,0.94,1.12
106,1,33,0.0,-86.92,1.01,1.03
107,1,33,0.0,-86.92,1.01,1.03
108,1,33,0.0,-86.92,1.01,1.03
109,1,33,0.0,-86.95,1.27,1.1
110,1,33,0.0,-86.95,1.27,1.1
111,1,33,2.604,-86.89,1.49,1.08
112,1,33,2.604,-86.89,1.49,1.08
113,1,33,2.604,-87.09,1.44,0.91
114,1,33,1.952,-87.09,1.44,0.91
115,1,33,1.952,-87.13,1.33,0.87
116,1,33,1.952,-87.13,1.33,0.87
117,1,33,1.952,-87.13,1.33,0.87
118,1,33,1.952,-87.13,1.33,0.87
119,1,33,1.952,-87.13,1.33,0.87
120,1,33,2.863,-86.9,1.21,1.01
121,1,33,2.151,-86.9,1.21,1.01
122,1,33,2.151,-86.67,1.26,1.08
123,1,33,3.019,-86.67,1.26,1.08
124,1,33,3.019,-86.64,1.4,1.14
125,1,33,3.019,-86.64,1.4,1.14
126,1,33,3.019,-86.68,1.39,1.32
127,1,33,3.019,-86.68,1.39,1.32
128,1,33,3.019,-86.6,1.36,1.26
129,1,33,3.019,-86.56,1.35,1.19
130,1,33,0.0,-86.56,1.35,1.19
131,1,33,0.0,-86.51,1.46,1.32
132,1,33,0.0,-86.51,1.46,1.32
133,1,33,0.0,-86.78,1.41,1.23
134,1,33,0.0,-86.78,1.41,1.23
135,1,33,0.0,-86.7,1.47,1.3
136,1,33,0.0,-86.65,1.36,1.27
137,1,33,0.0,-86.65,1.36,1.27
138,1,33,0.0,-86.64,1.32,1.27
139,1,33,2.978,-86.64,1.32,1.27
140,1,33,2.978,-86.68,1.28,1.32
141,1,33,2.978,-86.68,1.28,1.32
142,1,33,2.978,-86.69,1.22,1.23
143,1,33,2.978,-86.69,1.22,1.23
144,1,33,2.978,-86.73,1.22,1.27
145,1,33,2.978,-86.73,1.22,1.27
146,1,33,2.978,-86.79,1.19,1.26
147,1,33,2.978,-86.79,1.19,1.26
148,1,33,0.0,-86.61,1.3,1.3
149,0,33,2.815,-86.61,1.3,1.3
150,0,33,2.815,-86.65,1.13,1.11
151,0,33,2.078,-86.7,0.96,1.12
152,0,33,2.078,-86.7,0.96,1.12
153,1,33,2.078,-86.62,0.97,1.14
154,1,33,2.078,-86.62,0.97,1.14
155,1,33,2.078,-86.62,0.97,1.14
156,1,33,2.078,-86.42,1.12,1.06
157,1,33,2.078,-86.42,1.12,1.06
158,1,33,2.078,-86.42,1.12,1.06
159,1,33,2.078,-86.55,1.13,0.95
160,1,33,2.078,-86.57,1.14,1.15
161,0,33,2.078,-86.57,1.14,1.15
162,0,33,0.0,-86.58,1.34,0.92
163,0,33,0.0,-86.58,1.34,0.92
164,0,33,0.0,-86.52,1.01,0.81
165,0,33,0.0,-86.52,1.01,0.81
166,0,33,0.0,-86.54,0.54,0.99
167,0,33,0.0,-86.54,0.54,0.99
168,0,33,0.0,-86.51,0.46,1.2
169,0,33,0.0,-86.51,0.46,1.2
170,1,33,0.0,-86.47,0.38,1.03
171,1,33,0.0,-86.45,0.37,1.12
172,1,33,0.0,-86.45,0.37,1.12
173,0,33,0.0,-86.37,0.37,0.81
174,0,33,0.0,-86.37,0.37,0.81
175,0,33,0.0,-86.3,0.33,0.55
176,0,33,0.0,-86.3,0.33,0.55
177,0,33,0.0,-86.31,0.38,0.83
178,0,33,0.0,-86.31,0.42,0.67
179,0,33,0.0,-86.31,0.42,0.67
180,0,33,0.0,-86.28,0.57,0.6
181,0,33,0.0,-86.28,0.57,0.6
182,0,33,0.0,-86.28,0.61,0.64
183,0,33,0.0,-86.28,0.61,0.64
184,0,33,0.0,-86.26,0.63,0.51
185,0,33,0.0,-86.26,0.63,0.51
186,0,33,0.0,-86.24,0.67,0.65
187,0,33,0.0,-86.24,0.67,0.65
188,0,33,0.0,-86.26,0.65,0.54
189,0,33,0.0,-86.26,0.65,0.54
190,0,33,0.0,-86.27,0.65,0.61
191,0,33,0.0,-86.27,0.65,0.61
192,0,33,0.0,-86.26,0.66,0.55
193,0,33,0.0,-86.27,0.65,0.57
194,0,33,2.781,-86.27,0.65,0.57
195,0,33,2.781,-86.25,0.68,0.45
196,0,33,2.781,-86.25,0.68,0.45
197,0,33,2.781,-86.24,0.68,0.58
198,0,33,2.781,-86.24,0.68,0.58
199,0,33,2.781,-86.21,0.67,0.63
200,0,33,2.781,-86.21,0.67,0.63
201,0,33,2.781,-86.2,0.68,0.57
202,0,33,2.781,-86.21,0.68,0.57
203,0,33,2.781,-86.21,0.68,0.57
204,0,33,0.0,-86.24,0.68,0.67
205,0,33,0.0,-86.24,0.68,0.67
206,0,33,0.0,-86.22,0.68,0.63
207,0,33,0.0,-86.22,0.68,0.63
208,0,33,0.0,-86.21,0.65,0.55
209,0,33,0.0,-86.21,0.65,0.55
210,0,33,0.0,-86.2,0.68,0.66
211,0,33,0.0,-86.2,0.68,0.66
212,0,33,0.0,-86.18,0.64,0.69
213,0,33,0.0,-86.2,0.68,0.74
214,0,33,0.0,-86.2,0.68,0.74
215,0,33,0.0,-86.21,0.67,0.67
216,0,33,0.0,-86.21,0.67,0.67
217,0,33,0.0,-86.2,0.66,0.67
218,0,33,0.0,-86.2,0.66,0.67
219,0,33,0.0,-86.21,0.66,0.52
220,0,33,0.0,-86.21,0.66,0.52
221,0,33,0.0,-86.26,0.67,0.72
222,0,33,0.0,-86.26,0.69,0.9
223,0,33,0.0,-86.26,0.69,0.9
224,0,33,0.0,-86.27,0.66,0.85
225,0,33,0.0,-86.27,0.66,0.85
226,0,33,0.0,-86.28,0.68,0.66
227,0,33,0.0,-86.28,0.68,0.66
228,0,33,0.0,-86.33,0.67,0.94
229,0,33,0.0,-86.33,0.67,0.94
230,0,33,0.0,-86.32,0.66,0.66
231,0,33,0.0,-86.32,0.66,0.66
232,0,33,0.0,-86.33,0.66,0.69
233,0,33,0.0,-86.33,0.66,0.69
234,0,33,0.0,-86.33,0.66,0.69
235,0,33,0.0,-86.35,0.67,0.7
236,0,33,0.0,-86.35,0.67,0.7
237,0,33,0.0,-86.38,0.67,0.91
238,0,33,0.0,-86.38,0.67,0.91
239,0,33,0.0,-86.39,0.68,0.59
240,0,33,0.0,-86.39,0.68,0.59
241,0,33,0.0,-86.38,0.67,0.34
242,0,33,0.0,-86.38,0.67,0.34
243,0,33,0.0,-86.38,0.68,0.56
244,0,33,0.0,-86.38,0.69,0.75
245,0,33,0.0,-86.38,0.69,0.75
246,0,33,0.0,-86.4,0.68,0.46
247,0,33,0.0,-86.4,0.68,0.46
248,0,33,0.0,-86.39,0.66,0.58
249,0,33,0.0,-86.39,0.66,0.58
250,0,33,0.0,-86.39,0.68,0.4
251,0,33,0.0,-86.39,0.68,0.4
252,0,33,0.0,-86.39,0.67,0.4
253,0,33,0.0,-86.39,0.68,0.42
254,0,33,0.0,-86.39,0.68,0.42
255,0,33,0.0,-86.39,0.68,0.41
256,0,33,0.0,-86.39,0.68,0.41
257,0,33,0.0,-86.41,0.68,0.32
258,0,33,0.0,-86.41,0.68,0.32
259,0,33,0.0,-86.42,0.69,0.49
260,0,33,0.0,-86.42,0.69,0.49
261,0,33,0.0,-86.44,0.68,0.33
262,0,33,0.0,-86.44,0.68,0.33
263,0,33,0.0,-86.44,0.68,0.33
264,0,33,0.0,-86.44,0.68,0.33
265,0,33,0.0,-86.47,0.69,0.34
266,0,33,0.0,-86.49,0.69,0.41
267,0,33,0.0,-86.49,0.69,0.41
268,0,33,0.0,-86.5,0.68,0.33
269,0,33,0.0,-86.5,0.68,0.33
270,0,33,0.0,-86.53,0.68,0.37
271,0,33,0.0,-86.53,0.68,0.37
272,0,33,0.0,-86.51,0.67,0.49
273,0,33,0.0,-86.51,0.67,0.49
274,0,33,0.0,-86.51,0.68,0.47
275,0,33,0.0,-86.51,0.67,0.46
276,0,33,0.0,-86.51,0.67,0.46
277,0,33,0.0,-86.51,0.66,0.45
278,0,33,0.0,-86.51,0.66,0.45
279,0,33,0.0,-86.5,0.67,0.48
280,0,33,0.0,-86.5,0.67,0.48
281,0,33,0.0,-86.53,0.67,0.46
282,0,33,0.0,-86.53,0.67,0.46
283,0,33,0.0,-86.52,0.68,0.45
284,0,33,0.0,-86.52,0.68,0.45
285,0,33,0.0,-86.52,0.68,0.45
286,0,33,0.0,-86.52,0.68,0.48
287,0,33,0.0,-86.52,0.68,0.48
288,0,33,0.0,-86.53,0.69,0.48
289,0,33,0.0,-86.53,0.69,0.48
290,0,33,0.0,-86.53,0.68,0.54
291,0,33,0.0,-86.53,0.68,0.54
292,0,33,0.0,-86.52,0.68,0.66
293,0,33,0.0,-86.52,0.68,0.66
294,0,33,0.0,-86.53,0.68,0.69
295,0,33,0.0,-86.52,0.66,0.68
296,0,33,0.0,-86.52,0.66,0.68
297,0,33,0.0,-86.53,0.67,0.6
298,0,33,0.0,-86.53,0.67,0.6
299,0,33,0.0,-86.55,0.67,0.69
300,0,33,0.0,-86.55,0.67,0.69
301,0,33,0.0,-86.58,0.66,0.42
302,0,33,0.0,-86.58,0.66,0.42
303,0,33,0.0,-86.56,0.69,0.81
304,0,33,0.0,-86.56,0.69,0.81
305,0,33,0.0,-86.57,0.7,0.88
306,0,33,0.0,-86.57,0.7,0.88
307,0,33,0.0,-86.52,0.69,0.84
308,0,33,0.0,-86.52,0.66,0.85
309,0,33,0.0,-86.52,0.66,0.85
310,0,33,0.0,-86.51,0.66,0.64
311,0,33,0.0,-86.51,0.66,0.64
312,0,33,0.0,-86.53,0.68,0.74
313,0,33,0.0,-86.53,0.68,0.74
314,0,33,0.0,-86.53,0.68,0.74
315,0,33,0.0,-86.52,0.68,0.76
316,0,33,0.0,-86.52,0.68,0.76
317,0,33,0.0,-86.51,0.67,0.62
318,0,33,0.0,-86.51,0.67,0.62
319,0,33,0.0,-86.51,0.67,0.65
320,0,33,0.0,-86.51,0.67,0.65
321,0,33,0.0,-86.51,0.69,0.76
322,0,33,0.0,-86.51,0.69,0.76
323,0,33,0.0,-86.49,0.68,0.74
324,0,33,0.0,-86.49,0.68,0.74
325,0,33,0.0,-86.48,0.66,0.74
326,0,33,0.0,-86.48,0.66,0.74
327,0,33,0.0,-86.49,0.67,0.62
328,0,33,0.0,-86.5,0.67,0.62
329,0,33,0.0,-86.5,0.67,0.62
330,0,33,0.0,-86.52,0.68,0.69
331,0,33,0.0,-86.52,0.68,0.69
332,0,33,0.0,-86.51,0.68,0.79
333,0,33,0.0,-86.51,0.68,0.79
334,0,33,0.0,-86.5,0.67,0.72
335,0,33,0.0,-86.5,0.67,0.72
336,0,33,0.0,-86.51,0.66,0.63
337,0,33,0.0,-86.51,0.66,0.63
338,0,33,0.0,-86.51,0.66,0.63
339,0,33,0.0,-86.53,0.68,0.73
340,0,33,0.0,-86.53,0.68,0.73
341,0,33,0.0,-86.54,0.7,0.79
342,0,33,0.0,-86.54,0.7,0.79
343,0,33,0.0,-86.52,0.68,0.82
344,0,33,0.0,-86.52,0.68,0.82
345,0,33,0.0,-86.54,0.67,0.66
346,0,33,0.0,-86.54,0.67,0.66
347,0,33,0.0,-86.56,0.67,0.64
348,0,33,0.0,-86.56,0.67,0.64
349,0,33,0.0,-86.56,0.67,0.64
350,0,33,0.0,-86.59,0.65,0.7
351,0,33,0.0,-86.59,0.65,0.7
352,0,33,0.0,-86.58,0.68,0.72
353,0,33,0.0,-86.58,0.68,0.72
354,0,33,0.0,-86.56,0.67,0.7
355,0,33,0.0,-86.56,0.67,0.7
356,0,33,0.0,-86.56,0.67,0.75
357,0,33,0.0,-86.56,0.67,0.75
358,0,33,0.0,-86.56,0.68,0.79
359,0,33,0.0,-86.56,0.67,0.81
360,0,33,0.0,-86.56,0.67,0.81
361,0,33,0.0,-86.56,0.67,0.75
362,0,33,0.0,-86.56,0.67,0.75
363,0,33,0.0,-86.57,0.69,0.88
364,0,33,0.0,-86.57,0.69,0.88
365,0,33,0.0,-86.59,0.68,0.7
366,0,33,0.0,-86.59,0.68,0.7
367,0,33,0.0,-86.57,0.68,0.79
368,0,33,0.0,-86.57,0.68,0.79
369,0,33,0.0,-86.59,0.68,0.85
370,0,33,0.0,-86.6,0.68,0.87
371,0,33,0.0,-86.6,0.68,0.87
372,0,33,0.0,-86.62,0.68,0.81
373,0,33,0.0,-86.62,0.68,0.81
374,0,33,0.0,-86.64,0.67,0.74
375,0,33,0.0,-86.64,0.67,0.74
376,0,33,0.0,-86.67,0.67,0.82
377,0,33,0.0,-86.67,0.67,0.82
378,0,33,0.0,-86.67,0.67,0.82
379,0,33,0.0,-86.67,0.67,0.82
380,0,33,0.0,-86.67,0.67,0.82
381,0,33,0.0,-86.68,0.69,0.68
382,0,33,0.0,-86.68,0.69,0.68
383,0,33,0.0,-86.67,0.67,0.58
384,0,33,0.0,-86.67,0.67,0.58
385,0,33,0.0,-86.67,0.68,0.75
386,0,33,0.0,-86.67,0.68,0.75
387,0,33,0.0,-86.67,0.67,0.69
388,0,33,0.0,-86.67,0.67,0.69
389,0,33,0.0,-86.62,0.69,0.79
390,0,33,0.0,-86.62,0.69,0.79
391,0,33,0.0,-86.62,0.69,0.79
392,0,33,0.0,-86.6,0.68,0.65
393,0,33,0.0,-86.6,0.68,0.65
394,0,33,0.0,-86.69,0.68,1.16
395,0,33,0.0,-86.69,0.68,1.16
396,0,33,0.0,-86.66,0.69,1.06
397,0,33,0.0,-86.66,0.69,1.06
398,0,33,0.0,-86.66,0.69,1.06
399,0,33,0.0,-86.63,0.67,0.86
400,0,33,0.0,-86.63,0.67,0.86
401,0,33,0.0,-86.66,0.66,0.68
402,0,33,0.0,-86.66,0.66,0.68
403,0,33,0.0,-86.75,0.67,0.54
404,0,33,0.0,-86.75,0.67,0.54
405,0,33,0.0,-86.67,0.67,0.36
406,0,33,0.0,-86.67,0.67,0.36
407,0,33,0.0,-86.77,0.68,0.36
408,0,33,0.0,-86.77,0.68,0.36
409,0,33,0.0,-0.01,0.0,-0.05
410,0,33,0.0,-0.01,0.0,0.04
411,0,33,0.0,-0.01,0.0,0.04
412,0,33,0.0,0.0,-0.01,-0.03
413,0,33,0.0,0.0,-0.01,-0.03
414,0,33,0.0,0.04,0.01,0.13
415,0,33,0.0,0.04,0.01,0.13
416,0,33,0.0,0.0,0.03,0.05
417,0,33,0.0,0.0,0.03,0.05
418,0,33,0.0,-0.02,0.05,0.24
419,0,33,0.0,-0.02,0.05,0.24
420,0,33,0.0,-0.01,0.04,0.29
421,0,33,0.0,-0.01,0.04,0.29
422,0,33,0.0,-0.01,0.04,0.29
423,0,33,0.0,-0.01,0.04,0.09
424,0,33,0.0,-0.01,0.04,0.09
425,0,33,0.0,0.0,0.04,0.11
426,0,33,0.0,0.0,0.04,0.11
427,0,33,0.0,-0.01,0.03,0.17
428,0,33,0.0,-0.01,0.03,0.17
429,0,33,0.0,-0.01,0.04,0.08
430,0,33,0.0,-0.01,0.04,0.08
431,0,33,0.0,-0.01,0.04,0.08
432,0,33,0.0,0.0,0.03,0.15
433,0,33,0.0,0.0,0.03,0.15
434,0,33,0.0,0.0,0.04,0.07
435,0,33,0.0,0.0,0.04,0.07
436,0,33,0.0,0.0,0.04,0.16
437,0,33,0.0,0.0,0.04,0.16
438,0,33,0.0,0.02,0.04,0.19
439,0,33,0.0,0.02,0.04,0.19
440,0,33,0.0,0.02,0.04,0.25
441,0,33,0.0,0.01,0.05,0.24
442,0,33,0.0,0.01,0.05,0.24
443,0,33,0.0,0.0,0.02,0.32
444,0,33,0.0,0.0,0.02,0.32
445,0,33,0.0,0.0,0.03,0.26
446,0,33,0.0,0.0,0.03,0.26
447,0,33,0.0,-0.01,0.04,0.32
448,0,33,0.0,-0.01,0.04,0.32
449,0,33,0.0,-0.02,0.03,0.25
450,0,33,0.0,-0.01,0.0,0.12
451,0,33,0.0,-0.01,0.0,0.12
452,0,33,0.0,-0.01,0.02,0.05
453,0,33,0.0,-0.01,0.02,0.05
454,0,33,0.0,-0.01,0.02,0.1
455,0,33,0.0,-0.01,0.02,0.1
456,0,33,0.0,-0.01,0.04,0.1
457,0,33,0.0,-0.01,0.04,0.1
458,0,33,0.0,-0.02,0.03,0.1
459,0,33,0.0,-0.02,0.03,0.1
460,0,33,0.0,-0.01,0.03,0.05
461,0,33,0.0,-0.01,0.03,0.05
462,0,33,0.0,-0.01,0.02,0.05
463,0,33,0.0,-0.01,0.02,0.05
464,0,33,0.0,0.0,0.01,0.04
465,0,33,0.0,0.0,0.01,0.0
466,0,33,0.0,0.0,0.01,0.0
467,0,33,0.0,-0.02,0.03,-0.07
468,0,33,0.0,-0.02,0.03,-0.07
469,0,33,0.0,-0.05,0.04,0.15
470,0,33,0.0,-0.05,0.04,0.15
471,0,33,0.0,-0.04,0.05,-0.13
472,0,33,0.0,-0.04,0.05,-0.13
473,0,33,0.0,-0.02,0.06,0.04
474,0,33,0.0,-0.02,0.05,0.01
475,0,33,0.0,-0.02,0.05,0.01
476,0,33,0.0,-0.02,0.05,0.08
477,0,33,0.0,-0.02,0.05,0.08
478,0,33,0.0,-0.03,0.05,0.02
479,0,33,0.0,-0.03,0.05,0.02
480,0,33,0.0,-0.03,0.05,0.09
481,0,33,0.0,-0.03,0.05,0.09
482,0,33,0.0,-0.06,0.03,0.35
483,0,33,0.0,-0.06,0.03,0.35
484,0,33,0.0,-0.06,0.04,0.19
485,0,33,0.0,-0.07,0.04,0.28
486,0,33,0.0,-0.07,0.04,0.28
487,0,33,0.0,-0.08,0.03,0.25
488,0,33,0.0,-0.08,0.03,0.25
489,0,33,0.0,-0.1,0.04,0.06
490,0,33,0.0,-0.1,0.04,0.06
491,0,33,0.0,-0.13,0.04,0.13
492,0,33,0.0,-0.13,0.04,0.13
493,0,33,0.0,-0.14,0.03,0.32
494,0,33,0.0,-0.14,0.04,0.33
495,0,33,0.0,-0.14,0.04,0.33
496,0,33,0.0,-0.14,0.04,0.38
497,0,33,0.0,-0.14,0.04,0.38
498,0,33,0.0,-0.15,0.05,0.34
499,0,33,0.0,-0.15,0.05,0.34
500,0,33,0.0,-0.13,0.05,0.28
501,0,33,0.0,-0.13,0.05,0.28
502,0,33,0.0,-0.1,0.04,0.36
503,0,33,0.0,-0.1,0.04,0.36
504,0,33,0.0,-0.14,0.05,0.26
505,0,33,0.0,-0.14,0.05,0.26
506,0,33,0.0,-0.14,0.05,0.26
507,0,33,0.0,-0.12,0.04,0.26
508,0,33,0.0,-0.12,0.04,0.26
509,0,33,0.0,-0.15,0.05,0.15
510,0,33,0.0,-0.15,0.05,0.15
511,0,33,0.0,-0.16,0.04,0.14
512,0,33,0.0,-0.16,0.04,0.14
513,0,33,0.0,-0.16,0.04,0.14
514,0,33,0.0,-0.17,0.03,0.21
515,0,33,0.0,-0.17,0.03,0.21
516,0,33,0.0,-0.16,0.03,0.16
517,0,33,0.0,-0.16,0.03,0.16
518,0,33,0.0,-0.18,0.02,0.2
519,0,33,0.0,-0.18,0.02,0.2
520,0,33,0.0,-0.19,0.04,0.15
521,0,33,0.0,-0.19,0.04,0.15
522,0,33,0.0,-0.18,0.04,0.11
523,0,33,0.0,-0.18,0.04,0.11
524,0,33,0.0,-0.22,0.05,0.12
525,0,33,0.0,-0.22,0.05,0.12
526,0,33,0.0,-0.2,0.04,0.01
527,0,33,0.0,-0.2,0.03,0.02
528,0,33,0.0,-0.2,0.03,0.02
529,0,33,0.0,-0.22,0.02,0.15
530,0,33,0.0,-0.22,0.02,0.15
531,0,33,0.0,-0.21,0.02,0.1
532,0,33,0.0,-0.21,0.02,0.1
533,0,33,0.0,-0.19,0.03,0.09
534,0,33,0.0,-0.19,0.03,0.09
535,0,33,0.0,-0.14,0.02,-0.02
536,0,33,0.0,-0.14,0.02,-0.02
537,0,33,0.0,-0.14,0.02,-0.02
538,0,33,0.0,-0.16,0.03,0.29
539,0,33,0.0,-0.16,0.03,0.29
540,0,33,0.0,-0.18,0.04,0.41
541,0,33,0.0,-0.18,0.04,0.41
542,0,33,0.0,-0.16,0.04,0.36
543,0,33,0.0,-0.16,0.04,0.36
544,0,33,0.0,-0.16,0.04,0.33
545,0,33,0.0,-0.16,0.04,0.33
546,0,33,0.0,-0.16,0.04,0.33
547,0,33,0.0,-0.15,0.03,0.35
548,0,33,0.0,-0.15,0.03,0.35
549,0,33,1.559,-0.16,0.05,0.66
550,0,33,1.559,-0.16,0.05,0.66
551,0,33,1.968,-0.18,0.05,0.42
552,0,33,1.968,-0.18,0.05,0.42
553,0,33,1.968,-0.18,0.05,0.53
554,0,33,2.804,-0.18,0.05,0.53
555,0,33,2.804,-0.2,0.03,0.53
556,0,33,0.0,-0.2,0.03,0.53
557,0,33,0.0,-0.22,0.04,0.55
558,0,33,0.0,-0.22,0.03,0.51
559,0,33,0.0,-0.22,0.03,0.51
560,0,33,0.0,-0.2,0.05,0.44
561,0,33,0.0,-0.2,0.05,0.44
562,0,33,0.0,-0.23,0.05,0.82
563,0,33,3.359,-0.23,0.05,0.82
564,0,33,3.359,-0.19,0.04,0.69
565,0,33,3.359,-0.19,0.04,0.69
566,0,33,3.359,-0.2,0.05,0.67
567,0,33,3.359,-0.2,0.05,0.67
568,0,33,3.359,-0.2,0.05,0.67
569,0,33,3.359,-0.2,0.04,0.72
570,0,33,0.0,-0.2,0.04,0.72
571,0,33,0.0,-0.19,0.05,0.79
572,0,33,0.0,-0.19,0.05,0.79
573,0,33,0.0,-0.19,0.05,0.83
574,0,33,0.0,-0.19,0.05,0.83
575,0,33,0.0,-0.17,0.05,0.86
576,0,33,0.0,-0.17,0.05,0.86
577,0,33,0.0,-0.18,0.05,0.86
578,0,33,0.0,-0.18,0.05,0.86
579,0,33,0.0,-0.19,0.05,0.86
580,0,33,0.0,-0.18,0.05,0.82
581,0,33,0.0,-0.18,0.05,0.82
582,0,33,0.0,-0.17,0.05,0.83
583,0,33,0.0,-0.16,0.05,0.81
584,0,33,0.0,-0.16,0.05,0.81
585,0,33,0.0,-0.16,0.04,0.81
586,0,33,0.0,-0.16,0.04,0.81
587,0,33,0.0,-0.16,0.04,0.82
588,0,33,0.0,-0.16,0.04,0.82
589,0,33,0.0,-0.15,0.04,0.82
590,-3,33,0.0,-0.15,0.04,0.82
591,-3,33,0.0,-0.15,0.04,0.81
592,-3,33,0.0,-0.15,0.04,0.81
593,0,33,0.0,-0.16,0.04,0.78
594,0,33,0.0,-0.16,0.04,0.78
595,0,33,0.0,-0.17,0.04,0.72
596,0,33,0.0,-0.17,0.04,0.72
597,0,33,0.0,-0.17,0.04,0.72
598,-1,33,0.0,-0.19,0.03,0.75
599,-1,33,0.0,-0.19,0.03,0.75
600,-1,33,0.0,-0.18,0.04,0.74
601,-1,33,0.0,-0.18,0.04,0.74
602,-1,33,0.0,-0.2,0.04,0.7
603,0,33,0.0,-0.2,0.04,0.7
604,0,33,2.938,-0.2,0.04,0.69
605,-1,33,2.938,-0.2,0.04,0.69
606,-1,33,2.938,-0.2,0.03,0.76
607,-1,33,2.938,-0.2,0.03,0.76
608,-1,33,2.938,-0.17,0.04,0.73
609,-1,33,2.938,-0.16,0.04,0.71
610,-1,33,2.938,-0.16,0.04,0.71
611,-1,33,2.938,-0.17,0.04,0.79
612,-1,33,2.938,-0.17,0.04,0.79
613,-1,33,0.0,-0.16,0.05,0.82
614,-1,33,0.0,-0.16,0.05,0.82
615,-1,33,0.0,-0.17,0.05,0.8
616,-1,33,0.0,-0.17,0.05,0.8
617,0,33,0.0,-0.18,0.05,0.91
618,0,33,0.0,-0.18,0.05,0.91
619,-1,33,0.0,-0.16,0.04,0.78
620,-1,33,0.0,-0.16,0.04,0.78
621,0,33,0.0,-0.15,0.04,0.82
622,0,33,0.0,-0.16,0.05,0.87
623,-1,33,0.0,-0.16,0.05,0.87
624,-1,33,0.0,-0.14,0.06,0.79
625,-1,33,0.0,-0.14,0.06,0.79
626,-1,33,0.0,-0.16,0.05,0.86
627,-1,33,0.0,-0.16,0.05,0.86
628,-1,33,0.0,-0.16,0.04,0.82
629,-1,33,0.0,-0.16,0.04,0.82
630,-1,33,0.0,-0.18,0.05,0.81
631,0,33,0.0,-0.17,0.05,0.81
632,0,33,0.0,-0.17,0.05,0.81
633,0,33,0.0,-0.18,0.05,0.84
634,-1,33,0.0,-0.18,0.05,0.84
635,-1,33,0.0,-0.16,0.06,0.9
636,-1,33,0.0,-0.16,0.06,0.9
637,-1,33,0.0,-0.14,0.04,0.74
638,-1,33,0.0,-0.14,0.04,0.74
639,-1,33,0.0,-0.14,0.06,0.86
640,-1,33,0.0,-0.14,0.06,0.86
641,0,33,3.251,-0.12,0.06,0.93
642,0,33,0.041,-0.14,0.06,0.85
643,-1,33,0.051,-0.14,0.06,0.85
644,-1,33,0.051,-0.12,0.05,0.75
645,-1,33,0.051,-0.12,0.05,0.75
646,-1,33,0.051,-0.1,0.06,0.97
647,-1,33,0.051,-0.1,0.06,0.97
648,-1,33,0.044,-0.14,0.06,0.89
649,0,33,0.044,-0.14,0.06,0.89
650,0,33,0.044,-0.12,0.04,0.64
651,0,33,1.59,-0.12,0.04,0.64
652,0,33,1.59,-0.12,0.04,0.64
653,0,33,1.59,-0.11,0.04,0.59
654,0,33,1.253,-0.11,0.04,0.59
655,0,33,0.882,-0.11,0.02,0.57
656,0,33,1.483,-0.11,0.02,0.57
657,0,33,1.483,-0.12,0.02,0.52
658,-1,33,1.483,-0.12,0.02,0.52
659,-1,33,1.483,-0.1,0.02,0.52
660,-1,33,1.483,-0.1,0.02,0.52
661,0,33,1.942,-0.12,0.04,0.51
662,0,33,1.942,-0.12,0.04,0.51
663,0,33,0.0,-0.12,0.04,0.51
664,0,33,0.0,-0.13,0.03,0.44
665,0,33,0.0,-0.13,0.03,0.44
666,0,33,0.0,-0.13,0.04,0.36
667,0,33,0.0,-0.13,0.04,0.36
668,0,33,0.0,-0.11,0.04,0.15
669,0,33,0.0,-0.11,0.04,0.15
670,0,33,0.0,-0.09,0.04,0.2
671,0,33,0.0,-0.09,0.04,0.2
672,0,33,0.0,-0.08,0.04,0.37
673,0,33,0.0,-0.08,0.05,0.35
674,0,33,0.0,-0.08,0.05,0.35
675,0,33,0.0,-0.09,0.05,0.46
676,0,33,0.0,-0.09,0.05,0.46
677,0,33,0.0,-0.1,0.04,0.49
678,0,33,2.758,-0.1,0.04,0.49
679,0,33,0.518,-0.1,0.04,0.49
680,0,33,0.518,-0.1,0.03,0.37
681,0,33,0.518,-0.1,0.03,0.37
682,0,33,0.518,-0.08,0.04,0.43
683,0,33,0.518,-0.08,0.04,0.43
684,0,33,0.5,-0.1,0.04,0.55
685,0,33,2.557,-0.1,0.04,0.55
686,0,33,2.557,-0.08,0.01,0.39
687,0,33,2.557,-0.08,0.01,0.39
688,0,33,2.557,-0.08,0.03,0.26
689,0,33,2.557,-0.08,0.03,0.26
690,0,33,2.557,-0.05,0.03,0.3
691,0,33,2.557,-0.04,0.03,0.29
692,0,33,0.0,-0.04,0.03,0.29
693,0,33,0.0,-0.04,0.03,0.29
694,0,33,0.0,-0.03,0.05,0.44
695,0,33,0.0,-0.04,0.04,0.43
696,0,33,0.0,-0.04,0.04,0.43
697,0,33,0.0,-0.03,0.04,0.4
698,0,33,0.0,-0.03,0.04,0.4
699,0,33,0.0,-0.06,0.04,0.38
700,0,33,3.076,-0.06,0.04,0.38
701,0,33,3.076,-0.07,0.03,0.27
702,0,33,3.076,-0.07,0.03,0.27
703,0,33,0.0,-0.08,0.03,0.34
704,0,33,0.0,-0.08,0.04,0.33
705,0,33,0.0,-0.08,0.04,0.33
706,0,33,0.0,-0.08,0.04,0.3
707,0,33,0.0,-0.08,0.04,0.3
708,0,33,0.0,-0.08,0.04,0.23
709,0,33,0.0,-0.08,0.04,0.23
710,0,33,0.0,-0.08,0.04,0.16
711,0,33,0.0,-0.08,0.04,0.16
712,0,33,0.0,-0.1,0.05,0.14
713,0,33,0.0,-0.1,0.05,0.14
714,0,33,0.0,-0.12,0.03,0.13
715,0,33,0.0,-0.11,0.03,0.13
716,0,33,0.0,-0.11,0.03,0.13
717,0,33,3.091,-0.12,0.03,0.02
718,0,33,3.091,-0.12,0.03,0.02
719,0,33,3.091,-0.1,0.03,0.09
720,0,33,3.091,-0.1,0.03,0.09
721,0,33,2.222,-0.12,0.02,0.02
722,0,33,0.217,-0.12,0.02,0.02
723,0,33,0.217,-0.1,0.05,0.11
724,0,33,0.25,-0.1,0.03,0.11
725,0,33,0.236,-0.1,0.03,0.11
726,0,33,0.236,-0.11,0.04,0.22
727,0,33,2.576,-0.11,0.04,0.22
728,0,33,2.576,-0.1,0.03,0.25
729,0,33,2.576,-0.1,0.03,0.25
730,0,33,0.0,-0.09,0.04,0.15
731,0,33,2.624,-0.09,0.04,0.15
732,0,33,2.624,-0.11,0.05,0.24
733,0,33,1.958,-0.11,0.05,0.24
734,0,33,1.724,-0.1,0.04,0.19
735,0,33,1.724,-0.1,0.04,0.19
736,0,33,2.365,-0.09,0.03,0.2
737,0,33,1.753,-0.1,0.03,0.25
738,0,33,1.753,-0.1,0.03,0.25
739,0,33,1.912,-0.1,0.04,0.29
740,0,33,1.912,-0.1,0.04,0.29
741,0,33,2.202,-0.09,0.03,0.28
742,0,33,2.202,-0.09,0.03,0.28
743,0,33,2.202,-0.08,0.04,0.36
744,0,33,2.202,-0.08,0.04,0.36
745,0,33,2.202,-0.09,0.03,0.39
746,0,33,2.202,-0.09,0.04,0.33
747,0,33,2.737,-0.09,0.04,0.33
748,0,33,2.737,-0.1,0.03,0.35
749,0,33,2.737,-0.1,0.03,0.35
750,0,33,2.737,-0.12,0.04,0.31
751,0,33,2.737,-0.12,0.04,0.31
752,0,33,2.737,-0.12,0.04,0.29
753,0,33,2.737,-0.12,0.04,0.29
754,0,33,2.737,-0.13,0.05,0.32
755,0,33,2.705,-0.13,0.05,0.32
756,0,33,1.836,-0.14,0.04,0.34
757,0,33,1.836,-0.14,0.04,0.37
758,0,33,1.836,-0.14,0.04,0.37
759,0,33,1.836,-0.15,0.03,0.41
760,0,33,1.836,-0.15,0.03,0.41
761,0,33,1.836,-0.15,0.04,0.19
762,0,33,2.512,-0.15,0.04,0.19
763,0,33,2.512,-0.14,0.04,0.14
764,0,33,0.0,-0.14,0.04,0.14
765,0,33,0.0,-0.13,0.02,0.05
766,0,33,0.0,-0.13,0.02,0.05
767,0,33,0.0,-0.13,0.02,0.05
768,0,33,0.0,-0.15,0.04,0.08
769,0,33,0.0,-0.15,0.04,0.08
770,0,33,2.684,-0.16,0.04,0.04
771,0,33,2.684,-0.16,0.04,0.04
772,0,33,2.684,-0.16,0.04,0.04
773,0,33,2.684,-0.16,0.03,0.09
774,0,33,2.684,-0.16,0.03,0.09
775,0,33,3.251,-0.16,0.03,0.1
776,0,33,3.251,-0.16,0.03,0.1
777,0,33,3.251,-0.16,0.03,0.1
778,0,33,3.251,-0.16,0.03,0.1
779,0,33,2.12,-0.14,0.04,0.3
780,0,33,2.12,-0.14,0.04,0.3
781,0,33,2.633,-0.13,0.04,0.29
782,0,33,2.633,-0.13,0.04,0.29
783,0,33,2.633,-0.15,0.03,0.29
784,0,33,2.633,-0.15,0.03,0.29
785,0,33,2.633,-0.16,0.04,0.29
786,0,33,2.633,-0.16,0.04,0.29
787,0,33,0.0,-0.16,0.03,0.28
788,0,33,0.0,-0.16,0.04,0.32
789,0,33,0.0,-0.16,0.04,0.32
790,0,33,0.0,-0.17,0.04,0.31
791,0,33,0.0,-0.17,0.04,0.31
792,0,33,0.0,-0.16,0.05,0.45
793,0,33,0.0,-0.16,0.05,0.45
794,0,33,0.0,-0.18,0.05,0.68
795,0,33,0.0,-0.18,0.05,0.68
796,0,33,0.0,-0.19,0.05,0.47
797,0,33,0.0,-0.19,0.05,0.47
798,0,33,0.0,-0.19,0.05,0.47
799,0,33,2.715,-0.18,0.04,0.49
800,0,33,2.715,-0.18,0.04,0.49
801,0,33,2.715,-0.18,0.04,0.52
802,0,33,2.715,-0.18,0.04,0.52
803,0,33,2.027,-0.17,0.03,0.59
804,0,33,1.085,-0.17,0.03,0.59
805,0,33,1.063,-0.2,0.04,0.55
806,0,33,1.063,-0.2,0.04,0.55
807,0,33,1.063,-0.23,0.05,0.57
808,0,33,1.063,-0.23,0.05,0.57
809,0,33,1.063,-0.24,0.04,0.54
810,0,33,1.262,-0.24,0.03,0.51
811,0,33,1.262,-0.24,0.03,0.51
812,0,33,2.604,-0.29,0.04,0.47
813,0,33,2.604,-0.29,0.04,0.47
814,0,33,0.0,-0.3,0.04,0.45
815,0,33,0.0,-0.31,0.05,0.41
816,0,33,0.0,-0.31,0.05,0.41
817,0,33,0.0,-0.34,0.04,0.39
818,0,33,0.0,-0.34,0.04,0.39
819,0,33,0.0,-0.34,0.04,0.39
820,0,33,0.0,-0.34,0.04,0.39
821,0,33,0.0,-0.34,0.05,0.32
822,0,33,0.0,-0.34,0.05,0.32
823,0,33,0.0,-0.34,0.04,0.3
824,0,33,0.0,-0.34,0.04,0.3
825,0,33,0.0,-0.33,0.02,0.26
826,0,33,2.77,-0.33,0.02,0.26
827,0,33,2.77,-0.33,0.02,0.25
828,0,33,2.77,-0.33,0.02,0.25
829,0,33,2.77,-0.33,0.04,0.22
830,0,33,2.77,-0.35,0.03,0.26
831,0,33,2.77,-0.35,0.03,0.26
832,0,33,2.77,-0.35,0.05,0.27
833,0,33,2.77,-0.35,0.05,0.27
834,0,33,2.77,-0.35,0.04,0.26
835,0,33,2.77,-0.35,0.04,0.26
836,0,33,2.77,-0.36,0.04,0.23
837,0,33,2.77,-0.36,0.04,0.23
838,0,33,2.77,-0.34,0.02,0.23
839,0,33,0.0,-0.34,0.02,0.25
840,0,33,0.0,-0.34,0.02,0.25
841,0,33,0.0,-0.33,0.04,0.34
842,0,33,0.0,-0.33,0.04,0.34
843,0,33,0.0,-0.33,0.03,0.32
844,0,33,0.0,-0.33,0.03,0.32
845,0,33,0.0,-0.32,0.03,0.29
846,0,33,0.0,-0.32,0.03,0.29
847,0,33,0.0,-0.31,0.04,0.24
848,0,33,0.0,-0.31,0.04,0.24
849,0,33,0.0,-0.31,0.04,0.24
850,0,33,0.0,-0.31,0.04,0.24
851,0,33,0.0,-0.31,0.04,0.24
852,0,33,0.0,-0.3,0.05,0.14
853,0,33,0.0,-0.3,0.05,0.14
854,0,33,0.0,-0.34,0.05,0.44
855,0,33,0.0,-0.34,0.05,0.44
856,0,33,0.0,-0.29,0.04,-0.02
857,0,33,0.0,-0.29,0.04,-0.02
858,0,33,0.0,-0.3,0.04,0.13
859,0,33,0.0,-0.3,0.04,0.13
860,0,33,0.0,-0.32,0.03,0.15
861,0,33,0.0,-0.32,0.02,0.13
862,0,33,0.0,-0.32,0.02,0.13
863,0,33,0.0,-0.34,0.02,0.13
864,0,33,0.0,-0.34,0.02,0.13
865,0,33,0.0,-0.35,0.03,-0.06
866,0,33,0.0,-0.35,0.03,-0.06
867,0,33,0.0,-0.34,0.03,-0.08
868,0,33,0.0,-0.34,0.03,-0.08
869,0,33,0.0,-0.33,0.02,-0.13
870,0,33,0.0,-0.33,0.02,-0.13
871,0,33,0.0,-0.33,0.03,-0.08
872,0,33,0.0,-0.33,0.03,-0.09
873,0,33,0.0,-0.33,0.03,-0.09
874,0,33,0.0,-0.34,0.02,-0.1
875,0,33,0.0,-0.34,0.02,-0.1
876,0,33,0.0,-0.34,0.03,-0.07
877,0,33,0.0,-0.34,0.03,-0.07
878,0,33,0.0,-0.31,0.04,-0.2
879,0,33,0.0,-0.31,0.04,-0.2
880,0,33,0.0,-0.3,0.03,-0.16
881,0,33,0.0,-0.3,0.03,-0.16
882,0,33,0.0,-0.3,0.03,-0.16
883,0,33,0.0,-0.32,0.03,0.14
884,0,33,0.0,-0.32,0.03,0.14
885,0,33,0.0,-0.34,0.04,0.25
886,0,33,0.0,-0.34,0.04,0.25
887,0,33,0.0,-0.36,0.05,0.38
888,0,33,0.0,-0.36,0.05,0.38
889,0,33,0.0,-0.37,0.06,0.35
890,0,33,0.0,-0.37,0.06,0.35
891,0,33,0.0,-0.38,0.05,0.36
892,0,33,0.0,-0.38,0.05,0.36
893,0,33,0.0,-0.38,0.05,0.36
894,0,33,0.0,-0.37,0.03,0.43
895,0,33,0.0,-0.37,0.03,0.43
896,0,33,0.0,-0.39,0.04,0.39
897,0,33,0.0,-0.39,0.04,0.39
898,0,33,0.0,-0.38,0.04,0.38
899,0,33,0.0,-0.38,0.04,0.38
900,0,33,0.0,-0.39,0.04,0.39
901,0,33,0.0,-0.39,0.04,0.39
902,0,33,0.0,-0.41,0.04,0.43
903,0,33,0.0,-0.42,0.02,0.51
904,0,33,0.0,-0.42,0.02,0.51
905,0,33,0.0,-0.43,0.05,0.44
906,0,33,0.0,-0.43,0.05,0.44
907,0,33,0.0,-0.42,0.05,0.45
908,0,33,0.0,-0.42,0.05,0.45
909,0,33,0.0,-0.43,0.05,0.48
910,0,33,0.0,-0.43,0.05,0.48
911,0,33,0.0,-0.45,0.04,0.39
912,0,33,0.0,-0.45,0.04,0.39
913,0,33,0.0,-0.44,0.03,0.42
914,0,33,0.0,-0.44,0.03,0.41
915,0,33,0.0,-0.44,0.03,0.41
916,0,33,0.0,-0.45,0.04,0.41
917,0,33,0.0,-0.45,0.04,0.41
918,0,33,0.0,-0.45,0.05,0.57
919,0,33,0.0,-0.45,0.05,0.57
920,0,33,0.0,-0.44,0.05,0.58
921,0,33,0.0,-0.44,0.05,0.58
922,0,33,0.0,-0.44,0.04,0.53
923,0,33,0.0,-0.44,0.04,0.53
924,0,33,0.0,-0.44,0.04,0.53
925,0,33,0.0,-0.45,0.05,0.54
926,0,33,0.0,-0.45,0.05,0.54
927,0,33,0.0,-0.44,0.03,0.51
928,0,33,0.0,-0.44,0.03,0.51
929,0,33,0.0,-0.46,0.04,0.55
930,0,33,0.0,-0.46,0.04,0.55
931,0,33,0.0,-0.46,0.04,0.45
932,0,33,0.0,-0.46,0.04,0.45
933,0,33,0.0,-0.46,0.04,0.49
934,0,33,0.0,-0.46,0.04,0.49
935,0,33,0.0,-0.46,0.04,0.49
936,0,33,0.0,-0.47,0.03,0.49
937,0,33,0.0,-0.47,0.03,0.49
938,0,33,0.0,-0.47,0.02,0.49
939,0,33,0.0,-0.47,0.02,0.49
940,0,33,0.0,-0.48,0.03,0.55
941,0,33,0.0,-0.48,0.03,0.55
942,0,33,0.0,-0.48,0.03,0.55
943,0,33,0.0,-0.48,0.03,0.55
944,0,33,0.0,-0.47,0.04,0.67
945,0,33,0.0,-0.47,0.04,0.68
946,0,33,0.0,-0.47,0.04,0.68
947,0,33,0.0,-0.48,0.06,0.71
948,0,33,0.0,-0.48,0.06,0.71
949,0,33,0.0,-0.47,0.05,0.36
950,0,33,0.0,-0.47,0.05,0.36
951,0,33,0.0,-0.5,0.05,0.67
952,0,33,0.0,-0.5,0.05,0.67
953,0,33,0.0,-0.49,0.05,0.67
954,0,33,0.0,-0.49,0.05,0.67
955,0,33,0.0,-0.49,0.05,0.67
956,0,33,0.0,-0.49,0.04,0.66
957,0,33,0.0,-0.49,0.04,0.66
958,0,33,0.0,-0.52,0.05,0.65
959,0,33,0.0,-0.52,0.05,0.65
960,0,33,0.0,-0.54,0.04,0.69
961,0,33,0.0,-0.54,0.04,0.69
962,0,33,0.0,-0.57,0.03,0.57
963,0,33,0.0,-0.57,0.03,0.57
964,0,33,0.0,-0.58,0.05,0.54
965,0,33,0.0,-0.58,0.05,0.54
966,0,33,0.0,-0.58,0.05,0.54
967,0,33,0.0,-0.61,0.05,0.64
968,0,33,0.0,-0.61,0.05,0.64
969,0,33,0.0,-0.63,0.05,0.65
970,0,33,0.0,-0.63,0.05,0.65
971,0,33,0.0,-0.63,0.04,0.54
972,0,33,0.0,-0.63,0.04,0.54
973,0,33,0.0,-0.66,0.03,0.5
974,0,33,0.0,-0.66,0.03,0.5
975,0,33,0.0,-0.67,0.04,0.58
976,0,33,0.0,-0.67,0.04,0.62
977,0,33,0.0,-0.67,0.04,0.62
978,0,33,0.0,-0.68,0.03,0.66
979,0,33,0.0,-0.68,0.03,0.66
980,0,33,0.0,-0.67,0.04,0.41
981,0,33,0.0,-0.67,0.04,0.41
982,0,33,0.0,-0.7,0.04,0.47
983,0,33,0.0,-0.7,0.04,0.47
984,0,33,0.0,-0.73,0.05,0.46
985,0,33,0.0,-0.73,0.05,0.46
986,0,33,0.0,-0.73,0.05,0.73
987,0,33,0.0,-0.73,0.05,0.73
988,0,33,0.0,-0.73,0.05,0.73
989,0,33,0.0,-0.74,0.04,0.53
990,0,33,0.0,-0.74,0.04,0.53
991,0,33,0.0,-0.77,0.04,0.46
992,0,33,0.0,-0.77,0.04,0.46
993,0,33,0.0,-0.78,0.04,0.34
994,0,33,0.0,-0.78,0.04,0.34
995,0,33,0.0,-0.79,0.03,0.57
996,0,33,0.0,-0.79,0.04,0.44
997,0,33,0.0,-0.79,0.04,0.44
998,0,33,0.0,-0.79,0.03,0.33
999,0,33,0.0,-0.79,0.03,0.33
1000,0,33,0.0,-0.78,0.03,0.36
1001,0,33,0.0,-0.78,0.03,0.36
1002,0,33,0.0,-0.8,0.05,0.25
1003,0,33,0.0,-0.8,0.05,0.25
1004,0,33,0.0,-0.8,0.07,0.51
1005,0,33,0.0,-0.8,0.07,0.51
1006,0,33,0.0,-0.78,0.06,0.28
1007,0,33,0.0,-0.78,0.06,0.28
1008,0,33,0.0,-0.79,0.07,0.37
1009,0,33,0.0,-0.79,0.07,0.39
1010,0,33,0.0,-0.79,0.07,0.39
1011,0,33,0.0,-0.79,0.07,0.3
1012,0,33,0.0,-0.79,0.07,0.3
1013,0,33,0.0,-0.79,0.07,0.4
1014,0,33,0.0,-0.79,0.07,0.4
1015,0,33,0.0,-0.8,0.08,0.4
1016,0,33,0.0,-0.8,0.08,0.4
1017,0,33,0.0,-0.79,0.08,0.37
1018,0,33,0.0,-0.79,0.08,0.38
1019,0,33,0.0,-0.79,0.08,0.38
1020,0,33,0.0,-0.82,0.07,0.35
1021,0,33,0.0,-0.82,0.07,0.35
1022,0,33,0.0,-0.83,0.06,0.36
1023,0,33,0.0,-0.83,0.06,0.36
1024,0,33,0.0,-0.88,0.04,0.19
1025,0,33,0.0,-0.88,0.04,0.19
1026,0,33,0.0,-0.87,0.04,0.07
1027,0,33,0.0,-0.87,0.04,0.07
1028,0,33,0.0,-0.86,0.04,0.07
1029,0,33,0.0,-0.86,0.04,0.13
1030,0,33,0.0,-0.86,0.04,0.13
1031,0,33,0.0,-0.86,0.04,0.14
1032,0,33,0.0,-0.86,0.04,0.14
1033,0,33,0.0,-0.85,0.03,0.14
1034,0,33,0.0,-0.85,0.03,0.14
1035,0,33,0.0,-0.86,0.04,0.18
1036,0,33,0.0,-0.86,0.04,0.18
1037,0,33,0.0,-0.87,0.03,0.18
1038,0,33,0.0,-0.86,0.03,0.21
1039,0,33,0.0,-0.86,0.03,0.21
1040,0,33,0.0,-0.88,0.05,0.24
1041,0,33,0.0,-0.88,0.05,0.24
1042,0,33,0.0,-0.84,0.05,0.76
1043,0,33,0.0,-0.84,0.05,0.76
1044,0,33,0.0,-0.88,0.04,0.36
1045,0,33,0.0,-0.88,0.04,0.36
1046,0,33,0.0,-0.93,0.04,0.19
1047,0,33,0.0,-0.93,0.04,0.19
1048,0,33,0.0,-0.96,0.04,0.46
1049,0,33,0.0,-0.96,0.04,0.46
1050,0,33,0.0,-0.94,0.04,0.34
1051,0,33,0.0,-0.93,0.05,0.27
1052,0,33,0.0,-0.93,0.05,0.27
1053,0,33,0.0,-0.9,0.01,0.17
1054,0,33,0.0,-0.9,0.01,0.17
1055,0,33,0.0,-0.94,0.01,-0.04
1056,0,33,0.0,-0.94,0.01,-0.04
1057,0,33,0.0,-0.85,0.06,0.66
1058,0,33,0.0,-0.85,0.06,0.66
1059,0,33,0.0,-0.89,0.02,-0.08
1060,0,33,0.0,-0.91,0.03,0.0
1061,0,33,0.0,-0.91,0.03,0.0
1062,0,33,0.0,-0.9,0.02,0.2
1063,0,33,0.0,-0.9,0.02,0.2
1064,0,33,0.0,-0.88,0.02,0.33
1065,0,33,0.0,-0.88,0.02,0.33
1066,0,33,0.0,-0.9,0.03,0.38
1067,0,33,0.0,-0.9,0.03,0.38
1068,0,33,0.0,-0.89,0.03,0.21
1069,0,33,0.0,-0.89,0.03,0.21
1070,0,33,0.0,-0.89,0.03,0.21
1071,0,33,0.0,-0.88,0.03,0.44
1072,0,33,0.0,-0.88,0.03,0.44
1073,0,33,0.0,-0.91,0.04,0.38
1074,0,33,0.0,-0.91,0.04,0.38
1075,0,33,0.0,-0.91,0.04,0.41
1076,0,33,0.0,-0.91,0.04,0.41
1077,0,33,0.0,-0.9,0.02,0.46
1078,0,33,0.0,-0.9,0.02,0.46
1079,0,33,0.0,-0.91,0.03,0.4
1080,0,33,0.0,-0.9,0.02,0.42
1081,0,33,0.0,-0.9,0.02,0.42
1082,0,33,0.0,-0.89,0.03,0.39
1083,0,33,0.0,-0.89,0.03,0.39
1084,0,33,0.0,-0.91,0.03,0.48
1085,0,33,0.0,-0.91,0.03,0.48
1086,0,33,0.0,-0.92,0.03,0.51
1087,0,33,0.0,-0.92,0.03,0.51
1088,0,33,0.0,-0.92,0.04,0.49
1089,0,33,0.0,-0.92,0.04,0.49
1090,0,33,0.0,-0.94,0.04,0.5
1091,0,33,0.0,-0.94,0.04,0.5
1092,0,33,0.0,-0.94,0.04,0.5
1093,0,33,0.0,-0.94,0.05,0.5
1094,0,33,0.0,-0.94,0.05,0.5
1095,0,33,0.0,-0.95,0.04,0.59
1096,0,33,0.0,-0.95,0.04,0.59
1097,0,33,0.0,-0.95,0.03,0.61
1098,0,33,0.0,-0.95,0.03,0.61
1099,0,33,0.0,-0.94,0.03,0.53
1100,0,33,0.0,-0.94,0.03,0.53
1101,0,33,0.0,-0.93,0.02,0.56
1102,0,33,0.0,-0.95,0.0,0.5
1103,0,33,0.0,-0.95,0.0,0.5
1104,0,33,0.0,-1.01,0.02,0.72
1105,0,33,0.0,-1.01,0.02,0.72
1106,0,33,0.0,-1.04,0.02,0.74
1107,0,33,0.0,-1.04,0.02,0.74
1108,0,33,0.0,-1.01,0.06,0.33
1109,0,33,0.0,-1.01,0.06,0.33
1110,0,33,0.0,-1.04,0.02,0.37
1111,0,33,0.0,-1.04,0.02,0.37
1112,0,33,0.0,-1.02,0.02,0.35
1113,0,33,0.0,-1.06,0.06,0.56
1114,0,33,0.0,-1.06,0.06,0.56
1115,0,33,0.0,-1.0,0.04,0.66
1116,0,33,0.0,-1.0,0.04,0.66
1117,0,33,0.0,-1.0,0.04,0.66
1118,0,33,0.0,-1.0,0.04,0.66
1119,0,33,0.0,-1.0,0.04,0.66
1120,0,33,0.0,-1.0,0.04,0.66
1121,0,33,0.0,-1.0,0.04,0.66
1122,0,33,0.0,-1.0,0.04,0.66
1123,0,33,0.0,-0.99,0.07,0.65
1124,0,33,0.0,-0.96,0.03,0.58
1125,0,33,0.0,-0.96,0.03,0.58
1126,0,33,0.0,-1.0,0.04,0.73
1127,0,33,0.0,-1.0,0.04,0.73
1128,0,33,0.0,-1.1,0.07,0.51
1129,0,33,0.0,-1.1,0.07,0.51
1130,0,33,0.0,-1.05,0.06,1.11
1131,0,33,0.0,-1.05,0.06,1.11
1132,0,33,0.0,-1.06,0.04,0.61
1133,0,33,0.0,-1.06,0.04,0.61
1134,0,33,0.0,-1.06,0.04,0.61
1135,0,33,0.0,-1.07,0.03,0.95
1136,0,33,0.0,-1.07,0.03,0.95
1137,0,33,0.0,-1.12,0.01,0.76
1138,0,33,0.0,-1.12,0.01,0.76
1139,0,33,0.0,-1.34,0.01,0.79
1140,0,33,0.0,-1.34,0.01,0.79
1141,0,33,0.0,-1.99,0.03,0.37
1142,0,33,0.0,-1.99,0.03,0.37
1143,0,33,0.0,-1.99,0.03,0.37
1144,0,33,0.0,-1.93,-0.09,1.26
1145,0,33,0.0,-1.93,-0.09,1.26
1146,0,33,0.0,-1.55,-0.12,0.86
1147,0,33,0.0,-1.55,-0.12,0.86
1148,0,33,0.0,-0.66,-0.11,0.83
1149,0,33,0.0,-0.66,-0.11,0.83
1150,0,33,0.0,-0.66,-0.11,0.83
1151,0,33,0.0,0.99,-0.22,0.48
1152,0,33,0.0,0.99,-0.22,0.48
1153,0,33,0.0,2.17,-0.12,0.28
1154,0,33,0.0,2.17,-0.12,0.28
1155,0,33,0.0,2.45,-0.04,0.34
1156,0,33,0.0,2.45,-0.04,0.34
1157,0,33,0.0,2.76,0.0,0.99
1158,0,33,0.0,2.76,0.0,0.99
1159,0,33,0.0,3.03,0.0,0.92
1160,0,33,0.0,3.03,0.0,0.92
1161,0,33,0.0,3.4,-0.03,0.78
1162,0,33,0.0,3.4,-0.03,0.78
1163,0,33,0.0,3.4,-0.03,0.78
1164,0,33,0.0,3.75,-0.02,0.72
1165,0,33,0.0,3.75,-0.02,0.72
1166,0,33,0.0,4.0,-0.01,0.78
1167,0,33,0.0,4.0,-0.01,0.78
1168,0,33,0.0,4.1,0.01,0.78
1169,0,33,0.0,4.1,0.01,0.78
1170,0,33,0.0,4.08,0.04,0.84
1171,0,33,0.0,4.08,0.04,0.84
1172,0,33,0.0,4.05,0.05,0.8
1173,0,33,0.0,4.05,0.05,0.8
1174,0,33,0.0,4.03,0.07,0.63
1175,0,33,0.0,4.02,0.07,0.71
1176,0,33,0.0,4.02,0.07,0.71
1177,0,33,0.0,4.0,0.08,0.73
1178,0,33,0.0,4.0,0.08,0.73
1179,0,33,0.0,3.95,0.06,0.73
1180,0,33,0.0,3.95,0.06,0.73
1181,0,33,0.0,3.94,0.06,0.74
1182,0,33,0.0,3.94,0.06,0.74
1183,0,33,0.0,3.92,0.06,0.73
1184,0,33,0.0,3.92,0.06,0.74
1185,0,33,0.0,3.92,0.06,0.74
1186,0,33,0.0,3.91,0.09,0.79
1187,0,33,0.0,3.91,0.09,0.79
1188,0,33,0.0,3.91,0.05,0.69
1189,0,33,0.0,3.91,0.05,0.69
1190,0,33,0.0,3.92,0.05,0.67
1191,0,33,0.0,3.92,0.05,0.67
1192,0,33,0.0,3.9,0.06,0.72
1193,0,33,0.0,3.9,0.06,0.72
1194,0,33,0.0,3.89,0.07,0.69
1195,0,33,0.0,3.89,0.07,0.69
1196,0,33,0.0,3.89,0.07,0.69
1197,0,33,0.0,3.87,0.08,0.77
1198,0,33,0.0,3.87,0.08,0.77
1199,0,33,0.0,3.86,0.06,0.88
1200,0,33,0.0,3.86,0.06,0.88
1201,0,33,0.0,3.86,0.05,0.7
1202,0,33,0.0,3.86,0.05,0.7
1203,0,33,0.0,3.88,0.07,0.69
1204,0,33,0.0,3.88,0.07,0.69
1205,0,33,0.0,3.89,0.06,0.85
1206,0,33,0.0,3.89,0.06,0.85
1207,0,33,0.0,3.89,0.06,0.85
1208,0,33,0.0,3.91,0.08,0.76
1209,0,33,0.0,3.91,0.08,0.76
1210,0,33,0.0,3.9,0.06,0.71
1211,0,33,0.0,3.9,0.06,0.71
1212,0,33,0.0,3.92,0.07,0.74
1213,0,33,0.0,3.92,0.07,0.74
1214,0,33,0.0,3.91,0.06,0.36
1215,0,33,0.0,3.91,0.06,0.36
1216,0,33,0.0,3.95,0.06,0.53
1217,0,33,0.0,3.95,0.06,0.53
1218,0,33,0.0,3.95,0.06,0.53
1219,0,33,0.0,3.94,0.07,0.5
1220,0,33,0.0,3.94,0.07,0.5
1221,0,33,0.0,3.94,0.07,0.55
1222,0,33,0.0,3.94,0.07,0.55
1223,0,33,0.0,3.93,0.07,0.61
1224,0,33,0.0,3.93,0.07,0.61
1225,0,33,0.0,3.94,0.06,0.52
1226,0,33,0.0,3.94,0.06,0.52
1227,0,33,0.0,3.93,0.05,0.51
1228,0,33,0.0,3.94,0.05,0.47
1229,0,33,0.0,3.94,0.05,0.47
1230,0,33,0.0,3.92,0.06,0.52
1231,0,33,0.0,3.92,0.06,0.52
1232,0,33,0.0,3.9,0.07,0.74
1233,0,33,0.0,3.9,0.07,0.74
1234,0,33,0.0,3.9,0.06,0.67
1235,0,33,0.0,3.9,0.06,0.67
1236,0,33,0.0,3.9,0.07,0.77
1237,0,33,0.0,3.88,0.07,0.62
1238,0,33,0.0,3.88,0.07,0.62
1239,0,33,0.0,3.89,0.06,0.54
1240,0,33,0.0,3.89,0.06,0.54
1241,0,33,0.0,3.9,0.07,0.66
1242,0,33,0.0,3.9,0.07,0.66
1243,0,33,0.0,3.88,0.06,0.63
1244,0,33,0.0,3.88,0.06,0.63
1245,0,33,0.0,3.88,0.06,0.58
1246,0,33,0.0,3.88,0.06,0.58
1247,0,33,0.0,3.89,0.08,0.46
1248,0,33,0.0,3.89,0.08,0.46
1249,0,33,0.0,3.87,0.09,0.59
1250,0,33,0.0,3.87,0.08,0.54
1251,0,33,0.0,3.87,0.08,0.54
1252,0,33,0.0,3.88,0.07,0.65
1253,0,33,0.0,3.88,0.07,0.65
1254,0,33,0.0,3.86,0.07,0.74
1255,0,33,0.0,3.86,0.07,0.74
1256,0,33,0.0,3.85,0.07,0.69
1257,0,33,0.0,3.85,0.07,0.69
1258,0,33,0.0,3.83,0.07,0.62
1259,0,33,0.0,3.83,0.07,0.63
1260,0,33,0.0,3.83,0.07,0.63
1261,0,33,0.0,3.83,0.06,0.57
1262,0,33,0.0,3.83,0.06,0.57
1263,0,33,0.0,3.84,0.06,0.71
1264,0,33,0.0,3.84,0.06,0.71
1265,0,33,0.0,3.84,0.07,0.72
1266,0,33,0.0,3.84,0.07,0.72
1267,0,33,0.0,3.84,0.07,0.75
1268,0,33,0.0,3.84,0.07,0.75
1269,0,33,0.0,3.81,0.06,0.68
1270,0,33,0.0,3.81,0.08,0.62
1271,0,33,0.0,3.81,0.08,0.62
1272,0,33,0.0,3.78,0.08,0.77
1273,0,33,0.0,3.78,0.08,0.77
1274,0,33,0.0,3.8,0.07,0.73
1275,0,33,0.0,3.8,0.07,0.73
1276,0,33,0.0,3.79,0.07,0.65
1277,0,33,0.0,3.79,0.07,0.65
1278,0,33,0.0,3.79,0.06,0.77
1279,0,33,0.0,3.77,0.07,0.8
1280,0,33,0.0,3.77,0.07,0.8
1281,0,33,0.0,3.76,0.06,0.74
1282,0,33,0.0,3.76,0.06,0.74
1283,0,33,0.0,3.78,0.07,0.63
1284,0,33,0.0,3.78,0.07,0.63
1285,0,33,0.0,3.78,0.07,0.77
1286,0,33,0.0,3.78,0.07,0.77
1287,0,33,0.0,3.8,0.06,0.71
1288,0,33,0.0,3.8,0.06,0.71
1289,0,33,0.0,3.82,0.05,0.77
1290,0,33,0.0,3.82,0.05,0.77
1291,0,33,0.0,3.82,0.05,0.77
1292,0,33,0.0,3.78,0.07,0.78
1293,0,33,0.0,3.78,0.07,0.78
1294,0,33,0.0,3.73,0.05,0.89
1295,0,33,0.0,3.73,0.05,0.89
1296,0,33,0.0,3.73,0.07,0.84
1297,0,33,0.0,3.73,0.07,0.84
1298,0,33,0.0,3.74,0.07,0.75
1299,0,33,0.0,3.74,0.07,0.75
1300,0,33,0.0,3.7,0.07,0.73
1301,0,33,0.0,3.7,0.07,0.69
1302,0,33,0.0,3.7,0.07,0.69
1303,0,33,0.0,3.68,0.07,0.66
1304,0,33,0.0,3.67,0.06,0.59
1305,0,33,0.0,3.68,0.05,0.55
1306,0,33,0.0,3.68,0.05,0.55
1307,0,33,0.0,3.68,0.06,0.52
1308,0,33,0.0,3.68,0.06,0.52
1309,0,33,0.0,3.66,0.07,0.46
1310,0,33,0.0,3.66,0.07,0.46
1311,0,33,0.0,3.66,0.05,0.37
1312,0,33,0.0,3.64,0.05,0.36
1313,0,33,0.0,3.64,0.05,0.36
1314,0,33,0.0,3.63,0.06,0.39
1315,0,33,0.0,3.63,0.06,0.39
1316,0,33,0.0,3.64,0.06,0.32
1317,0,33,0.0,3.64,0.06,0.32
1318,0,33,0.0,3.62,0.06,0.3
1319,0,33,0.0,3.62,0.06,0.3
1320,0,33,0.0,3.61,0.05,0.35
1321,0,33,0.0,3.61,0.05,0.35
1322,0,33,0.0,3.59,0.06,0.47
1323,0,33,0.0,3.59,0.05,0.47
1324,0,33,0.0,3.59,0.05,0.47
1325,0,33,0.0,3.6,0.05,0.5
1326,0,33,0.0,3.6,0.06,0.52
1327,0,33,0.0,3.6,0.06,0.52
1328,0,33,0.0,3.59,0.06,0.43
1329,0,33,0.0,3.59,0.06,0.43
1330,0,33,0.0,3.59,0.07,0.43
1331,0,33,0.0,3.59,0.07,0.43
1332,0,33,0.0,3.59,0.07,0.43
1333,0,33,0.0,3.59,0.07,0.43
1334,0,33,0.0,3.61,0.06,0.45
1335,0,33,0.0,3.61,0.06,0.45
1336,0,33,0.0,3.56,0.06,0.5
1337,0,33,0.0,3.56,0.06,0.5
1338,0,33,0.0,3.58,0.06,0.39
1339,0,33,0.0,3.58,0.06,0.39
1340,0,33,0.0,3.58,0.06,0.32
1341,0,33,0.0,3.58,0.06,0.32
1342,0,33,0.0,3.57,0.04,0.46
1343,0,33,0.0,3.55,0.06,0.48
1344,0,33,0.0,3.55,0.06,0.48
1345,0,33,0.0,3.57,0.06,0.41
1346,0,33,0.0,3.57,0.06,0.41
1347,0,33,0.0,3.57,0.06,0.41
1348,0,33,0.0,3.57,0.06,0.41
1349,0,33,0.0,3.57,0.06,0.41
1350,0,33,0.0,3.58,0.06,0.2
1351,0,33,0.0,3.58,0.06,0.2
1352,0,33,0.0,3.6,0.06,0.29
1353,0,33,0.0,3.6,0.06,0.29
1354,0,33,0.0,3.59,0.06,0.32
1355,0,33,0.0,3.59,0.06,0.32
1356,0,33,0.0,3.59,0.06,0.33
1357,0,33,0.0,3.59,0.06,0.33
1358,0,33,0.0,3.57,0.07,0.36
1359,0,33,0.0,3.57,0.07,0.36
1360,0,33,0.0,3.54,0.06,0.39
1361,0,33,0.0,3.54,0.06,0.39
1362,0,33,0.0,3.54,0.06,0.39
1363,0,33,0.0,3.54,0.06,0.39
1364,0,33,0.0,3.53,0.05,0.49
1365,0,33,0.0,3.54,0.06,0.5
1366,0,33,0.0,3.54,0.06,0.5
1367,0,33,0.0,3.53,0.06,0.54
1368,0,33,0.0,3.53,0.06,0.54
1369,0,33,0.0,3.48,0.05,0.56
1370,0,33,0.0,3.48,0.05,0.56
1371,0,33,0.0,3.48,0.06,0.74
1372,0,33,0.0,3.48,0.06,0.74
1373,0,33,0.0,3.47,0.06,0.65
1374,0,33,0.0,3.51,0.06,0.52
1375,0,33,0.0,3.51,0.06,0.52
1376,0,33,0.0,3.52,0.1,0.66
1377,0,33,0.0,3.52,0.1,0.66
1378,0,33,0.0,3.53,0.07,0.85
1379,0,33,0.0,3.53,0.07,0.85
1380,0,33,0.0,3.5,0.06,1.06
1381,0,33,0.0,3.5,0.06,1.06
1382,0,33,0.0,3.57,0.07,0.69
1383,0,33,0.0,3.57,0.07,0.69
1384,0,33,0.0,3.52,0.07,1.06
1385,0,33,0.0,3.5,0.07,0.96
1386,0,33,0.0,3.5,0.07,0.96
1387,0,33,0.0,3.48,0.07,0.91
1388,0,33,0.0,3.48,0.07,0.91
1389,0,33,0.0,3.43,0.09,0.85
1390,0,33,0.0,3.43,0.09,0.85
1391,0,33,0.0,3.43,0.09,0.85
1392,0,33,0.0,3.43,0.09,0.85
1393,0,33,0.0,3.43,0.09,0.85
1394,0,33,0.0,3.43,0.09,0.85
1395,0,33,0.0,3.43,0.09,0.85
1396,0,33,0.0,3.39,0.05,0.71
1397,0,33,0.0,3.39,0.05,0.71
1398,0,33,0.0,3.42,0.05,0.52
1399,0,33,0.0,3.42,0.05,0.52
1400,0,33,0.0,3.39,0.05,0.79
1401,0,33,0.0,3.39,0.05,0.79
1402,0,33,0.0,3.39,0.05,0.79
1403,0,33,0.0,3.39,0.05,0.79
1404,0,33,0.0,3.39,0.05,0.79
1405,0,33,0.0,3.39,0.05,0.79
1406,0,33,0.0,3.39,0.05,0.79
1407,0,33,0.0,3.31,0.06,0.92
1408,0,33,0.0,3.31,0.06,0.92
1409,0,33,0.0,3.34,0.05,0.68
1410,0,33,0.0,3.34,0.05,0.68
1411,0,33,0.0,3.33,0.05,0.78
1412,0,33,0.0,3.33,0.05,0.78
1413,0,33,0.0,3.33,0.05,0.68
1414,0,33,0.0,3.33,0.05,0.68
1415,0,33,0.0,3.32,0.03,0.77
1416,0,33,0.0,3.31,0.05,0.79
1417,0,33,0.0,3.31,0.05,0.79
1418,0,33,0.0,3.28,0.05,0.87
1419,0,33,0.0,3.28,0.05,0.87
1420,0,33,0.0,3.28,0.04,0.9
1421,0,33,0.0,3.28,0.04,0.9
1422,0,33,0.0,3.28,0.08,0.81
1423,0,33,0.0,3.28,0.08,0.81
1424,0,33,0.0,3.28,0.05,1.09
1425,0,33,0.0,3.28,0.05,1.09
1426,0,33,0.0,3.27,0.05,1.03
1427,0,33,0.0,3.28,0.06,0.96
1428,0,33,0.0,3.28,0.06,0.96
1429,0,33,0.0,3.26,0.05,0.95
1430,0,33,0.0,3.26,0.05,0.95
1431,0,33,0.0,3.24,0.07,1.0
1432,0,33,0.0,3.24,0.07,1.0
1433,0,33,0.0,3.23,0.07,1.19
1434,0,33,0.0,3.23,0.07,1.19
1435,0,33,0.0,3.22,0.06,1.17
1436,0,33,0.0,3.22,0.06,1.17
1437,0,33,0.0,3.22,0.06,1.17
1438,0,33,0.0,3.21,0.07,1.18
1439,0,33,0.0,3.21,0.07,1.18
1440,0,33,0.0,3.21,0.07,1.12
1441,0,33,0.0,3.21,0.07,1.12
1442,0,33,0.0,3.2,0.06,1.11
1443,0,33,0.0,3.2,0.06,1.11
1444,0,33,0.0,3.21,0.06,1.24
1445,0,33,0.0,3.21,0.06,1.24
1446,0,33,0.0,3.2,0.06,1.26
1447,0,33,0.0,3.2,0.06,1.26
1448,0,33,0.0,3.2,0.05,1.27
1449,0,33,0.0,3.2,0.08,1.32
1450,0,33,0.0,3.21,0.06,1.36
1451,0,33,0.0,3.2,0.07,1.4
1452,0,33,0.0,3.2,0.07,1.4
1453,0,33,0.0,3.17,0.08,1.47
1454,0,33,0.0,3.17,0.08,1.47
1455,0,33,0.0,3.14,0.06,1.37
1456,0,33,0.0,3.14,0.06,1.37
1457,0,33,0.0,3.12,0.05,1.35
1458,0,33,0.0,3.11,0.06,1.28
1459,0,33,0.0,3.11,0.06,1.28
1460,0,33,0.0,3.11,0.05,1.26
1461,0,33,0.0,3.11,0.05,1.26
1462,0,33,0.0,3.12,0.06,1.4
1463,0,33,0.0,3.12,0.06,1.4
1464,0,33,0.0,3.11,0.06,1.39
1465,0,33,0.0,3.11,0.07,1.42
1466,0,33,0.0,3.11,0.07,1.42
1467,0,33,0.0,3.1,0.05,1.48
1468,0,33,0.0,3.1,0.05,1.48
1469,0,33,0.0,3.11,0.06,1.38
1470,0,33,0.0,3.11,0.06,1.38
1471,0,33,0.0,3.08,0.07,1.33
1472,0,33,0.0,3.08,0.07,1.33
1473,0,33,0.0,3.07,0.06,1.28
1474,0,33,0.0,3.07,0.06,1.28
1475,0,33,0.0,3.09,0.05,1.27
1476,0,33,0.0,3.09,0.05,1.27
1477,0,33,0.0,3.07,0.06,1.37
1478,0,33,0.0,3.08,0.06,1.34
1479,0,33,0.0,3.08,0.06,1.34
1480,0,33,0.0,3.09,0.06,1.36
1481,0,33,0.0,3.09,0.06,1.36
1482,0,33,0.0,3.08,0.07,1.38
1483,0,33,0.0,3.08,0.07,1.38
1484,0,33,0.0,3.07,0.04,1.17
1485,0,33,0.0,3.07,0.04,1.17
1486,0,33,0.0,3.07,0.05,1.33
1487,0,33,0.0,3.06,0.05,1.19
1488,0,33,0.0,3.06,0.05,1.19
1489,0,33,0.0,3.06,0.05,1.19
1490,0,33,0.0,3.06,0.05,1.19
1491,0,33,0.0,3.04,0.06,1.36
1492,0,33,0.0,3.04,0.06,1.36
1493,0,33,0.0,3.05,0.07,1.29
1494,0,33,0.0,3.05,0.07,1.29
1495,0,33,0.0,3.05,0.07,1.27
1496,0,33,0.0,3.05,0.07,1.27
1497,0,33,0.0,3.05,0.06,1.37
1498,0,33,0.0,3.05,0.06,1.37
1499,0,33,0.0,3.03,0.06,1.37
1500,0,33,0.0,3.02,0.06,1.41
1501,0,33,0.0,3.02,0.06,1.41
1502,0,33,0.0,3.01,0.05,1.38
1503,0,33,0.0,3.01,0.05,1.38
1504,0,33,0.0,3.01,0.07,1.34
1505,0,33,0.0,3.01,0.07,1.34
1506,0,33,0.0,3.0,0.05,1.52
1507,0,33,0.0,3.0,0.05,1.52
1508,0,33,0.0,3.0,0.05,1.54
1509,0,33,0.0,3.0,0.05,1.5
1510,0,33,0.0,3.0,0.05,1.5
1511,0,33,0.0,3.0,0.06,1.39
1512,0,33,0.0,3.0,0.06,1.39
1513,0,33,0.0,3.0,0.06,1.49
1514,0,33,0.0,3.0,0.06,1.49
1515,0,33,0.0,2.99,0.07,1.11
1516,0,33,0.0,2.99,0.07,1.11
1517,0,33,0.0,2.98,0.06,1.13
1518,0,33,0.0,2.98,0.06,1.13
1519,0,33,0.0,2.96,0.07,1.04
1520,0,33,0.0,2.96,0.07,1.04
1521,0,33,0.0,2.96,0.07,1.04
1522,0,33,0.0,2.94,0.06,0.67
1523,0,33,0.0,2.94,0.06,0.67
1524,0,33,0.0,2.96,0.04,0.69
1525,0,33,0.0,2.96,0.04,0.69
1526,0,33,0.0,2.98,0.05,0.79
1527,0,33,0.0,2.98,0.05,0.79
1528,0,33,0.0,2.99,0.06,0.68
1529,0,33,0.0,2.99,0.05,0.71
1530,0,33,0.0,2.99,0.05,0.71
1531,0,33,0.0,2.99,0.05,0.71
1532,0,33,0.0,2.99,0.05,0.71
1533,0,33,0.0,2.97,0.05,0.7
1534,0,33,0.0,2.97,0.05,0.7
1535,0,33,0.0,2.99,0.06,0.58
1536,0,33,0.0,2.99,0.06,0.58
1537,0,33,0.0,2.99,0.06,0.72
1538,0,33,0.0,2.99,0.06,0.72
1539,0,33,0.0,2.98,0.07,0.98
1540,0,33,0.0,2.98,0.07,0.98
1541,0,33,0.0,2.98,0.07,0.98
1542,0,33,0.0,2.97,0.06,0.88
1543,0,33,0.0,2.97,0.06,0.88
1544,0,33,0.0,2.95,0.05,0.75
1545,0,33,0.0,2.95,0.05,0.75
1546,0,33,0.0,2.94,0.06,0.88
1547,0,33,0.0,2.94,0.06,0.88
1548,0,33,0.0,2.9,0.06,0.84
1549,0,33,0.0,2.9,0.06,0.84
1550,0,33,0.0,2.92,0.05,1.0
1551,0,33,0.0,2.92,0.05,1.0
1552,0,33,0.0,2.9,0.05,1.05
1553,0,33,0.0,2.92,0.05,0.98
1554,0,33,0.0,2.92,0.05,0.98
1555,0,33,0.0,2.9,0.07,1.0
1556,0,33,0.0,2.9,0.07,1.0
1557,0,33,0.0,2.89,0.06,0.96
1558,0,33,0.0,2.89,0.06,0.96
1559,0,33,0.0,2.88,0.05,0.93
1560,0,33,0.0,2.88,0.05,0.93
1561,0,33,0.0,2.87,0.06,0.86
1562,0,33,0.0,2.87,0.06,0.86
1563,0,33,0.0,2.87,0.05,0.95
1564,0,33,0.0,2.87,0.07,0.97
1565,0,33,0.0,2.87,0.07,0.97
1566,0,33,0.0,2.83,0.07,0.9
1567,0,33,0.0,2.83,0.07,0.9
1568,0,33,0.0,2.83,0.07,0.71
1569,0,33,0.0,2.83,0.07,0.71
1570,0,33,0.0,2.84,0.07,0.74
1571,0,33,0.0,2.84,0.07,0.74
1572,0,33,0.0,2.85,0.06,0.67
1573,0,33,0.0,2.85,0.06,0.67
1574,0,33,0.0,2.85,0.06,0.67
1575,0,33,0.0,2.84,0.08,0.84
1576,0,33,0.0,2.84,0.08,0.84
1577,0,33,0.0,2.87,0.05,0.96
1578,0,33,0.0,2.87,0.05,0.96
1579,0,33,0.0,2.87,0.05,0.8
1580,0,33,0.0,2.87,0.05,0.8
1581,0,33,0.0,2.87,0.05,0.8
1582,0,33,0.0,2.87,0.05,0.8
1583,0,33,0.0,2.87,0.05,0.8
1584,0,33,0.0,2.91,0.06,0.6
1585,0,33,0.0,2.91,0.06,0.6
1586,0,33,0.0,2.85,0.06,0.62
1587,0,33,0.0,2.85,0.06,0.62
1588,0,33,0.0,2.87,0.05,0.62
1589,0,33,0.0,2.87,0.05,0.62
1590,0,33,0.0,2.9,0.06,0.52
1591,0,33,0.0,2.9,0.06,0.52
1592,0,33,0.0,2.91,0.06,0.58
1593,0,33,0.0,2.91,0.06,0.58
1594,0,33,0.0,2.86,0.07,0.76
1595,0,33,0.0,2.84,0.06,0.72
1596,0,33,0.0,2.84,0.06,0.72
1597,0,33,0.0,2.9,0.05,0.64
1598,0,33,0.0,2.9,0.05,0.64
1599,0,33,0.0,2.88,0.06,0.78
1600,0,33,0.0,2.88,0.06,0.78
1601,0,33,0.0,2.84,0.07,0.88
1602,0,33,0.0,2.84,0.07,0.88
1603,0,33,0.0,2.84,0.06,0.87
1604,0,33,0.0,2.84,0.06,0.87
1605,0,33,0.0,2.84,0.06,0.87
1606,0,33,0.0,2.83,0.06,0.86
1607,0,33,0.0,2.83,0.06,0.86
1608,0,33,0.0,2.81,0.06,0.96
1609,0,33,0.0,2.81,0.06,0.96
1610,0,33,0.0,2.79,0.07,0.94
1611,0,33,0.0,2.79,0.07,0.94
1612,0,33,0.0,2.81,0.07,0.9
1613,0,33,0.0,2.81,0.07,0.9
1614,0,33,0.0,2.77,0.06,0.8
1615,0,33,0.0,2.77,0.07,0.84
1616,0,33,0.0,2.77,0.07,0.84
1617,0,33,0.0,2.75,0.07,0.8
1618,0,33,0.0,2.75,0.07,0.8
1619,0,33,0.0,2.74,0.04,0.78
1620,0,33,0.0,2.74,0.04,0.78
1621,0,33,0.0,2.73,0.05,0.71
1622,0,33,0.0,2.73,0.05,0.71
1623,0,33,0.0,2.73,0.07,1.09
1624,0,33,0.0,2.73,0.07,1.09
1625,0,33,0.0,2.69,0.06,0.69
1626,0,33,0.0,2.69,0.06,0.71
1627,0,33,0.0,2.69,0.06,0.71
1628,0,33,0.0,2.69,0.05,0.52
1629,0,33,0.0,2.69,0.05,0.52
1630,0,33,0.0,2.71,0.06,0.36
1631,0,33,0.0,2.71,0.06,0.36
1632,0,33,0.0,2.7,0.05,0.38
1633,0,33,0.0,2.7,0.05,0.38
1634,0,33,0.0,2.7,0.04,0.47
1635,0,33,0.0,2.71,0.04,0.44
1636,0,33,0.0,2.71,0.04,0.44
1637,0,33,0.0,2.7,0.03,0.35
1638,0,33,0.0,2.7,0.03,0.35
1639,0,33,0.0,2.7,0.05,0.35
1640,0,33,0.0,2.7,0.05,0.35
1641,0,33,0.0,2.71,0.05,0.21
1642,0,33,0.0,2.71,0.05,0.21
1643,0,33,0.0,2.7,0.05,0.36
1644,0,33,0.0,2.7,0.05,0.36
1645,0,33,0.0,2.69,0.06,0.44
1646,0,33,0.0,2.69,0.06,0.44
1647,0,33,0.0,2.67,0.06,0.49
1648,0,33,0.0,2.65,0.05,0.49
1649,0,33,0.0,2.65,0.05,0.49
1650,0,33,0.0,2.63,0.05,0.56
1651,0,33,0.0,2.63,0.05,0.56
1652,0,33,0.0,2.64,0.05,0.4
1653,0,33,0.0,2.64,0.05,0.4
1654,0,33,0.0,2.64,0.05,0.44
1655,0,33,0.0,2.64,0.05,0.44
1656,0,33,0.0,2.62,0.05,0.47
1657,0,33,0.0,2.61,0.06,0.51
1658,0,33,0.0,2.61,0.06,0.51
1659,0,33,0.0,2.59,0.06,0.34
1660,0,33,0.0,2.59,0.06,0.34
1661,0,33,0.0,2.6,0.05,0.36
1662,0,33,0.0,2.6,0.05,0.36
1663,0,33,0.0,2.6,0.06,0.44
1664,0,33,0.0,2.6,0.06,0.44
1665,0,33,0.0,2.6,0.06,0.35
1666,0,33,0.0,2.6,0.06,0.35
1667,0,33,0.0,2.63,0.05,0.31
1668,0,33,0.0,2.63,0.06,0.3
1669,0,33,0.0,2.63,0.06,0.3
1670,0,33,0.0,2.63,0.05,0.38
1671,0,33,0.0,2.63,0.05,0.38
1672,0,33,0.0,2.61,0.05,0.52
1673,0,33,0.0,2.61,0.05,0.52
1674,0,33,0.0,2.6,0.06,0.47
1675,0,33,0.0,2.6,0.06,0.47
1676,0,33,0.0,2.69,0.08,0.27
1677,0,33,3.091,2.69,0.08,0.27
1678,0,33,3.091,2.69,0.08,0.27
1679,0,33,3.091,2.3,0.38,0.53
1680,0,33,3.091,2.3,0.38,0.53
1681,0,33,3.091,2.32,0.12,0.7
1682,0,33,3.091,2.32,0.12,0.7
1683,0,33,3.091,2.33,0.07,0.65
1684,0,33,3.091,2.32,0.03,0.47
1685,0,33,3.091,2.32,0.03,0.47
1686,0,33,0.0,2.32,0.03,0.47
1687,0,33,0.0,2.32,0.03,0.47
1688,0,33,0.0,2.32,0.03,0.47
1689,0,33,0.0,2.33,0.01,0.52
1690,0,33,0.0,2.29,0.04,0.42
1691,0,33,0.0,2.29,0.04,0.42
1692,0,33,0.0,2.33,0.03,0.78
1693,0,33,0.0,2.33,0.03,0.78
1694,0,33,0.0,2.34,0.04,0.29
1695,0,33,0.0,2.34,0.04,0.29
1696,0,33,0.0,2.34,0.04,0.31
1697,0,33,0.0,2.34,0.04,0.31
1698,0,33,0.0,2.33,0.04,0.36
1699,0,33,0.0,2.32,0.05,0.37
1700,0,33,0.0,2.32,0.05,0.37
1701,0,33,0.0,2.3,0.04,0.25
1702,0,33,0.0,2.3,0.04,0.25
1703,0,33,0.0,2.27,0.05,0.21
1704,0,33,0.0,2.27,0.05,0.21
1705,0,33,0.0,2.24,0.03,0.02
1706,0,33,0.0,2.24,0.03,0.02
1707,0,33,0.0,2.22,0.04,0.28
1708,0,33,0.0,2.22,0.04,0.28
1709,0,33,0.0,2.22,0.04,0.28
1710,0,33,0.0,2.21,0.04,0.14
1711,0,33,0.0,2.21,0.04,0.14
1712,0,33,0.0,2.22,0.03,0.27
1713,0,33,0.0,2.22,0.03,0.27
1714,0,33,0.0,2.26,0.04,0.17
1715,0,33,0.0,2.26,0.04,0.17
1716,0,33,0.0,2.25,0.03,0.4
1717,0,33,0.0,2.25,0.03,0.4
1718,0,33,0.0,2.25,0.04,0.29
1719,0,33,0.0,2.25,0.04,0.29
1720,0,33,0.0,2.25,0.04,0.29
1721,0,33,0.0,2.25,0.02,0.09
1722,0,33,0.0,2.25,0.02,0.09
1723,0,33,0.0,2.24,0.02,0.14
1724,0,33,0.0,2.24,0.02,0.14
1725,0,33,0.0,2.25,0.04,0.35
1726,0,33,0.0,2.25,0.04,0.35
1727,0,33,0.0,2.28,0.06,0.34
1728,0,33,0.0,2.29,0.04,0.36
1729,0,33,0.0,2.29,0.04,0.36
1730,0,33,0.0,2.29,0.04,0.36
1731,0,33,0.0,2.31,0.04,0.16
1732,0,33,0.0,2.29,0.06,0.23
1733,0,33,0.0,2.29,0.06,0.23
1734,0,33,0.0,2.31,0.04,0.06
1735,0,33,0.0,2.31,0.04,0.06
1736,0,33,0.0,2.32,0.03,0.05
1737,0,33,0.0,2.32,0.03,0.05
1738,0,33,0.0,2.33,0.04,0.09
1739,0,33,0.0,2.33,0.04,0.09
1740,0,33,0.0,2.33,0.04,0.09
1741,0,33,0.0,2.38,0.06,0.12
1742,0,33,0.0,2.38,0.06,0.12
1743,0,33,0.0,2.35,0.05,0.16
1744,0,33,0.0,2.35,0.05,0.16
1745,0,33,0.0,2.35,0.04,-0.02
1746,0,33,0.0,2.35,0.04,-0.02
1747,0,33,0.0,2.35,0.02,0.22
1748,0,33,0.0,2.35,0.02,0.22
1749,0,33,0.0,2.36,0.03,0.12
1750,0,33,0.0,2.36,0.03,0.12
1751,0,33,0.0,2.33,0.03,0.14
1752,0,33,0.0,2.34,0.04,0.2
1753,0,33,0.0,2.34,0.04,0.2
1754,0,33,0.0,2.35,0.04,0.2
1755,0,33,0.0,2.35,0.04,0.2
1756,0,33,0.0,2.34,0.03,0.1
1757,0,33,0.0,2.34,0.03,0.1
1758,0,33,0.0,2.32,0.03,0.11
1759,0,33,0.0,2.31,0.03,0.11
1760,0,33,0.0,2.31,0.03,0.11
1761,0,33,0.0,2.31,0.03,0.11
1762,0,33,0.0,2.31,0.03,0.11
1763,0,33,0.0,2.27,0.02,0.0
1764,0,33,0.0,2.27,0.02,0.0
1765,0,33,0.0,2.25,0.04,0.06
1766,0,33,0.0,2.25,0.04,0.06
1767,0,33,0.0,2.24,0.05,0.16
1768,0,33,0.0,2.24,0.05,0.16
1769,0,33,0.0,2.24,0.04,0.05
1770,0,33,0.0,2.24,0.04,0.05
1771,0,33,0.0,2.22,0.04,0.02
1772,0,33,0.0,2.22,0.04,0.02
1773,0,33,0.0,2.22,0.04,0.02
1774,0,33,0.0,2.21,0.04,0.02
1775,0,33,0.0,2.21,0.04,0.02
1776,0,33,0.0,2.21,0.04,0.11
1777,0,33,0.0,2.21,0.04,0.11
1778,0,33,0.0,2.19,0.03,0.14
1779,0,33,0.0,2.19,0.03,0.14
1780,0,33,0.0,2.19,0.03,0.14
1781,0,33,0.0,2.18,0.03,0.15
1782,0,33,0.0,2.18,0.03,0.15
1783,0,33,0.0,2.18,0.02,0.13
1784,0,33,0.0,2.18,0.02,0.13
1785,0,33,0.0,2.16,0.03,0.13
1786,0,33,0.0,2.16,0.03,0.13
1787,0,33,0.0,2.16,0.04,0.04
1788,0,33,0.0,2.16,0.04,0.04
1789,0,33,0.0,2.16,0.04,0.02
1790,0,33,0.0,2.16,0.04,0.02
1791,0,33,0.0,2.16,0.03,-0.01
1792,0,33,0.0,2.16,0.03,-0.01
1793,0,33,0.0,2.16,0.03,0.0
1794,0,33,0.0,2.16,0.03,-0.06
1795,0,33,0.0,2.16,0.03,-0.06
1796,0,33,0.0,2.16,0.02,-0.18
1797,0,33,0.0,2.16,0.02,-0.18
1798,0,33,0.0,2.15,0.01,-0.11
1799,0,33,0.0,2.15,0.01,-0.11
1800,0,33,0.0,2.17,0.03,-0.18
1801,0,33,0.0,2.17,0.03,-0.18
1802,0,33,0.0,2.15,0.03,0.01
1803,0,33,0.0,2.15,0.03,0.01
1804,0,33,0.0,2.15,0.03,0.01
1805,0,33,0.0,2.13,0.04,0.12
1806,0,33,0.0,2.13,0.04,0.12
1807,0,33,0.0,2.12,0.03,0.24
1808,0,33,0.0,2.12,0.03,0.24
1809,0,33,0.0,2.1,0.04,0.26
1810,0,33,0.0,2.1,0.04,0.26
1811,0,33,0.0,2.09,0.03,0.18
1812,0,33,0.0,2.07,0.04,0.29
1813,0,33,0.0,2.07,0.04,0.29
1814,0,33,0.0,2.07,0.04,0.29
1815,0,33,0.0,2.07,0.04,0.29
1816,0,33,0.0,2.0,0.05,0.17
1817,0,33,0.0,2.0,0.05,0.17
1818,0,33,0.0,2.04,0.04,0.1
1819,0,33,0.0,2.04,0.04,0.1
1820,0,33,0.0,2.05,0.02,-0.05
1821,0,33,0.0,2.05,0.02,-0.05
1822,0,33,0.0,2.05,0.04,-0.12
1823,0,33,0.0,2.05,0.04,-0.12
1824,0,33,0.0,2.06,0.03,-0.09
1825,0,33,0.0,2.06,0.04,-0.09
1826,0,33,0.0,2.06,0.04,-0.09
1827,0,33,0.0,2.06,0.03,-0.07
1828,0,33,0.0,2.06,0.03,-0.07
1829,0,33,0.0,2.07,0.04,-0.09
1830,0,33,0.0,2.07,0.04,-0.09
1831,0,33,0.0,2.06,0.01,-0.11
1832,0,33,0.0,2.07,0.01,-0.27
1833,0,33,0.0,2.07,0.01,-0.27
1834,0,33,0.0,2.07,0.03,-0.22
1835,0,33,0.0,2.07,0.03,-0.22
1836,0,33,0.0,2.1,0.03,-0.13
1837,0,33,0.0,2.1,0.03,-0.13
1838,0,33,0.0,2.1,0.03,-0.12
1839,0,33,0.0,2.1,0.03,-0.12
1840,0,33,0.0,2.08,0.0,0.03
1841,0,33,0.0,2.08,0.0,0.03
1842,0,33,0.0,2.06,0.03,0.03
1843,0,33,0.0,2.06,0.03,0.03
1844,0,33,0.0,2.06,0.03,0.03
1845,0,33,0.0,2.06,0.03,0.03
1846,0,33,0.0,2.06,0.03,0.03
1847,0,33,0.0,2.05,0.0,0.04
1848,0,33,0.0,2.05,0.0,0.04
1849,0,33,0.0,2.05,0.02,0.06
1850,0,33,0.0,2.05,0.02,0.06
1851,0,33,0.0,2.06,0.03,-0.07
1852,0,33,0.0,2.06,0.03,-0.07
1853,0,33,0.0,2.05,0.03,-0.03
1854,0,33,0.0,2.05,0.03,-0.03
1855,0,33,0.0,2.02,0.02,0.08
1856,0,33,0.0,2.02,0.02,0.08
1857,0,33,0.0,2.02,0.02,0.08
1858,0,33,0.0,2.05,0.03,-0.11
1859,0,33,0.0,2.05,0.03,-0.11
1860,0,33,0.0,2.04,0.03,0.0
1861,0,33,0.0,2.04,0.03,0.0
1862,0,33,0.0,2.11,0.03,-0.16
1863,0,33,0.0,2.11,0.03,-0.16
1864,0,33,0.0,2.13,0.03,0.21
1865,0,33,0.0,2.13,0.03,0.21
1866,0,33,0.0,2.05,0.03,0.75
1867,0,33,0.0,2.03,0.03,0.66
1868,0,33,0.0,2.03,0.03,0.66
1869,0,33,0.0,2.04,0.06,0.76
1870,0,33,0.0,2.04,0.06,0.76
1871,0,33,0.0,1.98,0.05,0.89
1872,0,33,0.0,1.98,0.05,0.89
1873,0,33,0.0,1.96,0.02,0.44
1874,0,33,0.0,1.96,0.02,0.44
1875,0,33,0.0,1.96,0.04,0.87
1876,0,33,0.0,1.94,0.06,0.98
1877,0,33,0.0,1.94,0.06,0.98
1878,0,33,0.0,1.95,0.11,0.64
1879,0,33,0.0,1.95,0.11,0.64
1880,0,33,0.0,1.9,0.1,0.62
1881,0,33,0.0,1.9,0.1,0.62
1882,0,33,0.0,1.89,0.11,0.83
1883,0,33,0.0,1.89,0.11,0.83
1884,0,33,0.0,1.9,0.18,0.67
1885,0,33,0.0,1.9,0.18,0.67
1886,0,33,0.0,1.85,-0.03,0.73
1887,0,33,0.0,1.85,-0.03,0.73
1888,0,33,0.0,1.85,-0.03,0.73
1889,0,33,0.0,1.88,-0.07,0.66
1890,0,33,0.0,1.88,-0.07,0.66
1891,0,33,0.0,1.81,-0.07,0.79
1892,0,33,0.0,1.81,-0.07,0.79
1893,0,33,0.0,1.82,-0.04,0.61
1894,0,33,0.0,1.82,-0.04,0.61
1895,0,33,0.0,1.8,-0.02,0.66
1896,0,33,0.0,1.8,-0.02,0.66
1897,0,33,0.0,1.79,0.01,0.6
1898,0,33,0.0,1.77,-0.01,0.64
1899,0,33,0.0,1.77,-0.01,0.64
1900,0,33,0.0,1.75,-0.01,0.58
1901,0,33,0.0,1.75,-0.01,0.58
1902,0,66,0.0,1.75,-0.03,0.74
1903,0,33,0.0,1.75,-0.03,0.74
1904,0,33,0.0,1.82,0.06,0.54
1905,0,33,0.0,1.82,0.06,0.54
1906,0,33,0.0,1.8,0.04,0.56
1907,0,33,0.0,1.8,0.04,0.56
1908,0,33,0.0,1.8,0.04,0.56
1909,0,33,0.0,1.72,-0.21,0.91
1910,0,33,0.0,1.72,-0.21,0.91
1911,0,33,0.0,1.77,0.16,1.01
1912,0,33,0.0,1.77,0.16,1.01
1913,0,33,0.0,1.77,-0.18,1.01
1914,0,33,0.0,1.85,-0.04,0.59
1915,0,33,0.0,1.85,-0.04,0.59
1916,0,33,0.0,1.84,-0.04,0.8
1917,0,33,0.0,1.84,-0.04,0.8
1918,0,33,0.0,1.78,0.3,1.0
1919,0,33,0.0,1.78,0.3,1.0
1920,0,33,0.0,1.79,-0.11,0.98
1921,0,33,0.0,1.79,-0.11,0.98
1922,0,33,0.0,1.77,0.3,0.57
1923,0,33,0.0,1.77,0.3,0.57
1924,0,33,0.0,1.79,0.01,0.59
1925,0,33,0.0,1.79,0.01,0.59
1926,0,33,0.0,1.75,-0.15,0.87
1927,0,33,0.0,1.75,-0.15,0.87
1928,0,33,0.0,1.74,-0.23,0.94
1929,0,33,0.0,1.74,-0.23,0.94
1930,0,33,0.0,1.72,0.09,0.99
1931,0,33,0.0,1.67,-0.18,0.91
1932,0,33,0.0,1.67,-0.18,0.91
1933,0,33,0.0,1.67,0.16,0.68
1934,0,33,0.0,1.67,0.16,0.68
1935,0,33,0.0,1.52,0.03,0.74
1936,0,33,0.0,1.52,0.03,0.74
1937,0,33,0.0,1.52,0.03,0.74
1938,0,33,0.0,1.56,-0.05,0.63
1939,0,33,0.0,1.56,-0.05,0.63
1940,0,33,0.0,1.51,0.0,1.1
1941,0,33,0.0,1.51,0.0,1.1
1942,0,33,0.0,1.51,0.01,0.46
1943,0,33,0.0,1.51,0.01,0.46
1944,0,33,0.0,1.5,0.01,0.53
1945,0,33,0.0,1.5,0.01,0.53
1946,0,33,0.0,1.5,0.01,0.53
1947,0,33,0.0,1.5,0.01,0.53
1948,0,33,0.0,1.5,0.01,0.53
1949,0,33,0.0,1.5,0.01,0.53
1950,0,33,0.0,1.5,0.01,0.53
1951,0,33,0.0,1.43,0.03,0.63
1952,0,33,0.0,1.43,0.03,0.63
1953,0,33,0.0,1.37,0.06,0.93
1954,0,33,0.0,1.37,0.06,0.93
1955,0,33,0.0,1.36,0.04,0.37
1956,0,33,0.0,1.36,0.04,0.37
1957,0,33,0.0,1.35,0.04,0.16
1958,0,33,0.0,1.35,0.04,0.16
1959,0,33,0.0,1.36,0.04,-0.08
1960,0,33,0.0,1.36,0.04,-0.08
1961,0,33,0.0,1.36,0.04,-0.08
1962,0,33,0.0,1.34,0.03,-0.07
1963,0,33,0.0,1.34,0.03,-0.07
1964,0,33,0.0,1.33,0.03,-0.03
1965,0,33,0.0,1.33,0.03,-0.03
1966,0,33,0.0,1.32,0.04,0.0
1967,0,33,0.0,1.32,0.04,0.0
1968,0,33,0.0,1.31,0.04,-0.09
1969,0,33,0.0,1.31,0.04,-0.09
1970,0,33,0.0,1.33,0.03,-0.06
1971,0,33,0.0,1.33,0.03,-0.06
1972,0,33,0.0,1.33,0.03,-0.02
1973,0,33,0.0,1.34,0.03,-0.09
1974,0,33,0.0,1.34,0.03,-0.09
1975,0,33,0.0,1.33,0.02,-0.05
1976,0,33,0.0,1.33,0.02,-0.05
1977,0,33,0.0,1.32,0.03,-0.1
1978,0,33,0.0,1.32,0.03,-0.1
1979,0,33,0.0,1.33,0.02,-0.12
1980,0,33,0.0,1.33,0.02,-0.12
1981,0,33,0.0,1.33,0.02,-0.14
1982,0,33,0.0,1.33,0.02,-0.16
1983,0,33,0.0,1.33,0.02,-0.16
1984,0,33,0.0,1.33,0.02,-0.09
1985,0,33,0.0,1.33,0.02,-0.09
1986,0,33,0.0,1.33,0.04,-0.13
1987,0,33,0.0,1.33,0.04,-0.13
1988,0,33,0.0,1.31,0.03,-0.09
1989,0,33,0.0,1.31,0.03,-0.09
1990,0,33,0.0,1.31,0.03,-0.09
1991,0,33,0.0,1.31,0.03,-0.11
1992,0,33,0.0,1.31,0.03,-0.11
1993,0,33,0.0,1.32,0.03,-0.08
1994,0,33,0.0,1.32,0.03,-0.08
1995,0,33,0.0,1.31,0.03,-0.07
1996,0,33,0.0,1.31,0.03,-0.07
1997,0,33,0.0,1.32,0.03,-0.16
1998,0,33,0.0,1.32,0.03,-0.16
1999,0,33,0.0,1.31,0.03,-0.01
2000,0,33,0.0,1.31,0.03,-0.01
2001,0,33,0.0,1.28,0.03,0.0
2002,0,33,0.0,1.28,0.03,0.0
2003,0,33,0.0,1.28,0.03,0.0
2004,0,33,0.0,1.26,0.03,-0.08
2005,0,33,0.0,1.26,0.03,-0.08
2006,0,33,0.0,1.25,0.03,-0.08
2007,0,33,0.0,1.25,0.03,-0.08
2008,0,33,0.0,1.25,0.04,-0.06
2009,0,33,0.0,1.25,0.04,-0.06
2010,0,33,0.0,1.23,0.03,-0.14
2011,0,33,0.0,1.23,0.03,-0.14
2012,0,33,0.0,1.2,0.03,-0.19
2013,0,33,0.0,1.2,0.03,-0.19
2014,0,33,0.0,1.2,0.03,-0.19
2015,0,33,0.0,1.19,0.03,-0.32
2016,0,33,0.0,1.19,0.03,-0.32
2017,0,33,0.0,1.2,0.01,-0.33
2018,0,33,0.0,1.2,0.01,-0.33
2019,0,33,0.0,1.2,0.01,-0.32
2020,0,33,0.0,1.2,0.01,-0.32
2021,0,33,0.0,1.21,0.01,-0.28
2022,0,33,0.0,1.21,0.01,-0.28
2023,0,33,0.0,1.22,0.01,-0.29
2024,0,33,0.0,1.21,0.01,-0.17
2025,0,33,0.0,1.21,0.01,-0.17
2026,0,33,0.0,1.19,0.0,-0.29
2027,0,33,0.0,1.19,0.0,-0.29
2028,0,33,0.0,1.19,0.01,-0.2
2029,0,33,0.0,1.19,0.01,-0.2
2030,0,33,0.0,1.18,0.03,-0.06
2031,0,33,0.0,1.18,0.03,-0.06
2032,0,33,0.0,1.19,0.03,-0.02
2033,0,33,0.0,1.19,0.03,-0.02
2034,0,33,0.0,1.19,0.02,0.0
2035,0,33,0.0,1.19,0.02,-0.02
2036,0,33,0.0,1.19,0.02,-0.02
2037,0,33,0.0,1.19,0.02,-0.06
2038,0,33,0.0,1.19,0.02,-0.06
2039,0,33,0.0,1.19,0.03,-0.05
