time*0.5 [s],altitude [cm],rotation [rpm],airspeed [m/s],yaw [deg],pitch [deg],roll [deg]
1,0,8503,0.033,0.66,0.0,-48.87
2,0,66,0.0,-48.86,0.26,0.86
3,0,66,0.0,-48.86,0.26,0.86
4,0,66,0.0,-48.88,0.26,1.06
5,0,66,0.0,-48.88,0.26,1.06
6,0,66,0.0,-48.88,0.26,1.06
7,0,66,0.0,-48.87,0.27,1.05
8,0,66,0.0,-48.87,0.27,1.05
9,0,66,0.0,-48.91,0.28,1.09
10,0,66,0.0,-48.91,0.28,1.09
11,0,66,0.0,-48.91,0.26,1.08
12,0,66,0.0,-48.91,0.26,1.08
13,0,66,0.0,-48.94,0.27,1.16
14,0,66,0.0,-48.94,0.27,1.16
15,0,66,0.0,-48.96,0.27,1.19
16,0,66,0.0,-48.96,0.27,1.19
17,0,66,0.0,-48.96,0.27,1.19
18,0,66,0.0,-48.96,0.28,1.16
19,0,66,0.0,-48.96,0.28,1.16
20,0,66,0.0,-48.98,0.27,1.18
21,0,66,0.0,-48.98,0.27,1.18
22,0,66,0.0,-48.99,0.26,1.22
23,0,66,0.0,-48.99,0.26,1.22
24,0,66,0.0,-48.99,0.27,1.24
25,0,66,0.0,-48.99,0.27,1.24
26,0,66,0.0,-49.0,0.26,1.24
27,0,66,0.0,-49.0,0.26,1.23
28,0,66,0.0,-49.0,0.26,1.23
29,0,66,0.0,-49.0,0.27,1.18
30,0,66,0.0,-48.98,0.27,1.21
31,0,66,0.0,-48.99,0.27,1.25
32,0,66,0.0,-48.99,0.27,1.25
33,0,66,0.0,-48.99,0.27,1.25
34,0,66,0.0,-48.99,0.27,1.25
35,0,66,0.0,-49.0,0.26,1.24
36,0,66,0.0,-49.0,0.26,1.24
37,0,66,0.0,-49.0,0.26,1.27
38,0,66,0.0,-49.01,0.26,1.28
39,0,66,0.0,-49.01,0.26,1.28
40,0,66,0.0,-49.0,0.28,1.26
41,0,66,0.0,-49.0,0.28,1.26
42,0,66,0.0,-49.01,0.28,1.23
43,0,66,0.0,-49.01,0.28,1.23
44,0,66,0.0,-49.02,0.28,1.24
45,0,66,0.0,-49.02,0.28,1.24
46,0,66,0.0,-49.03,0.28,1.25
47,0,66,0.0,-49.03,0.27,1.25
48,0,66,0.0,-49.03,0.27,1.25
49,0,66,0.0,-49.04,0.28,1.27
50,0,66,0.0,-49.04,0.28,1.27
51,0,66,0.0,-49.05,0.28,1.25
52,0,66,0.0,-49.05,0.28,1.25
53,0,66,0.0,-49.04,0.28,1.33
54,0,66,0.0,-49.04,0.28,1.33
55,0,66,0.0,-49.07,0.27,1.24
56,0,66,0.0,-49.07,0.27,1.24
57,0,66,0.0,-49.07,0.26,0.86
58,0,66,0.0,-49.07,0.26,0.86
59,0,66,0.0,-49.07,0.26,0.86
60,0,66,0.0,-49.1,0.25,0.82
61,0,66,0.0,-49.1,0.25,0.82
62,0,66,0.0,-49.1,0.24,0.73
63,0,66,0.0,-49.1,0.24,0.73
64,0,66,0.0,-49.09,0.27,0.62
65,0,66,0.0,-49.09,0.27,0.62
66,0,66,0.0,-49.09,0.28,0.65
67,0,66,0.0,-49.09,0.28,0.65
68,0,66,0.0,-49.08,0.27,0.68
69,0,66,0.0,-49.08,0.28,0.66
70,0,66,0.0,-49.08,0.28,0.66
71,0,66,0.0,-49.1,0.27,0.77
72,0,66,0.0,-49.1,0.27,0.77
73,0,66,0.0,-49.1,0.26,0.61
74,0,66,0.0,-49.1,0.26,0.61
75,0,66,0.0,-49.1,0.25,0.62
76,0,66,0.0,-49.1,0.25,0.62
77,0,66,0.0,-49.11,0.28,0.65
78,0,66,0.0,-49.11,0.28,0.65
79,0,66,0.0,-49.12,0.27,0.63
80,0,66,0.0,-49.12,0.26,0.62
81,0,66,0.0,-49.12,0.26,0.62
82,0,66,0.0,-49.12,0.26,0.67
83,0,66,0.0,-49.12,0.26,0.67
84,0,66,0.0,-49.14,0.24,0.47
85,0,66,0.0,-49.14,0.24,0.47
86,0,66,0.0,-49.14,0.24,0.47
87,0,66,0.0,-49.14,0.24,0.47
88,0,66,0.0,-49.14,0.24,0.47
89,0,66,0.0,-49.14,0.24,0.47
90,0,66,0.0,-49.14,0.24,0.47
91,0,66,0.0,-49.12,0.25,0.37
92,0,66,0.0,-49.12,0.25,0.37
93,0,66,0.0,-49.15,0.24,0.53
94,0,66,0.0,-49.15,0.24,0.53
95,0,66,0.0,-49.13,0.24,0.61
96,0,66,0.0,-49.13,0.24,0.61
97,0,66,0.0,-49.14,0.25,0.55
98,0,66,0.0,-49.14,0.25,0.55
99,0,66,0.0,-49.15,0.26,0.59
100,0,66,0.0,-49.15,0.26,0.59
101,0,66,0.0,-49.15,0.26,0.59
102,0,66,0.0,-49.14,0.27,0.69
103,0,66,0.0,-49.14,0.27,0.69
104,0,66,0.0,-49.12,0.27,0.74
105,0,66,0.0,-49.12,0.27,0.74
106,0,66,0.0,-49.13,0.27,0.84
107,0,66,0.0,-49.13,0.27,0.84
108,0,66,0.0,-49.15,0.28,0.83
109,0,66,0.0,-49.15,0.28,0.83
110,0,66,0.0,-49.15,0.27,0.93
111,0,66,0.0,-49.15,0.28,0.96
112,0,66,0.0,-49.15,0.28,0.96
113,0,66,0.0,-49.13,0.26,0.87
114,0,66,0.0,-49.13,0.26,0.87
115,0,66,0.0,-49.13,0.26,0.78
116,0,66,0.0,-49.13,0.26,0.78
117,0,66,0.0,-49.15,0.26,0.78
118,0,66,0.0,-49.15,0.26,0.78
119,0,66,0.0,-49.2,0.27,0.84
120,0,66,0.0,-49.2,0.27,0.84
121,0,66,0.0,-49.21,0.27,0.61
122,0,66,0.0,-49.2,0.25,0.65
123,0,66,0.0,-49.2,0.25,0.65
124,0,66,0.0,-49.22,0.27,0.71
125,0,66,0.0,-49.22,0.27,0.71
126,0,66,0.0,-49.21,0.26,0.78
127,0,66,0.0,-49.21,0.26,0.78
128,0,66,0.0,-49.22,0.24,0.76
129,0,66,0.0,-49.22,0.24,0.76
130,0,66,0.0,-49.25,0.26,0.81
131,0,66,0.0,-49.25,0.26,0.81
132,0,66,0.0,-49.28,0.25,0.86
133,0,66,0.0,-49.28,0.26,0.8
134,0,66,0.0,-49.28,0.26,0.8
135,0,66,0.0,-49.28,0.27,0.94
136,0,66,0.0,-49.28,0.27,0.94
137,0,66,0.0,-49.29,0.26,0.94
138,0,66,0.0,-49.29,0.26,0.94
139,0,66,0.0,-49.3,0.26,1.06
140,0,66,0.0,-49.3,0.26,1.06
141,0,66,0.0,-49.31,0.27,1.09
142,0,66,0.0,-49.31,0.27,1.09
143,0,66,0.0,-49.31,0.27,1.09
144,0,66,0.0,-49.31,0.25,1.09
145,0,66,0.0,-49.31,0.25,1.09
146,0,66,0.0,-49.32,0.25,1.12
147,0,66,0.0,-49.32,0.25,1.12
148,0,66,0.0,-49.34,0.27,1.08
149,0,66,0.0,-49.34,0.27,1.08
150,0,66,0.0,-49.35,0.27,1.08
151,0,66,0.0,-49.35,0.27,1.08
152,0,66,0.0,-49.37,0.28,1.16
153,0,66,0.0,-49.37,0.28,1.18
154,0,66,0.0,-49.37,0.28,1.18
155,0,66,0.0,-49.37,0.28,1.13
156,0,66,0.0,-49.37,0.28,1.13
157,0,66,0.0,-49.39,0.27,0.86
158,0,66,0.0,-49.39,0.27,0.86
159,0,66,0.0,-49.4,0.26,0.87
160,0,66,0.0,-49.4,0.26,0.87
161,0,66,0.0,-49.38,0.26,0.6
162,0,66,0.0,-49.38,0.26,0.6
163,0,66,0.0,-49.42,0.27,0.59
164,0,66,0.0,-49.41,0.26,0.52
165,0,66,0.0,-49.41,0.26,0.52
166,0,66,0.0,-49.44,0.25,0.33
167,0,66,0.0,-49.44,0.25,0.33
168,0,66,0.0,-49.48,0.26,0.36
169,0,66,0.0,-49.47,0.25,0.34
170,0,66,0.0,-49.47,0.25,0.34
171,0,66,0.0,-49.52,0.27,0.41
172,0,66,0.0,-49.52,0.27,0.41
173,0,66,0.0,-49.52,0.27,0.41
174,0,66,0.0,-49.54,0.28,0.8
175,0,66,0.0,-49.57,0.26,0.61
176,0,66,0.0,-49.57,0.26,0.61
177,0,66,0.0,-49.54,0.26,0.59
178,0,66,0.0,-49.54,0.26,0.59
179,0,66,0.0,-49.53,0.25,0.41
180,0,66,0.0,-49.53,0.25,0.41
181,0,66,0.0,-49.48,0.26,0.32
182,0,66,0.0,-49.48,0.26,0.32
183,0,66,0.0,-49.48,0.26,0.32
184,0,66,0.0,-49.45,0.27,0.5
185,0,66,0.0,-49.45,0.27,0.5
186,0,66,0.0,-49.43,0.29,0.5
187,0,66,0.0,-49.43,0.29,0.5
188,0,66,0.0,-49.42,0.29,0.67
189,0,66,0.0,-49.42,0.29,0.67
190,0,66,0.0,-49.42,0.26,0.62
191,0,66,0.0,-49.42,0.26,0.62
192,0,66,0.0,-49.39,0.29,0.66
193,0,66,0.0,-49.39,0.29,0.66
194,0,66,0.0,-49.4,0.26,0.74
195,0,66,0.0,-49.42,0.27,0.7
196,0,66,0.0,-49.42,0.27,0.7
197,0,66,0.0,-49.4,0.25,0.73
198,0,66,0.0,-49.4,0.25,0.73
199,0,66,0.0,-49.39,0.26,0.62
200,0,66,0.0,-49.39,0.26,0.62
201,0,66,0.0,-49.41,0.25,0.6
202,0,66,0.0,-49.41,0.25,0.6
203,0,66,0.0,-49.39,0.25,0.55
204,0,66,0.0,-49.39,0.25,0.5
205,0,66,0.0,-49.39,0.25,0.5
206,0,66,0.0,-49.39,0.26,0.6
207,0,66,0.0,-49.39,0.26,0.6
208,0,66,0.0,-49.39,0.28,0.57
209,0,66,0.0,-49.39,0.28,0.57
210,0,66,0.0,-49.39,0.26,0.52
211,0,66,0.0,-49.39,0.26,0.52
212,0,66,0.0,-49.41,0.26,0.54
213,0,66,0.0,-49.41,0.26,0.54
214,0,66,0.0,-49.43,0.26,0.54
215,0,66,0.0,-49.43,0.26,0.54
216,0,66,0.0,-49.43,0.26,0.54
217,0,66,0.0,-49.43,0.26,0.5
218,0,66,0.0,-49.43,0.26,0.5
219,0,66,0.0,-49.45,0.25,0.55
220,0,66,0.0,-49.45,0.25,0.55
221,0,66,0.0,-49.45,0.26,0.52
222,0,66,0.0,-49.45,0.26,0.52
223,0,66,0.0,-49.45,0.26,0.5
224,0,66,0.0,-49.45,0.26,0.5
225,0,66,0.0,-49.45,0.25,0.5
226,0,66,0.0,-49.45,0.25,0.5
227,0,66,0.0,-49.45,0.25,0.5
228,0,66,0.0,-49.47,0.26,0.59
229,0,66,0.0,-49.47,0.26,0.59
230,0,66,0.0,-49.46,0.26,0.51
231,0,66,0.0,-49.46,0.26,0.51
232,0,66,0.0,-49.48,0.24,0.54
233,0,66,0.0,-49.48,0.24,0.54
234,0,66,0.0,-49.48,0.25,0.55
235,0,66,0.0,-49.48,0.25,0.55
236,0,66,0.0,-49.48,0.24,0.51
237,0,66,0.0,-49.47,0.25,0.51
238,0,66,0.0,-49.47,0.25,0.51
239,0,66,0.0,-49.47,0.27,0.79
240,0,66,0.0,-49.47,0.27,0.79
241,0,66,0.0,-49.52,0.25,0.54
242,0,66,0.0,-49.52,0.25,0.54
243,0,66,0.0,-49.52,0.25,0.54
244,0,66,0.0,-49.55,0.25,0.26
245,0,66,0.0,-49.55,0.25,0.26
246,0,66,0.0,-49.55,0.25,0.26
247,0,66,0.0,-49.55,0.25,0.26
248,0,66,0.0,-49.54,0.26,0.25
249,0,66,0.0,-49.54,0.26,0.25
250,0,66,0.0,-49.54,0.26,0.09
251,0,66,0.0,-49.54,0.26,0.09
252,0,66,0.0,-49.53,0.27,0.08
253,0,66,0.0,-49.53,0.27,0.08
254,0,66,0.0,-49.54,0.26,0.07
255,0,66,0.0,-49.54,0.26,0.07
256,0,66,0.0,-49.54,0.26,0.15
257,0,66,0.0,-49.54,0.26,0.15
258,0,66,0.0,-49.54,0.26,0.09
259,0,66,0.0,-49.54,0.27,0.06
260,0,66,0.0,-49.54,0.27,0.06
261,0,66,0.0,-49.54,0.25,0.18
262,0,66,0.0,-49.54,0.25,0.18
263,0,66,0.0,-49.54,0.25,0.17
264,0,66,0.0,-49.54,0.25,0.17
265,0,66,0.0,-49.57,0.23,0.35
266,0,66,0.0,-49.57,0.23,0.35
267,0,66,0.0,-49.58,0.26,0.22
268,0,66,0.0,-49.54,0.22,0.06
269,0,66,0.0,-49.54,0.22,0.06
270,0,66,0.0,-49.53,0.25,0.14
271,0,66,0.0,-49.53,0.25,0.14
272,0,66,0.0,-49.55,0.24,0.13
273,0,66,0.0,-49.55,0.24,0.13
274,0,66,0.0,-49.54,0.24,0.1
275,0,66,0.0,-49.54,0.24,0.1
276,0,66,0.0,-49.54,0.23,0.24
277,0,66,0.0,-49.54,0.23,0.24
278,0,66,0.0,-49.53,0.21,0.2
279,0,66,0.0,-49.52,0.22,0.18
280,0,66,0.0,-49.52,0.22,0.18
281,0,66,0.0,-49.54,0.17,0.19
282,0,66,0.0,-49.54,0.17,0.19
283,0,66,0.0,-49.54,0.2,0.15
284,0,66,0.0,-49.54,0.2,0.15
285,0,66,0.0,-49.54,0.21,0.43
286,0,66,0.0,-49.54,0.21,0.43
287,0,66,0.0,-49.55,0.19,0.34
288,0,66,0.0,-49.55,0.22,0.24
289,0,66,0.0,-49.55,0.22,0.24
290,0,66,0.0,-49.54,0.19,0.3
291,0,66,0.0,-49.54,0.19,0.3
292,0,66,0.0,-49.57,0.2,0.37
293,0,66,0.0,-49.57,0.2,0.37
294,0,66,0.0,-49.56,0.18,0.36
295,0,66,0.0,-49.56,0.18,0.36
296,0,66,0.0,-49.55,0.22,0.47
297,0,66,0.0,-49.55,0.22,0.47
298,0,66,0.0,-49.56,0.21,0.59
299,0,66,0.0,-49.56,0.21,0.59
300,0,66,0.0,-49.56,0.21,0.59
301,0,66,0.0,-49.56,0.21,0.45
302,0,66,0.0,-49.56,0.21,0.45
303,0,66,0.0,-49.56,0.23,0.56
304,0,66,0.0,-49.56,0.23,0.56
305,0,66,0.0,-49.6,0.23,0.72
306,0,66,0.0,-49.6,0.23,0.72
307,0,66,0.0,-49.63,0.24,0.73
308,0,66,0.0,-49.63,0.24,0.73
309,0,66,0.0,-49.52,0.17,0.26
310,0,66,0.0,-49.55,0.17,0.39
311,0,66,0.0,-49.55,0.17,0.39
312,0,66,0.0,-49.56,0.28,1.02
313,0,66,0.0,-49.56,0.28,1.02
314,0,66,0.0,-49.63,0.12,0.68
315,0,66,0.0,-49.63,0.12,0.68
316,0,66,0.0,-49.63,0.15,0.75
317,0,66,0.0,-49.63,0.15,0.75
318,0,66,0.0,-49.58,0.14,0.71
319,0,66,0.0,-49.58,0.14,0.71
320,0,66,0.0,-49.65,0.17,0.34
321,0,66,0.0,-49.63,0.14,0.39
322,0,66,0.0,-49.63,0.14,0.39
323,0,66,0.0,-49.68,0.12,0.41
324,0,66,0.0,-49.68,0.12,0.41
325,0,66,0.0,-49.69,0.15,0.79
326,0,66,0.0,-49.69,0.15,0.79
327,0,66,0.0,-49.69,0.14,0.73
328,0,66,0.0,-49.69,0.14,0.73
329,0,66,0.0,-49.71,0.15,0.9
330,0,66,0.0,-49.73,0.01,1.1
331,0,66,0.0,-49.73,0.01,1.1
332,0,66,0.0,-49.77,-0.04,1.39
333,0,66,0.0,-49.77,-0.04,1.39
334,0,33,0.0,-49.78,0.03,1.23
335,0,33,0.0,-49.78,0.03,1.23
336,0,33,0.0,-50.26,0.83,1.51
337,0,33,0.0,-50.26,0.83,1.51
338,0,33,0.0,-51.11,2.29,1.33
339,0,33,0.0,-51.11,2.29,1.33
340,0,33,0.0,-52.07,0.96,0.86
341,0,33,0.0,-52.07,0.96,0.86
342,0,66,0.0,-52.07,0.96,0.86
343,0,66,0.0,-53.13,0.76,1.66
344,0,33,0.0,-53.13,0.76,1.66
345,0,33,0.0,-53.99,0.7,1.07
346,0,33,0.0,-53.99,0.7,1.07
347,0,66,0.0,-55.35,0.33,1.58
348,0,33,0.0,-55.35,0.33,1.58
349,0,66,0.0,-55.86,0.47,1.74
350,0,66,0.0,-55.86,0.47,1.74
351,0,33,0.0,-55.86,0.47,1.74
352,0,33,0.0,-56.8,0.03,2.7
353,0,33,0.0,-56.8,0.03,2.7
354,0,66,0.0,-57.8,0.22,2.46
355,1,66,0.0,-57.8,0.22,2.46
356,1,33,0.0,-59.28,0.12,3.08
357,0,33,0.0,-59.28,0.12,3.08
358,0,33,0.0,-60.19,0.15,2.61
359,0,66,0.0,-60.19,0.15,2.61
360,0,33,0.0,-60.32,0.67,1.54
361,0,33,0.0,-60.32,0.67,1.54
362,0,66,0.0,-59.88,0.49,1.42
363,0,66,0.0,-59.89,0.5,1.58
364,1,33,0.0,-59.89,0.5,1.58
365,1,33,0.0,-59.59,0.57,2.59
366,1,33,0.0,-59.59,0.57,2.59
367,0,33,0.0,-58.69,-0.24,2.84
368,0,66,0.0,-58.69,-0.24,2.84
369,0,66,0.0,-57.7,0.22,2.65
370,1,33,0.0,-57.7,0.22,2.65
371,1,33,0.0,-56.74,0.82,2.46
372,0,33,0.0,-56.74,0.82,2.46
373,0,33,0.0,-56.74,0.82,2.46
374,1,66,0.0,-55.75,-0.02,3.3
375,1,33,0.0,-55.75,-0.02,3.3
376,0,33,0.0,-55.08,0.62,2.92
377,0,33,0.0,-55.08,0.62,2.92
378,0,33,0.0,-54.47,0.89,2.2
379,0,33,0.0,-54.47,0.89,2.2
380,0,33,0.0,-53.69,0.26,2.23
381,0,33,0.0,-53.69,0.26,2.23
382,0,66,0.0,-53.33,0.84,3.0
383,0,33,0.0,-53.33,0.84,3.0
384,0,33,0.0,-53.33,0.84,3.0
385,0,33,0.0,-52.99,0.5,2.88
386,0,33,0.0,-52.99,0.5,2.88
387,0,66,0.0,-51.73,-0.11,2.43
388,0,66,0.0,-51.73,-0.11,2.43
389,0,33,0.0,-51.73,-0.11,2.43
390,0,33,0.0,-51.73,-0.11,2.43
391,0,33,0.0,-51.73,-0.11,2.43
392,0,33,0.0,-51.73,-0.11,2.43
393,0,33,0.0,-51.73,-0.11,2.43
394,1,33,0.0,-46.8,0.23,0.77
395,1,66,0.0,-46.8,0.23,0.77
396,1,66,0.0,-46.23,0.46,1.36
397,0,33,0.0,-46.23,0.46,1.36
398,0,66,0.0,-46.04,0.73,2.29
399,0,33,0.0,-46.04,0.73,2.29
400,0,33,0.0,-45.74,0.49,3.08
401,0,66,0.0,-45.74,0.49,3.08
402,0,33,0.0,-43.82,-0.17,3.93
403,0,66,0.0,-43.82,-0.17,3.93
404,0,66,0.0,-42.47,0.13,2.81
405,0,33,0.0,-42.06,0.41,3.14
406,0,33,0.0,-42.06,0.41,3.14
407,0,33,0.0,-41.67,0.0,3.72
408,0,33,0.0,-41.67,0.0,3.72
409,0,33,0.0,-42.39,-0.3,4.11
410,0,33,0.0,-42.39,-0.3,4.11
411,0,33,0.0,-44.45,0.27,4.59
412,0,66,0.0,-44.45,0.27,4.59
413,0,33,0.0,-47.39,1.3,2.84
414,0,66,0.0,-48.5,1.97,2.33
415,0,66,0.0,-48.5,1.97,2.33
416,0,33,0.0,-50.73,1.62,2.56
417,0,66,0.0,-50.73,1.62,2.56
418,0,33,0.0,-52.15,2.57,1.8
419,0,33,0.0,-52.15,2.57,1.8
420,0,33,0.0,-52.81,1.01,-0.52
421,0,33,0.0,-52.81,1.01,-0.52
422,0,33,0.0,-53.16,0.27,-0.02
423,0,33,0.0,-53.16,0.27,-0.02
424,0,33,0.0,-53.8,0.59,0.63
425,0,33,0.0,-53.8,0.59,0.63
426,0,33,0.0,-53.8,0.59,0.63
427,0,33,0.0,-53.84,1.73,-0.5
428,0,33,0.0,-53.84,1.73,-0.5
429,0,33,0.0,-53.94,-0.17,0.08
430,1,33,0.0,-53.94,-0.17,0.08
431,1,33,0.0,-53.97,-0.6,-0.07
432,1,33,0.0,-53.97,-0.6,-0.07
433,1,33,0.0,-53.31,-1.98,0.56
434,1,33,0.0,-53.31,-1.98,0.56
435,0,33,0.0,-52.1,-2.18,1.2
436,0,33,0.0,-51.81,-2.2,1.13
437,0,33,0.0,-51.81,-2.2,1.13
438,0,33,0.0,-51.01,-2.02,1.46
439,0,33,0.0,-51.01,-2.02,1.46
440,0,33,0.0,-50.67,-1.87,1.52
441,0,33,0.0,-50.67,-1.87,1.52
442,0,33,0.0,-50.55,-0.47,1.38
443,0,33,0.0,-50.55,-0.47,1.38
444,0,33,0.0,-50.55,-0.47,1.38
445,0,33,0.0,-50.41,-0.02,1.18
446,0,33,0.0,-50.41,-0.02,1.18
447,0,33,0.0,-50.3,0.16,0.98
448,0,33,0.0,-50.3,0.16,0.98
449,0,33,0.0,-50.19,0.06,0.72
450,0,33,0.0,-50.19,0.06,0.72
451,0,33,0.0,-50.12,0.24,1.26
452,0,33,0.0,-50.12,0.24,1.26
453,0,33,0.0,-50.08,0.29,1.12
454,0,33,0.0,-50.08,0.29,1.12
455,0,33,0.0,-49.95,0.43,0.94
456,0,33,0.0,-49.95,0.43,0.94
457,0,33,0.0,-49.95,0.43,0.94
458,0,33,0.0,-50.11,0.38,1.16
459,0,33,0.0,-50.11,0.38,1.16
460,1,33,0.0,-49.65,0.16,0.95
461,1,33,0.0,-49.65,0.16,0.95
462,1,33,0.0,-49.52,0.19,1.4
463,0,33,0.0,-49.52,0.19,1.4
464,0,33,0.0,-49.54,-1.11,0.95
465,0,33,0.0,-49.54,-1.11,0.95
466,0,33,0.0,-50.33,-0.92,1.19
467,1,33,0.0,-50.33,-0.92,1.19
468,1,33,0.0,-50.33,-0.92,1.19
469,0,33,0.0,-51.08,-0.82,1.43
470,0,33,0.0,-51.08,-0.82,1.43
471,0,33,0.0,-51.56,-0.22,1.57
472,1,33,0.0,-51.56,-0.22,1.57
473,1,33,0.0,-51.73,0.15,1.12
474,1,33,0.0,-51.73,0.15,1.12
475,1,33,0.0,-51.27,-0.28,1.09
476,1,33,0.0,-51.27,-0.28,1.09
477,1,33,0.0,-51.79,0.0,0.99
478,0,33,0.0,-51.7,-0.53,1.11
479,0,33,0.0,-51.7,-0.53,1.11
480,1,33,0.0,-52.23,-0.29,1.07
481,1,33,0.0,-52.23,-0.29,1.07
482,1,33,0.0,-53.05,0.49,0.7
483,0,33,0.0,-53.05,0.49,0.7
484,0,33,0.0,-53.9,0.13,2.14
485,0,33,0.0,-53.9,0.13,2.14
486,0,33,0.0,-54.36,0.53,1.55
487,0,33,0.0,-54.36,0.53,1.55
488,0,33,0.0,-54.51,0.36,1.92
489,0,33,0.0,-54.71,0.43,1.99
490,0,33,0.0,-54.71,0.43,1.99
491,0,33,0.0,-54.97,0.12,1.68
492,0,33,0.0,-54.97,0.12,1.68
493,1,33,0.0,-55.21,0.3,1.37
494,1,33,0.0,-55.21,0.3,1.37
495,1,33,0.0,-54.97,0.13,1.32
496,1,33,0.0,-54.97,0.13,1.32
497,1,33,0.0,-54.25,0.0,1.97
498,1,33,0.0,-53.93,0.94,2.03
499,1,33,0.0,-53.93,0.94,2.03
500,0,33,0.0,-53.95,0.07,1.02
501,0,33,0.0,-53.95,0.07,1.02
502,0,33,0.0,-53.56,-0.68,1.46
503,0,33,0.0,-53.56,-0.68,1.46
504,0,33,0.0,-53.04,0.0,2.56
505,0,33,0.0,-53.04,0.0,2.56
506,0,33,0.0,-52.56,0.36,2.16
507,0,33,0.0,-52.56,0.36,2.16
508,0,33,0.0,-52.01,0.39,1.98
509,0,33,0.0,-52.01,0.39,1.98
510,0,33,0.0,-52.01,0.39,1.98
511,0,33,0.0,-50.97,0.02,2.26
512,0,33,0.0,-50.97,0.02,2.26
513,0,33,0.0,-50.28,1.39,1.87
514,0,33,0.0,-50.28,1.39,1.87
515,0,33,0.0,-50.06,2.32,1.97
516,0,33,0.0,-50.06,2.32,1.97
517,0,33,0.0,-49.98,1.65,1.66
518,0,33,0.0,-49.98,1.65,1.66
519,0,33,0.0,-49.62,0.95,1.07
520,0,33,0.0,-49.56,0.81,1.14
521,0,33,0.0,-49.56,0.81,1.14
522,0,33,0.0,-49.46,0.41,0.92
523,0,33,0.0,-49.46,0.41,0.92
524,0,33,0.0,-49.35,0.14,0.73
525,0,33,0.0,-49.35,0.14,0.73
526,0,33,0.0,-48.59,0.14,0.7
527,0,33,0.0,-48.59,0.14,0.7
528,1,33,0.0,-45.93,0.03,0.83
529,1,33,0.0,-45.93,0.03,0.83
530,0,33,0.0,-42.45,-0.59,-0.01
531,0,33,0.0,-41.87,-0.64,-0.15
532,0,33,0.0,-41.87,-0.64,-0.15
533,0,33,0.0,-40.18,-0.82,0.76
534,0,33,0.0,-40.18,-0.82,0.76
535,0,33,0.0,-39.91,-0.72,0.68
536,0,33,0.0,-39.91,-0.72,0.68
537,0,33,0.0,-40.05,0.27,0.91
538,0,33,0.0,-40.05,0.27,0.91
539,0,33,0.0,-39.92,-0.08,0.94
540,0,33,0.0,-39.92,-0.08,0.94
541,0,33,0.0,-39.84,-0.2,1.13
542,0,33,0.0,-39.7,-1.01,1.26
543,0,33,0.0,-39.7,-1.01,1.26
544,0,33,0.0,-39.57,-1.75,1.1
545,0,33,0.0,-39.57,-1.75,1.1
546,0,33,0.0,-39.78,-1.41,1.8
547,0,33,0.0,-39.78,-1.41,1.8
548,0,33,0.0,-39.35,-0.94,1.53
549,0,33,0.0,-39.35,-0.94,1.53
550,0,33,0.0,-38.41,-0.24,1.84
551,0,33,0.0,-38.41,-0.24,1.84
552,0,33,0.0,-38.41,-0.24,1.84
553,0,33,0.0,-37.79,-0.34,1.78
554,0,33,0.0,-37.79,-0.34,1.78
555,0,33,0.0,-37.51,0.06,2.4
556,0,33,0.0,-37.51,0.06,2.4
557,0,33,0.0,-37.1,-0.06,1.96
558,0,33,0.0,-37.1,-0.06,1.96
559,0,33,0.0,-37.01,-0.12,1.57
560,0,33,0.0,-37.01,-0.12,1.57
561,0,33,0.0,-36.68,0.2,1.59
562,0,33,0.0,-36.65,0.3,1.79
563,0,33,0.0,-36.65,0.3,1.79
564,0,33,0.0,-36.33,0.14,1.28
565,0,33,0.0,-36.33,0.14,1.28
566,0,33,0.0,-36.2,0.13,0.64
567,0,33,0.0,-36.2,0.13,0.64
568,0,33,0.0,-36.72,0.27,0.66
569,0,33,0.0,-36.72,0.27,0.66
570,0,33,0.0,-36.97,0.0,1.65
571,0,33,0.0,-36.97,0.0,1.65
572,0,33,0.0,-37.19,0.23,1.8
573,0,33,0.0,-37.1,-0.03,2.0
574,0,33,0.0,-37.1,-0.03,2.0
575,1,33,0.0,-36.63,0.23,2.59
576,1,33,0.0,-36.63,0.23,2.59
577,1,33,0.0,-36.21,-0.03,1.26
578,1,33,0.0,-36.21,-0.03,1.26
579,1,33,0.0,-35.4,-0.08,1.28
580,0,33,0.0,-35.4,-0.08,1.28
581,0,33,0.0,-35.4,-0.08,1.28
582,0,33,0.0,-35.4,-0.08,1.28
583,0,33,0.0,-34.86,0.49,0.58
584,0,33,0.0,-34.97,-0.05,1.11
585,0,33,0.0,-34.97,-0.05,1.11
586,0,33,0.0,-34.87,0.25,1.44
587,0,33,0.0,-34.87,0.25,1.44
588,0,33,0.0,-34.46,0.34,1.26
589,0,33,0.0,-34.46,0.34,1.26
590,0,33,0.0,-34.32,0.17,2.26
591,0,33,0.0,-34.32,0.17,2.26
592,0,33,0.0,-34.61,0.35,1.67
593,0,33,0.0,-34.61,0.35,1.67
594,0,33,0.0,-34.61,0.35,1.67
595,0,33,0.0,-34.98,0.54,0.75
596,0,33,0.0,-34.98,0.54,0.75
597,0,33,0.0,-35.15,0.31,0.09
598,0,33,0.0,-35.15,0.31,0.09
599,0,33,0.0,-35.42,0.36,0.39
600,0,33,0.0,-35.42,0.36,0.39
601,0,33,0.0,-35.13,0.16,1.28
602,0,33,0.0,-35.13,0.16,1.28
603,0,33,0.0,-34.79,0.08,1.59
604,0,33,0.0,-34.64,-0.01,1.3
605,0,33,0.0,-34.64,-0.01,1.3
606,0,33,0.0,-34.18,0.21,1.12
607,0,33,0.0,-34.18,0.21,1.12
608,0,33,0.0,-33.82,0.16,0.97
609,0,33,0.0,-33.82,0.16,0.97
610,0,33,0.0,-33.29,0.44,1.1
611,0,33,0.0,-33.29,0.44,1.1
612,0,33,0.0,-33.16,0.82,1.77
613,0,33,0.0,-33.39,1.36,1.79
614,0,33,0.0,-33.39,1.36,1.79
615,0,33,0.0,-33.83,2.12,0.99
616,0,33,0.0,-33.83,2.12,0.99
617,1,33,0.0,-33.38,1.72,1.69
618,1,33,0.0,-33.38,1.72,1.69
619,0,33,0.0,-33.17,1.08,1.25
620,0,33,0.0,-33.17,1.08,1.25
621,0,33,0.0,-32.16,0.65,1.06
622,1,33,0.0,-32.16,0.65,1.06
623,1,33,0.0,-31.93,0.6,0.92
624,1,33,0.0,-31.93,0.6,0.92
625,1,33,0.0,-31.76,0.59,0.94
626,1,33,0.0,-31.67,0.92,0.53
627,1,33,0.0,-31.67,0.92,0.53
628,1,33,0.0,-31.49,0.48,0.71
629,1,33,0.0,-31.49,0.48,0.71
630,0,33,0.0,-31.38,0.24,0.78
631,0,33,0.0,-31.38,0.24,0.78
632,0,33,0.0,-31.23,0.2,0.44
633,0,33,0.0,-31.23,0.2,0.44
634,0,33,0.0,-31.07,0.19,0.04
635,0,33,0.0,-31.07,0.08,0.2
636,0,33,0.0,-31.07,0.08,0.2
637,0,33,0.0,-30.91,0.12,0.25
638,0,33,0.0,-30.91,0.12,0.25
639,0,33,0.0,-30.81,0.1,0.09
640,0,33,0.0,-30.81,0.1,0.09
641,0,33,0.0,-30.7,0.1,-0.08
642,0,33,0.0,-30.7,0.1,-0.08
643,0,33,0.0,-30.63,0.05,-0.33
644,0,33,0.0,-30.63,0.05,-0.33
645,0,33,0.0,-30.66,0.06,-0.25
646,0,33,0.0,-30.68,0.17,-0.23
647,0,33,0.0,-30.68,0.17,-0.23
648,0,33,0.0,-30.72,0.09,-0.23
649,0,33,0.0,-30.72,0.09,-0.23
650,0,33,0.0,-30.7,0.11,-0.28
651,0,33,0.0,-30.7,0.11,-0.28
652,0,33,0.0,-30.72,0.11,-0.32
653,0,33,0.0,-30.72,0.11,-0.32
654,0,33,0.0,-30.74,0.1,-0.34
655,0,33,0.0,-30.74,0.1,-0.34
656,0,33,0.0,-30.74,0.1,-0.34
657,0,33,0.0,-30.78,0.1,-0.28
658,0,33,0.0,-30.78,0.1,-0.28
659,0,33,0.0,-30.73,0.11,-0.62
660,0,33,0.0,-30.73,0.11,-0.62
661,0,33,0.0,-30.71,0.1,-0.58
662,0,33,0.0,-30.71,0.1,-0.58
663,0,33,0.0,-30.73,0.1,-0.48
664,0,33,0.0,-30.73,0.1,-0.48
665,0,33,0.0,-30.67,0.07,-0.37
666,0,33,0.0,-30.67,0.07,-0.37
667,0,33,0.0,-30.67,0.07,-0.37
668,0,33,0.0,-30.65,0.07,-0.44
669,0,33,0.0,-30.65,0.07,-0.44
670,0,33,0.0,-30.66,0.08,-0.37
671,0,33,0.0,-30.66,0.08,-0.37
672,0,33,0.0,-30.65,0.07,-0.19
673,0,33,0.0,-30.65,0.07,-0.19
674,0,33,0.0,-30.65,0.07,-0.19
675,0,33,0.0,-30.64,0.09,-0.3
676,0,33,0.0,-30.64,0.09,-0.3
677,0,33,0.0,-30.61,0.08,-0.37
678,0,33,0.0,-30.61,0.08,-0.37
679,0,33,0.0,-30.63,0.1,-0.12
680,0,33,0.0,-30.63,0.1,-0.12
681,0,33,0.0,-30.66,0.1,-0.35
682,0,33,0.0,-30.66,0.1,-0.35
683,0,33,0.0,-30.68,0.09,-0.28
684,0,33,0.0,-30.68,0.09,-0.28
685,0,33,0.0,-30.68,0.08,-0.35
686,0,33,0.0,-30.68,0.08,-0.35
687,0,33,0.0,-30.68,0.08,-0.35
688,0,33,0.0,-30.66,0.07,-0.31
689,0,33,0.0,-30.66,0.07,-0.31
690,0,33,0.038,-30.7,0.09,-0.2
691,0,33,0.021,-30.7,0.09,-0.2
692,0,33,0.002,-30.69,0.1,-0.2
693,0,33,0.02,-30.69,0.1,-0.2
694,0,33,0.02,-30.72,0.09,-0.19
695,0,33,0.015,-30.72,0.09,-0.19
696,0,33,0.445,-30.74,0.1,-0.1
697,0,33,0.445,-30.74,0.1,-0.1
698,0,33,0.445,-30.74,0.1,-0.1
699,0,33,2.726,-30.75,0.08,-0.1
700,0,33,2.726,-30.75,0.08,-0.1
701,0,33,0.0,-30.77,0.08,-0.25
702,0,33,0.0,-30.77,0.08,-0.25
703,0,33,0.0,-30.81,0.08,-0.27
704,0,33,0.0,-30.81,0.08,-0.27
705,0,33,0.0,-30.79,0.08,-0.37
706,0,33,0.0,-30.79,0.08,-0.37
707,0,33,0.0,-30.79,0.08,-0.43
708,0,33,1.645,-30.79,0.08,-0.43
709,0,33,0.887,-30.79,0.08,-0.43
710,0,33,0.616,-30.8,0.08,-0.46
711,0,33,0.522,-30.8,0.08,-0.46
712,0,33,0.437,-30.78,0.08,-0.43
713,0,33,0.321,-30.78,0.08,-0.43
714,0,33,0.257,-30.77,0.09,-0.46
715,0,33,0.197,-30.77,0.09,-0.46
716,0,33,0.143,-30.77,0.09,-0.46
717,0,33,0.102,-30.73,0.09,-0.46
718,0,33,0.05,-30.73,0.09,-0.46
719,0,33,0.023,-30.73,0.08,-0.54
720,0,33,0.007,-30.73,0.08,-0.54
721,0,33,0.002,-30.73,0.08,-0.49
722,0,33,0.012,-30.73,0.08,-0.49
723,0,33,0.03,-30.75,0.09,-0.35
724,0,33,0.157,-30.75,0.09,-0.35
725,0,33,0.253,-30.77,0.09,-0.52
726,0,33,0.517,-30.76,0.1,-0.49
727,0,33,0.685,-30.76,0.1,-0.49
728,0,33,0.827,-30.76,0.1,-0.42
729,0,33,0.827,-30.76,0.1,-0.42
