time*0.5 [s],altitude [cm],rotation [rpm],airspeed [m/s],yaw [deg],pitch [deg],roll [deg]
1,0,6.6,0.0,0.0,0.26,0.86
2,0,6.6,0.0,0.0,0.26,0.86
3,0,6.6,0.0,0.020000000000003126,0.26,1.06
4,0,6.6,0.0,0.020000000000003126,0.26,1.06
5,0,6.6,0.0,0.020000000000003126,0.26,1.06
6,0,6.6,0.0,0.00999999999999801,0.27,1.05
7,0,6.6,0.0,0.00999999999999801,0.27,1.05
8,0,6.6,0.0,0.04999999999999716,0.28,1.09
9,0,6.6,0.0,0.04999999999999716,0.28,1.09
10,0,6.6,0.0,0.04999999999999716,0.26,1.08
11,0,6.6,0.0,0.04999999999999716,0.26,1.08
12,0,6.6,0.0,0.0799999999999983,0.27,1.16
13,0,6.6,0.0,0.0799999999999983,0.27,1.16
14,0,6.6,0.0,0.10000000000000142,0.27,1.19
15,0,6.6,0.0,0.10000000000000142,0.27,1.19
16,0,6.6,0.0,0.10000000000000142,0.27,1.19
17,0,6.6,0.0,0.10000000000000142,0.28,1.16
18,0,6.6,0.0,0.10000000000000142,0.28,1.16
19,0,6.6,0.0,0.11999999999999744,0.27,1.18
20,0,6.6,0.0,0.11999999999999744,0.27,1.18
21,0,6.6,0.0,0.13000000000000256,0.26,1.22
22,0,6.6,0.0,0.13000000000000256,0.26,1.22
23,0,6.6,0.0,0.13000000000000256,0.27,1.24
24,0,6.6,0.0,0.13000000000000256,0.27,1.24
25,0,6.6,0.0,0.14000000000000057,0.26,1.24
26,0,6.6,0.0,0.14000000000000057,0.26,1.23
27,0,6.6,0.0,0.14000000000000057,0.26,1.23
28,0,6.6,0.0,0.14000000000000057,0.27,1.18
29,0,6.6,0.0,0.11999999999999744,0.27,1.21
30,0,6.6,0.0,0.13000000000000256,0.27,1.25
31,0,6.6,0.0,0.13000000000000256,0.27,1.25
32,0,6.6,0.0,0.13000000000000256,0.27,1.25
33,0,6.6,0.0,0.13000000000000256,0.27,1.25
34,0,6.6,0.0,0.14000000000000057,0.26,1.24
35,0,6.6,0.0,0.14000000000000057,0.26,1.24
36,0,6.6,0.0,0.14000000000000057,0.26,1.27
37,0,6.6,0.0,0.14999999999999858,0.26,1.28
38,0,6.6,0.0,0.14999999999999858,0.26,1.28
39,0,6.6,0.0,0.14000000000000057,0.28,1.26
40,0,6.6,0.0,0.14000000000000057,0.28,1.26
41,0,6.6,0.0,0.14999999999999858,0.28,1.23
42,0,6.6,0.0,0.14999999999999858,0.28,1.23
43,0,6.6,0.0,0.1600000000000037,0.28,1.24
44,0,6.6,0.0,0.1600000000000037,0.28,1.24
45,0,6.6,0.0,0.1700000000000017,0.28,1.25
46,0,6.6,0.0,0.1700000000000017,0.27,1.25
47,0,6.6,0.0,0.1700000000000017,0.27,1.25
48,0,6.6,0.0,0.17999999999999972,0.28,1.27
49,0,6.6,0.0,0.17999999999999972,0.28,1.27
50,0,6.6,0.0,0.18999999999999773,0.28,1.25
51,0,6.6,0.0,0.18999999999999773,0.28,1.25
52,0,6.6,0.0,0.17999999999999972,0.28,1.33
53,0,6.6,0.0,0.17999999999999972,0.28,1.33
54,0,6.6,0.0,0.21000000000000085,0.27,1.24
55,0,6.6,0.0,0.21000000000000085,0.27,1.24
56,0,6.6,0.0,0.21000000000000085,0.26,0.86
57,0,6.6,0.0,0.21000000000000085,0.26,0.86
58,0,6.6,0.0,0.21000000000000085,0.26,0.86
59,0,6.6,0.0,0.240000000000002,0.25,0.82
60,0,6.6,0.0,0.240000000000002,0.25,0.82
61,0,6.6,0.0,0.240000000000002,0.24,0.73
62,0,6.6,0.0,0.240000000000002,0.24,0.73
63,0,6.6,0.0,0.23000000000000398,0.27,0.62
64,0,6.6,0.0,0.23000000000000398,0.27,0.62
65,0,6.6,0.0,0.23000000000000398,0.28,0.65
66,0,6.6,0.0,0.23000000000000398,0.28,0.65
67,0,6.6,0.0,0.21999999999999886,0.27,0.68
68,0,6.6,0.0,0.21999999999999886,0.28,0.66
69,0,6.6,0.0,0.21999999999999886,0.28,0.66
70,0,6.6,0.0,0.240000000000002,0.27,0.77
71,0,6.6,0.0,0.240000000000002,0.27,0.77
72,0,6.6,0.0,0.240000000000002,0.26,0.61
73,0,6.6,0.0,0.240000000000002,0.26,0.61
74,0,6.6,0.0,0.240000000000002,0.25,0.62
75,0,6.6,0.0,0.240000000000002,0.25,0.62
76,0,6.6,0.0,0.25,0.28,0.65
77,0,6.6,0.0,0.25,0.28,0.65
78,0,6.6,0.0,0.259999999999998,0.27,0.63
79,0,6.6,0.0,0.259999999999998,0.26,0.62
80,0,6.6,0.0,0.259999999999998,0.26,0.62
81,0,6.6,0.0,0.259999999999998,0.26,0.67
82,0,6.6,0.0,0.259999999999998,0.26,0.67
83,0,6.6,0.0,0.28000000000000114,0.24,0.47
84,0,6.6,0.0,0.28000000000000114,0.24,0.47
85,0,6.6,0.0,0.28000000000000114,0.24,0.47
86,0,6.6,0.0,0.28000000000000114,0.24,0.47
87,0,6.6,0.0,0.28000000000000114,0.24,0.47
88,0,6.6,0.0,0.28000000000000114,0.24,0.47
89,0,6.6,0.0,0.28000000000000114,0.24,0.47
90,0,6.6,0.0,0.259999999999998,0.25,0.37
91,0,6.6,0.0,0.259999999999998,0.25,0.37
92,0,6.6,0.0,0.28999999999999915,0.24,0.53
93,0,6.6,0.0,0.28999999999999915,0.24,0.53
94,0,6.6,0.0,0.2700000000000031,0.24,0.61
95,0,6.6,0.0,0.2700000000000031,0.24,0.61
96,0,6.6,0.0,0.28000000000000114,0.25,0.55
97,0,6.6,0.0,0.28000000000000114,0.25,0.55
98,0,6.6,0.0,0.28999999999999915,0.26,0.59
99,0,6.6,0.0,0.28999999999999915,0.26,0.59
100,0,6.6,0.0,0.28999999999999915,0.26,0.59
101,0,6.6,0.0,0.28000000000000114,0.27,0.69
102,0,6.6,0.0,0.28000000000000114,0.27,0.69
103,0,6.6,0.0,0.259999999999998,0.27,0.74
104,0,6.6,0.0,0.259999999999998,0.27,0.74
105,0,6.6,0.0,0.2700000000000031,0.27,0.84
106,0,6.6,0.0,0.2700000000000031,0.27,0.84
107,0,6.6,0.0,0.28999999999999915,0.28,0.83
108,0,6.6,0.0,0.28999999999999915,0.28,0.83
109,0,6.6,0.0,0.28999999999999915,0.27,0.93
110,0,6.6,0.0,0.28999999999999915,0.28,0.96
111,0,6.6,0.0,0.28999999999999915,0.28,0.96
112,0,6.6,0.0,0.2700000000000031,0.26,0.87
113,0,6.6,0.0,0.2700000000000031,0.26,0.87
114,0,6.6,0.0,0.2700000000000031,0.26,0.78
115,0,6.6,0.0,0.2700000000000031,0.26,0.78
116,0,6.6,0.0,0.28999999999999915,0.26,0.78
117,0,6.6,0.0,0.28999999999999915,0.26,0.78
118,0,6.6,0.0,0.3400000000000034,0.27,0.84
119,0,6.6,0.0,0.3400000000000034,0.27,0.84
120,0,6.6,0.0,0.3500000000000014,0.27,0.61
121,0,6.6,0.0,0.3400000000000034,0.25,0.65
122,0,6.6,0.0,0.3400000000000034,0.25,0.65
123,0,6.6,0.0,0.35999999999999943,0.27,0.71
124,0,6.6,0.0,0.35999999999999943,0.27,0.71
125,0,6.6,0.0,0.3500000000000014,0.26,0.78
126,0,6.6,0.0,0.3500000000000014,0.26,0.78
127,0,6.6,0.0,0.35999999999999943,0.24,0.76
128,0,6.6,0.0,0.35999999999999943,0.24,0.76
129,0,6.6,0.0,0.39000000000000057,0.26,0.81
130,0,6.6,0.0,0.39000000000000057,0.26,0.81
131,0,6.6,0.0,0.4200000000000017,0.25,0.86
132,0,6.6,0.0,0.4200000000000017,0.26,0.8
133,0,6.6,0.0,0.4200000000000017,0.26,0.8
134,0,6.6,0.0,0.4200000000000017,0.27,0.94
135,0,6.6,0.0,0.4200000000000017,0.27,0.94
136,0,6.6,0.0,0.4299999999999997,0.26,0.94
137,0,6.6,0.0,0.4299999999999997,0.26,0.94
138,0,6.6,0.0,0.4399999999999977,0.26,1.06
139,0,6.6,0.0,0.4399999999999977,0.26,1.06
140,0,6.6,0.0,0.45000000000000284,0.27,1.09
141,0,6.6,0.0,0.45000000000000284,0.27,1.09
142,0,6.6,0.0,0.45000000000000284,0.27,1.09
143,0,6.6,0.0,0.45000000000000284,0.25,1.09
144,0,6.6,0.0,0.45000000000000284,0.25,1.09
145,0,6.6,0.0,0.46000000000000085,0.25,1.12
146,0,6.6,0.0,0.46000000000000085,0.25,1.12
147,0,6.6,0.0,0.480000000000004,0.27,1.08
148,0,6.6,0.0,0.480000000000004,0.27,1.08
149,0,6.6,0.0,0.490000000000002,0.27,1.08
150,0,6.6,0.0,0.490000000000002,0.27,1.08
151,0,6.6,0.0,0.509999999999998,0.28,1.16
152,0,6.6,0.0,0.509999999999998,0.28,1.18
153,0,6.6,0.0,0.509999999999998,0.28,1.18
154,0,6.6,0.0,0.509999999999998,0.28,1.13
155,0,6.6,0.0,0.509999999999998,0.28,1.13
156,0,6.6,0.0,0.5300000000000011,0.27,0.86
157,0,6.6,0.0,0.5300000000000011,0.27,0.86
158,0,6.6,0.0,0.5399999999999991,0.26,0.87
159,0,6.6,0.0,0.5399999999999991,0.26,0.87
160,0,6.6,0.0,0.5200000000000031,0.26,0.6
161,0,6.6,0.0,0.5200000000000031,0.26,0.6
162,0,6.6,0.0,0.5600000000000023,0.27,0.59
163,0,6.6,0.0,0.5499999999999972,0.26,0.52
164,0,6.6,0.0,0.5499999999999972,0.26,0.52
165,0,6.6,0.0,0.5799999999999983,0.25,0.33
166,0,6.6,0.0,0.5799999999999983,0.25,0.33
167,0,6.6,0.0,0.6199999999999974,0.26,0.36
168,0,6.6,0.0,0.6099999999999994,0.25,0.34
169,0,6.6,0.0,0.6099999999999994,0.25,0.34
170,0,6.6,0.0,0.6600000000000037,0.27,0.41
171,0,6.6,0.0,0.6600000000000037,0.27,0.41
172,0,6.6,0.0,0.6600000000000037,0.27,0.41
173,0,6.6,0.0,0.6799999999999997,0.28,0.8
174,0,6.6,0.0,0.7100000000000009,0.26,0.61
175,0,6.6,0.0,0.7100000000000009,0.26,0.61
176,0,6.6,0.0,0.6799999999999997,0.26,0.59
177,0,6.6,0.0,0.6799999999999997,0.26,0.59
178,0,6.6,0.0,0.6700000000000017,0.25,0.41
179,0,6.6,0.0,0.6700000000000017,0.25,0.41
180,0,6.6,0.0,0.6199999999999974,0.26,0.32
181,0,6.6,0.0,0.6199999999999974,0.26,0.32
182,0,6.6,0.0,0.6199999999999974,0.26,0.32
183,0,6.6,0.0,0.5900000000000034,0.27,0.5
184,0,6.6,0.0,0.5900000000000034,0.27,0.5
185,0,6.6,0.0,0.5700000000000003,0.29,0.5
186,0,6.6,0.0,0.5700000000000003,0.29,0.5
187,0,6.6,0.0,0.5600000000000023,0.29,0.67
188,0,6.6,0.0,0.5600000000000023,0.29,0.67
189,0,6.6,0.0,0.5600000000000023,0.26,0.62
190,0,6.6,0.0,0.5600000000000023,0.26,0.62
191,0,6.6,0.0,0.5300000000000011,0.29,0.66
192,0,6.6,0.0,0.5300000000000011,0.29,0.66
193,0,6.6,0.0,0.5399999999999991,0.26,0.74
194,0,6.6,0.0,0.5600000000000023,0.27,0.7
195,0,6.6,0.0,0.5600000000000023,0.27,0.7
196,0,6.6,0.0,0.5399999999999991,0.25,0.73
197,0,6.6,0.0,0.5399999999999991,0.25,0.73
198,0,6.6,0.0,0.5300000000000011,0.26,0.62
199,0,6.6,0.0,0.5300000000000011,0.26,0.62
200,0,6.6,0.0,0.5499999999999972,0.25,0.6
201,0,6.6,0.0,0.5499999999999972,0.25,0.6
202,0,6.6,0.0,0.5300000000000011,0.25,0.55
203,0,6.6,0.0,0.5300000000000011,0.25,0.5
204,0,6.6,0.0,0.5300000000000011,0.25,0.5
205,0,6.6,0.0,0.5300000000000011,0.26,0.6
206,0,6.6,0.0,0.5300000000000011,0.26,0.6
207,0,6.6,0.0,0.5300000000000011,0.28,0.57
208,0,6.6,0.0,0.5300000000000011,0.28,0.57
209,0,6.6,0.0,0.5300000000000011,0.26,0.52
210,0,6.6,0.0,0.5300000000000011,0.26,0.52
211,0,6.6,0.0,0.5499999999999972,0.26,0.54
212,0,6.6,0.0,0.5499999999999972,0.26,0.54
213,0,6.6,0.0,0.5700000000000003,0.26,0.54
214,0,6.6,0.0,0.5700000000000003,0.26,0.54
215,0,6.6,0.0,0.5700000000000003,0.26,0.54
216,0,6.6,0.0,0.5700000000000003,0.26,0.5
217,0,6.6,0.0,0.5700000000000003,0.26,0.5
218,0,6.6,0.0,0.5900000000000034,0.25,0.55
219,0,6.6,0.0,0.5900000000000034,0.25,0.55
220,0,6.6,0.0,0.5900000000000034,0.26,0.52
221,0,6.6,0.0,0.5900000000000034,0.26,0.52
222,0,6.6,0.0,0.5900000000000034,0.26,0.5
223,0,6.6,0.0,0.5900000000000034,0.26,0.5
224,0,6.6,0.0,0.5900000000000034,0.25,0.5
225,0,6.6,0.0,0.5900000000000034,0.25,0.5
226,0,6.6,0.0,0.5900000000000034,0.25,0.5
227,0,6.6,0.0,0.6099999999999994,0.26,0.59
228,0,6.6,0.0,0.6099999999999994,0.26,0.59
229,0,6.6,0.0,0.6000000000000014,0.26,0.51
230,0,6.6,0.0,0.6000000000000014,0.26,0.51
231,0,6.6,0.0,0.6199999999999974,0.24,0.54
232,0,6.6,0.0,0.6199999999999974,0.24,0.54
233,0,6.6,0.0,0.6199999999999974,0.25,0.55
234,0,6.6,0.0,0.6199999999999974,0.25,0.55
235,0,6.6,0.0,0.6199999999999974,0.24,0.51
236,0,6.6,0.0,0.6099999999999994,0.25,0.51
237,0,6.6,0.0,0.6099999999999994,0.25,0.51
238,0,6.6,0.0,0.6099999999999994,0.27,0.79
239,0,6.6,0.0,0.6099999999999994,0.27,0.79
240,0,6.6,0.0,0.6600000000000037,0.25,0.54
241,0,6.6,0.0,0.6600000000000037,0.25,0.54
242,0,6.6,0.0,0.6600000000000037,0.25,0.54
243,0,6.6,0.0,0.6899999999999977,0.25,0.26
244,0,6.6,0.0,0.6899999999999977,0.25,0.26
245,0,6.6,0.0,0.6899999999999977,0.25,0.26
246,0,6.6,0.0,0.6899999999999977,0.25,0.26
247,0,6.6,0.0,0.6799999999999997,0.26,0.25
248,0,6.6,0.0,0.6799999999999997,0.26,0.25
249,0,6.6,0.0,0.6799999999999997,0.26,0.09
250,0,6.6,0.0,0.6799999999999997,0.26,0.09
251,0,6.6,0.0,0.6700000000000017,0.27,0.08
252,0,6.6,0.0,0.6700000000000017,0.27,0.08
253,0,6.6,0.0,0.6799999999999997,0.26,0.07
254,0,6.6,0.0,0.6799999999999997,0.26,0.07
255,0,6.6,0.0,0.6799999999999997,0.26,0.15
256,0,6.6,0.0,0.6799999999999997,0.26,0.15
257,0,6.6,0.0,0.6799999999999997,0.26,0.09
258,0,6.6,0.0,0.6799999999999997,0.27,0.06
259,0,6.6,0.0,0.6799999999999997,0.27,0.06
260,0,6.6,0.0,0.6799999999999997,0.25,0.18
261,0,6.6,0.0,0.6799999999999997,0.25,0.18
262,0,6.6,0.0,0.6799999999999997,0.25,0.17
263,0,6.6,0.0,0.6799999999999997,0.25,0.17
264,0,6.6,0.0,0.7100000000000009,0.23,0.35
265,0,6.6,0.0,0.7100000000000009,0.23,0.35
266,0,6.6,0.0,0.7199999999999989,0.26,0.22
267,0,6.6,0.0,0.6799999999999997,0.22,0.06
268,0,6.6,0.0,0.6799999999999997,0.22,0.06
269,0,6.6,0.0,0.6700000000000017,0.25,0.14
270,0,6.6,0.0,0.6700000000000017,0.25,0.14
271,0,6.6,0.0,0.6899999999999977,0.24,0.13
272,0,6.6,0.0,0.6899999999999977,0.24,0.13
273,0,6.6,0.0,0.6799999999999997,0.24,0.1
274,0,6.6,0.0,0.6799999999999997,0.24,0.1
275,0,6.6,0.0,0.6799999999999997,0.23,0.24
276,0,6.6,0.0,0.6799999999999997,0.23,0.24
277,0,6.6,0.0,0.6700000000000017,0.21,0.2
278,0,6.6,0.0,0.6600000000000037,0.22,0.18
279,0,6.6,0.0,0.6600000000000037,0.22,0.18
280,0,6.6,0.0,0.6799999999999997,0.17,0.19
281,0,6.6,0.0,0.6799999999999997,0.17,0.19
282,0,6.6,0.0,0.6799999999999997,0.2,0.15
283,0,6.6,0.0,0.6799999999999997,0.2,0.15
284,0,6.6,0.0,0.6799999999999997,0.21,0.43
285,0,6.6,0.0,0.6799999999999997,0.21,0.43
286,0,6.6,0.0,0.6899999999999977,0.19,0.34
287,0,6.6,0.0,0.6899999999999977,0.22,0.24
288,0,6.6,0.0,0.6899999999999977,0.22,0.24
289,0,6.6,0.0,0.6799999999999997,0.19,0.3
290,0,6.6,0.0,0.6799999999999997,0.19,0.3
291,0,6.6,0.0,0.7100000000000009,0.2,0.37
292,0,6.6,0.0,0.7100000000000009,0.2,0.37
293,0,6.6,0.0,0.7000000000000028,0.18,0.36
294,0,6.6,0.0,0.7000000000000028,0.18,0.36
295,0,6.6,0.0,0.6899999999999977,0.22,0.47
296,0,6.6,0.0,0.6899999999999977,0.22,0.47
297,0,6.6,0.0,0.7000000000000028,0.21,0.59
298,0,6.6,0.0,0.7000000000000028,0.21,0.59
299,0,6.6,0.0,0.7000000000000028,0.21,0.59
300,0,6.6,0.0,0.7000000000000028,0.21,0.45
301,0,6.6,0.0,0.7000000000000028,0.21,0.45
302,0,6.6,0.0,0.7000000000000028,0.23,0.56
303,0,6.6,0.0,0.7000000000000028,0.23,0.56
304,0,6.6,0.0,0.740000000000002,0.23,0.72
305,0,6.6,0.0,0.740000000000002,0.23,0.72
306,0,6.6,0.0,0.7700000000000031,0.24,0.73
307,0,6.6,0.0,0.7700000000000031,0.24,0.73
308,0,6.6,0.0,0.6600000000000037,0.17,0.26
309,0,6.6,0.0,0.6899999999999977,0.17,0.39
310,0,6.6,0.0,0.6899999999999977,0.17,0.39
311,0,6.6,0.0,0.7000000000000028,0.28,1.02
312,0,6.6,0.0,0.7000000000000028,0.28,1.02
313,0,6.6,0.0,0.7700000000000031,0.12,0.68
314,0,6.6,0.0,0.7700000000000031,0.12,0.68
315,0,6.6,0.0,0.7700000000000031,0.15,0.75
316,0,6.6,0.0,0.7700000000000031,0.15,0.75
317,0,6.6,0.0,0.7199999999999989,0.14,0.71
318,0,6.6,0.0,0.7199999999999989,0.14,0.71
319,0,6.6,0.0,0.7899999999999991,0.17,0.34
320,0,6.6,0.0,0.7700000000000031,0.14,0.39
321,0,6.6,0.0,0.7700000000000031,0.14,0.39
322,0,6.6,0.0,0.8200000000000003,0.12,0.41
323,0,6.6,0.0,0.8200000000000003,0.12,0.41
324,0,6.6,0.0,0.8299999999999983,0.15,0.79
325,0,6.6,0.0,0.8299999999999983,0.15,0.79
326,0,6.6,0.0,0.8299999999999983,0.14,0.73
327,0,6.6,0.0,0.8299999999999983,0.14,0.73
328,0,6.6,0.0,0.8500000000000014,0.15,0.9
329,0,6.6,0.0,0.8699999999999974,0.01,1.1
330,0,6.6,0.0,0.8699999999999974,0.01,1.1
331,0,6.6,0.0,0.9100000000000037,-0.04,1.39
332,0,6.6,0.0,0.9100000000000037,-0.04,1.39
333,0,3.3,0.0,0.9200000000000017,0.03,1.23
334,0,3.3,0.0,0.9200000000000017,0.03,1.23
335,0,3.3,0.0,1.3999999999999986,0.83,1.51
336,0,3.3,0.0,1.3999999999999986,0.83,1.51
337,0,3.3,0.0,2.25,2.29,1.33
338,0,3.3,0.0,2.25,2.29,1.33
339,0,3.3,0.0,3.210000000000001,0.96,0.86
340,0,3.3,0.0,3.210000000000001,0.96,0.86
341,0,6.6,0.0,3.210000000000001,0.96,0.86
342,0,6.6,0.0,4.270000000000003,0.76,1.66
343,0,3.3,0.0,4.270000000000003,0.76,1.66
344,0,3.3,0.0,5.130000000000003,0.7,1.07
345,0,3.3,0.0,5.130000000000003,0.7,1.07
346,0,6.6,0.0,6.490000000000002,0.33,1.58
347,0,3.3,0.0,6.490000000000002,0.33,1.58
348,0,6.6,0.0,7.0,0.47,1.74
349,0,6.6,0.0,7.0,0.47,1.74
350,0,3.3,0.0,7.0,0.47,1.74
351,0,3.3,0.0,7.939999999999998,0.03,2.7
352,0,3.3,0.0,7.939999999999998,0.03,2.7
353,0,6.6,0.0,8.939999999999998,0.22,2.46
354,1,6.6,0.0,8.939999999999998,0.22,2.46
355,1,3.3,0.0,10.420000000000002,0.12,3.08
356,0,3.3,0.0,10.420000000000002,0.12,3.08
357,0,3.3,0.0,11.329999999999998,0.15,2.61
358,0,6.6,0.0,11.329999999999998,0.15,2.61
359,0,3.3,0.0,11.46,0.67,1.54
360,0,3.3,0.0,11.46,0.67,1.54
361,0,6.6,0.0,11.020000000000003,0.49,1.42
362,0,6.6,0.0,11.030000000000001,0.5,1.58
363,1,3.3,0.0,11.030000000000001,0.5,1.58
364,1,3.3,0.0,10.730000000000004,0.57,2.59
365,1,3.3,0.0,10.730000000000004,0.57,2.59
366,0,3.3,0.0,9.829999999999998,-0.24,2.84
367,0,6.6,0.0,9.829999999999998,-0.24,2.84
368,0,6.6,0.0,8.840000000000003,0.22,2.65
369,1,3.3,0.0,8.840000000000003,0.22,2.65
370,1,3.3,0.0,7.880000000000003,0.82,2.46
371,0,3.3,0.0,7.880000000000003,0.82,2.46
372,0,3.3,0.0,7.880000000000003,0.82,2.46
373,1,6.6,0.0,6.890000000000001,-0.02,3.3
374,1,3.3,0.0,6.890000000000001,-0.02,3.3
375,0,3.3,0.0,6.219999999999999,0.62,2.92
376,0,3.3,0.0,6.219999999999999,0.62,2.92
377,0,3.3,0.0,5.609999999999999,0.89,2.2
378,0,3.3,0.0,5.609999999999999,0.89,2.2
379,0,3.3,0.0,4.829999999999998,0.26,2.23
380,0,3.3,0.0,4.829999999999998,0.26,2.23
381,0,6.6,0.0,4.469999999999999,0.84,3.0
382,0,3.3,0.0,4.469999999999999,0.84,3.0
383,0,3.3,0.0,4.469999999999999,0.84,3.0
384,0,3.3,0.0,4.130000000000003,0.5,2.88
385,0,3.3,0.0,4.130000000000003,0.5,2.88
386,0,6.6,0.0,2.8699999999999974,-0.11,2.43
387,0,6.6,0.0,2.8699999999999974,-0.11,2.43
388,0,3.3,0.0,2.8699999999999974,-0.11,2.43
389,0,3.3,0.0,2.8699999999999974,-0.11,2.43
390,0,3.3,0.0,2.8699999999999974,-0.11,2.43
391,0,3.3,0.0,2.8699999999999974,-0.11,2.43
392,0,3.3,0.0,2.8699999999999974,-0.11,2.43
393,1,3.3,0.0,-2.0600000000000023,0.23,0.77
394,1,6.6,0.0,-2.0600000000000023,0.23,0.77
395,1,6.6,0.0,-2.6300000000000026,0.46,1.36
396,0,3.3,0.0,-2.6300000000000026,0.46,1.36
397,0,6.6,0.0,-2.8200000000000003,0.73,2.29
398,0,3.3,0.0,-2.8200000000000003,0.73,2.29
399,0,3.3,0.0,-3.1199999999999974,0.49,3.08
400,0,6.6,0.0,-3.1199999999999974,0.49,3.08
401,0,3.3,0.0,-5.039999999999999,-0.17,3.93
402,0,6.6,0.0,-5.039999999999999,-0.17,3.93
403,0,6.6,0.0,-6.390000000000001,0.13,2.81
404,0,3.3,0.0,-6.799999999999997,0.41,3.14
405,0,3.3,0.0,-6.799999999999997,0.41,3.14
406,0,3.3,0.0,-7.189999999999998,0.0,3.72
407,0,3.3,0.0,-7.189999999999998,0.0,3.72
408,0,3.3,0.0,-6.469999999999999,-0.3,4.11
409,0,3.3,0.0,-6.469999999999999,-0.3,4.11
410,0,3.3,0.0,-4.409999999999997,0.27,4.59
411,0,6.6,0.0,-4.409999999999997,0.27,4.59
412,0,3.3,0.0,-1.4699999999999989,1.3,2.84
413,0,6.6,0.0,-0.35999999999999943,1.97,2.33
414,0,6.6,0.0,-0.35999999999999943,1.97,2.33
415,0,3.3,0.0,1.8699999999999974,1.62,2.56
416,0,6.6,0.0,1.8699999999999974,1.62,2.56
417,0,3.3,0.0,3.289999999999999,2.57,1.8
418,0,3.3,0.0,3.289999999999999,2.57,1.8
419,0,3.3,0.0,3.950000000000003,1.01,-0.52
420,0,3.3,0.0,3.950000000000003,1.01,-0.52
421,0,3.3,0.0,4.299999999999997,0.27,-0.02
422,0,3.3,0.0,4.299999999999997,0.27,-0.02
423,0,3.3,0.0,4.939999999999998,0.59,0.63
424,0,3.3,0.0,4.939999999999998,0.59,0.63
425,0,3.3,0.0,4.939999999999998,0.59,0.63
426,0,3.3,0.0,4.980000000000004,1.73,-0.5
427,0,3.3,0.0,4.980000000000004,1.73,-0.5
428,0,3.3,0.0,5.079999999999998,-0.17,0.08
429,1,3.3,0.0,5.079999999999998,-0.17,0.08
430,1,3.3,0.0,5.109999999999999,-0.6,-0.07
431,1,3.3,0.0,5.109999999999999,-0.6,-0.07
432,1,3.3,0.0,4.450000000000003,-1.98,0.56
433,1,3.3,0.0,4.450000000000003,-1.98,0.56
434,0,3.3,0.0,3.240000000000002,-2.18,1.2
435,0,3.3,0.0,2.950000000000003,-2.2,1.13
436,0,3.3,0.0,2.950000000000003,-2.2,1.13
437,0,3.3,0.0,2.1499999999999986,-2.02,1.46
438,0,3.3,0.0,2.1499999999999986,-2.02,1.46
439,0,3.3,0.0,1.8100000000000023,-1.87,1.52
440,0,3.3,0.0,1.8100000000000023,-1.87,1.52
441,0,3.3,0.0,1.6899999999999977,-0.47,1.38
442,0,3.3,0.0,1.6899999999999977,-0.47,1.38
443,0,3.3,0.0,1.6899999999999977,-0.47,1.38
444,0,3.3,0.0,1.5499999999999972,-0.02,1.18
445,0,3.3,0.0,1.5499999999999972,-0.02,1.18
446,0,3.3,0.0,1.4399999999999977,0.16,0.98
447,0,3.3,0.0,1.4399999999999977,0.16,0.98
448,0,3.3,0.0,1.3299999999999983,0.06,0.72
449,0,3.3,0.0,1.3299999999999983,0.06,0.72
450,0,3.3,0.0,1.259999999999998,0.24,1.26
451,0,3.3,0.0,1.259999999999998,0.24,1.26
452,0,3.3,0.0,1.2199999999999989,0.29,1.12
453,0,3.3,0.0,1.2199999999999989,0.29,1.12
454,0,3.3,0.0,1.0900000000000034,0.43,0.94
455,0,3.3,0.0,1.0900000000000034,0.43,0.94
456,0,3.3,0.0,1.0900000000000034,0.43,0.94
457,0,3.3,0.0,1.25,0.38,1.16
458,0,3.3,0.0,1.25,0.38,1.16
459,1,3.3,0.0,0.7899999999999991,0.16,0.95
460,1,3.3,0.0,0.7899999999999991,0.16,0.95
461,1,3.3,0.0,0.6600000000000037,0.19,1.4
462,0,3.3,0.0,0.6600000000000037,0.19,1.4
463,0,3.3,0.0,0.6799999999999997,-1.11,0.95
464,0,3.3,0.0,0.6799999999999997,-1.11,0.95
465,0,3.3,0.0,1.4699999999999989,-0.92,1.19
466,1,3.3,0.0,1.4699999999999989,-0.92,1.19
467,1,3.3,0.0,1.4699999999999989,-0.92,1.19
468,0,3.3,0.0,2.219999999999999,-0.82,1.43
469,0,3.3,0.0,2.219999999999999,-0.82,1.43
470,0,3.3,0.0,2.700000000000003,-0.22,1.57
471,1,3.3,0.0,2.700000000000003,-0.22,1.57
472,1,3.3,0.0,2.8699999999999974,0.15,1.12
473,1,3.3,0.0,2.8699999999999974,0.15,1.12
474,1,3.3,0.0,2.4100000000000037,-0.28,1.09
475,1,3.3,0.0,2.4100000000000037,-0.28,1.09
476,1,3.3,0.0,2.9299999999999997,0.0,0.99
477,0,3.3,0.0,2.8400000000000034,-0.53,1.11
478,0,3.3,0.0,2.8400000000000034,-0.53,1.11
479,1,3.3,0.0,3.3699999999999974,-0.29,1.07
480,1,3.3,0.0,3.3699999999999974,-0.29,1.07
481,1,3.3,0.0,4.189999999999998,0.49,0.7
482,0,3.3,0.0,4.189999999999998,0.49,0.7
483,0,3.3,0.0,5.039999999999999,0.13,2.14
484,0,3.3,0.0,5.039999999999999,0.13,2.14
485,0,3.3,0.0,5.5,0.53,1.55
486,0,3.3,0.0,5.5,0.53,1.55
487,0,3.3,0.0,5.649999999999999,0.36,1.92
488,0,3.3,0.0,5.850000000000001,0.43,1.99
489,0,3.3,0.0,5.850000000000001,0.43,1.99
490,0,3.3,0.0,6.109999999999999,0.12,1.68
491,0,3.3,0.0,6.109999999999999,0.12,1.68
492,1,3.3,0.0,6.350000000000001,0.3,1.37
493,1,3.3,0.0,6.350000000000001,0.3,1.37
494,1,3.3,0.0,6.109999999999999,0.13,1.32
495,1,3.3,0.0,6.109999999999999,0.13,1.32
496,1,3.3,0.0,5.390000000000001,0.0,1.97
497,1,3.3,0.0,5.07,0.94,2.03
498,1,3.3,0.0,5.07,0.94,2.03
499,0,3.3,0.0,5.090000000000003,0.07,1.02
500,0,3.3,0.0,5.090000000000003,0.07,1.02
501,0,3.3,0.0,4.700000000000003,-0.68,1.46
502,0,3.3,0.0,4.700000000000003,-0.68,1.46
503,0,3.3,0.0,4.18,0.0,2.56
504,0,3.3,0.0,4.18,0.0,2.56
505,0,3.3,0.0,3.700000000000003,0.36,2.16
506,0,3.3,0.0,3.700000000000003,0.36,2.16
507,0,3.3,0.0,3.1499999999999986,0.39,1.98
508,0,3.3,0.0,3.1499999999999986,0.39,1.98
509,0,3.3,0.0,3.1499999999999986,0.39,1.98
510,0,3.3,0.0,2.1099999999999994,0.02,2.26
511,0,3.3,0.0,2.1099999999999994,0.02,2.26
512,0,3.3,0.0,1.4200000000000017,1.39,1.87
513,0,3.3,0.0,1.4200000000000017,1.39,1.87
514,0,3.3,0.0,1.2000000000000028,2.32,1.97
515,0,3.3,0.0,1.2000000000000028,2.32,1.97
516,0,3.3,0.0,1.1199999999999974,1.65,1.66
517,0,3.3,0.0,1.1199999999999974,1.65,1.66
518,0,3.3,0.0,0.759999999999998,0.95,1.07
519,0,3.3,0.0,0.7000000000000028,0.81,1.14
520,0,3.3,0.0,0.7000000000000028,0.81,1.14
521,0,3.3,0.0,0.6000000000000014,0.41,0.92
522,0,3.3,0.0,0.6000000000000014,0.41,0.92
523,0,3.3,0.0,0.490000000000002,0.14,0.73
524,0,3.3,0.0,0.490000000000002,0.14,0.73
525,0,3.3,0.0,-0.269999999999996,0.14,0.7
526,0,3.3,0.0,-0.269999999999996,0.14,0.7
527,1,3.3,0.0,-2.9299999999999997,0.03,0.83
528,1,3.3,0.0,-2.9299999999999997,0.03,0.83
529,0,3.3,0.0,-6.409999999999997,-0.59,-0.01
530,0,3.3,0.0,-6.990000000000002,-0.64,-0.15
531,0,3.3,0.0,-6.990000000000002,-0.64,-0.15
532,0,3.3,0.0,-8.68,-0.82,0.76
533,0,3.3,0.0,-8.68,-0.82,0.76
534,0,3.3,0.0,-8.950000000000003,-0.72,0.68
535,0,3.3,0.0,-8.950000000000003,-0.72,0.68
536,0,3.3,0.0,-8.810000000000002,0.27,0.91
537,0,3.3,0.0,-8.810000000000002,0.27,0.91
538,0,3.3,0.0,-8.939999999999998,-0.08,0.94
539,0,3.3,0.0,-8.939999999999998,-0.08,0.94
540,0,3.3,0.0,-9.019999999999996,-0.2,1.13
541,0,3.3,0.0,-9.159999999999997,-1.01,1.26
542,0,3.3,0.0,-9.159999999999997,-1.01,1.26
543,0,3.3,0.0,-9.29,-1.75,1.1
544,0,3.3,0.0,-9.29,-1.75,1.1
545,0,3.3,0.0,-9.079999999999998,-1.41,1.8
546,0,3.3,0.0,-9.079999999999998,-1.41,1.8
547,0,3.3,0.0,-9.509999999999998,-0.94,1.53
548,0,3.3,0.0,-9.509999999999998,-0.94,1.53
549,0,3.3,0.0,-10.450000000000003,-0.24,1.84
550,0,3.3,0.0,-10.450000000000003,-0.24,1.84
551,0,3.3,0.0,-10.450000000000003,-0.24,1.84
552,0,3.3,0.0,-11.07,-0.34,1.78
553,0,3.3,0.0,-11.07,-0.34,1.78
554,0,3.3,0.0,-11.350000000000001,0.06,2.4
555,0,3.3,0.0,-11.350000000000001,0.06,2.4
556,0,3.3,0.0,-11.759999999999998,-0.06,1.96
557,0,3.3,0.0,-11.759999999999998,-0.06,1.96
558,0,3.3,0.0,-11.850000000000001,-0.12,1.57
559,0,3.3,0.0,-11.850000000000001,-0.12,1.57
560,0,3.3,0.0,-12.18,0.2,1.59
561,0,3.3,0.0,-12.21,0.3,1.79
562,0,3.3,0.0,-12.21,0.3,1.79
563,0,3.3,0.0,-12.530000000000001,0.14,1.28
564,0,3.3,0.0,-12.530000000000001,0.14,1.28
565,0,3.3,0.0,-12.659999999999997,0.13,0.64
566,0,3.3,0.0,-12.659999999999997,0.13,0.64
567,0,3.3,0.0,-12.14,0.27,0.66
568,0,3.3,0.0,-12.14,0.27,0.66
569,0,3.3,0.0,-11.89,0.0,1.65
570,0,3.3,0.0,-11.89,0.0,1.65
571,0,3.3,0.0,-11.670000000000002,0.23,1.8
572,0,3.3,0.0,-11.759999999999998,-0.03,2.0
573,0,3.3,0.0,-11.759999999999998,-0.03,2.0
574,1,3.3,0.0,-12.229999999999997,0.23,2.59
575,1,3.3,0.0,-12.229999999999997,0.23,2.59
576,1,3.3,0.0,-12.649999999999999,-0.03,1.26
577,1,3.3,0.0,-12.649999999999999,-0.03,1.26
578,1,3.3,0.0,-13.46,-0.08,1.28
579,0,3.3,0.0,-13.46,-0.08,1.28
580,0,3.3,0.0,-13.46,-0.08,1.28
581,0,3.3,0.0,-13.46,-0.08,1.28
582,0,3.3,0.0,-14.0,0.49,0.58
583,0,3.3,0.0,-13.89,-0.05,1.11
584,0,3.3,0.0,-13.89,-0.05,1.11
585,0,3.3,0.0,-13.990000000000002,0.25,1.44
586,0,3.3,0.0,-13.990000000000002,0.25,1.44
587,0,3.3,0.0,-14.399999999999999,0.34,1.26
588,0,3.3,0.0,-14.399999999999999,0.34,1.26
589,0,3.3,0.0,-14.54,0.17,2.26
590,0,3.3,0.0,-14.54,0.17,2.26
591,0,3.3,0.0,-14.25,0.35,1.67
592,0,3.3,0.0,-14.25,0.35,1.67
593,0,3.3,0.0,-14.25,0.35,1.67
594,0,3.3,0.0,-13.880000000000003,0.54,0.75
595,0,3.3,0.0,-13.880000000000003,0.54,0.75
596,0,3.3,0.0,-13.71,0.31,0.09
597,0,3.3,0.0,-13.71,0.31,0.09
598,0,3.3,0.0,-13.439999999999998,0.36,0.39
599,0,3.3,0.0,-13.439999999999998,0.36,0.39
600,0,3.3,0.0,-13.729999999999997,0.16,1.28
601,0,3.3,0.0,-13.729999999999997,0.16,1.28
602,0,3.3,0.0,-14.07,0.08,1.59
603,0,3.3,0.0,-14.219999999999999,-0.01,1.3
604,0,3.3,0.0,-14.219999999999999,-0.01,1.3
605,0,3.3,0.0,-14.68,0.21,1.12
606,0,3.3,0.0,-14.68,0.21,1.12
607,0,3.3,0.0,-15.04,0.16,0.97
608,0,3.3,0.0,-15.04,0.16,0.97
609,0,3.3,0.0,-15.57,0.44,1.1
610,0,3.3,0.0,-15.57,0.44,1.1
611,0,3.3,0.0,-15.700000000000003,0.82,1.77
612,0,3.3,0.0,-15.469999999999999,1.36,1.79
613,0,3.3,0.0,-15.469999999999999,1.36,1.79
614,0,3.3,0.0,-15.030000000000001,2.12,0.99
615,0,3.3,0.0,-15.030000000000001,2.12,0.99
616,1,3.3,0.0,-15.479999999999997,1.72,1.69
617,1,3.3,0.0,-15.479999999999997,1.72,1.69
618,0,3.3,0.0,-15.689999999999998,1.08,1.25
619,0,3.3,0.0,-15.689999999999998,1.08,1.25
620,0,3.3,0.0,-16.700000000000003,0.65,1.06
621,1,3.3,0.0,-16.700000000000003,0.65,1.06
622,1,3.3,0.0,-16.93,0.6,0.92
623,1,3.3,0.0,-16.93,0.6,0.92
624,1,3.3,0.0,-17.099999999999998,0.59,0.94
625,1,3.3,0.0,-17.189999999999998,0.92,0.53
626,1,3.3,0.0,-17.189999999999998,0.92,0.53
627,1,3.3,0.0,-17.37,0.48,0.71
628,1,3.3,0.0,-17.37,0.48,0.71
629,0,3.3,0.0,-17.48,0.24,0.78
630,0,3.3,0.0,-17.48,0.24,0.78
631,0,3.3,0.0,-17.63,0.2,0.44
632,0,3.3,0.0,-17.63,0.2,0.44
633,0,3.3,0.0,-17.79,0.19,0.04
634,0,3.3,0.0,-17.79,0.08,0.2
635,0,3.3,0.0,-17.79,0.08,0.2
636,0,3.3,0.0,-17.95,0.12,0.25
637,0,3.3,0.0,-17.95,0.12,0.25
638,0,3.3,0.0,-18.05,0.1,0.09
639,0,3.3,0.0,-18.05,0.1,0.09
640,0,3.3,0.0,-18.16,0.1,-0.08
641,0,3.3,0.0,-18.16,0.1,-0.08
642,0,3.3,0.0,-18.23,0.05,-0.33
643,0,3.3,0.0,-18.23,0.05,-0.33
644,0,3.3,0.0,-18.2,0.06,-0.25
645,0,3.3,0.0,-18.18,0.17,-0.23
646,0,3.3,0.0,-18.18,0.17,-0.23
647,0,3.3,0.0,-18.14,0.09,-0.23
648,0,3.3,0.0,-18.14,0.09,-0.23
649,0,3.3,0.0,-18.16,0.11,-0.28
650,0,3.3,0.0,-18.16,0.11,-0.28
651,0,3.3,0.0,-18.14,0.11,-0.32
652,0,3.3,0.0,-18.14,0.11,-0.32
653,0,3.3,0.0,-18.12,0.1,-0.34
654,0,3.3,0.0,-18.12,0.1,-0.34
655,0,3.3,0.0,-18.12,0.1,-0.34
656,0,3.3,0.0,-18.08,0.1,-0.28
657,0,3.3,0.0,-18.08,0.1,-0.28
658,0,3.3,0.0,-18.13,0.11,-0.62
659,0,3.3,0.0,-18.13,0.11,-0.62
660,0,3.3,0.0,-18.15,0.1,-0.58
661,0,3.3,0.0,-18.15,0.1,-0.58
662,0,3.3,0.0,-18.13,0.1,-0.48
663,0,3.3,0.0,-18.13,0.1,-0.48
664,0,3.3,0.0,-18.189999999999998,0.07,-0.37
665,0,3.3,0.0,-18.189999999999998,0.07,-0.37
666,0,3.3,0.0,-18.189999999999998,0.07,-0.37
667,0,3.3,0.0,-18.21,0.07,-0.44
668,0,3.3,0.0,-18.21,0.07,-0.44
669,0,3.3,0.0,-18.2,0.08,-0.37
670,0,3.3,0.0,-18.2,0.08,-0.37
671,0,3.3,0.0,-18.21,0.07,-0.19
672,0,3.3,0.0,-18.21,0.07,-0.19
673,0,3.3,0.0,-18.21,0.07,-0.19
674,0,3.3,0.0,-18.22,0.09,-0.3
675,0,3.3,0.0,-18.22,0.09,-0.3
676,0,3.3,0.0,-18.25,0.08,-0.37
677,0,3.3,0.0,-18.25,0.08,-0.37
678,0,3.3,0.0,-18.23,0.1,-0.12
679,0,3.3,0.0,-18.23,0.1,-0.12
680,0,3.3,0.0,-18.2,0.1,-0.35
681,0,3.3,0.0,-18.2,0.1,-0.35
682,0,3.3,0.0,-18.18,0.09,-0.28
683,0,3.3,0.0,-18.18,0.09,-0.28
684,0,3.3,0.0,-18.18,0.08,-0.35
685,0,3.3,0.0,-18.18,0.08,-0.35
686,0,3.3,0.0,-18.18,0.08,-0.35
687,0,3.3,0.0,-18.2,0.07,-0.31
688,0,3.3,0.0,-18.2,0.07,-0.31
689,0,3.3,0.038,-18.16,0.09,-0.2
690,0,3.3,0.021,-18.16,0.09,-0.2
691,0,3.3,0.002,-18.169999999999998,0.1,-0.2
692,0,3.3,0.02,-18.169999999999998,0.1,-0.2
693,0,3.3,0.02,-18.14,0.09,-0.19
694,0,3.3,0.015,-18.14,0.09,-0.19
695,0,3.3,0.445,-18.12,0.1,-0.1
696,0,3.3,0.445,-18.12,0.1,-0.1
697,0,3.3,0.445,-18.12,0.1,-0.1
698,0,3.3,2.726,-18.11,0.08,-0.1
699,0,3.3,2.726,-18.11,0.08,-0.1
700,0,3.3,0.0,-18.09,0.08,-0.25
701,0,3.3,0.0,-18.09,0.08,-0.25
702,0,3.3,0.0,-18.05,0.08,-0.27
703,0,3.3,0.0,-18.05,0.08,-0.27
704,0,3.3,0.0,-18.07,0.08,-0.37
705,0,3.3,0.0,-18.07,0.08,-0.37
706,0,3.3,0.0,-18.07,0.08,-0.43
707,0,3.3,1.645,-18.07,0.08,-0.43
708,0,3.3,0.887,-18.07,0.08,-0.43
709,0,3.3,0.616,-18.06,0.08,-0.46
710,0,3.3,0.522,-18.06,0.08,-0.46
711,0,3.3,0.437,-18.08,0.08,-0.43
712,0,3.3,0.321,-18.08,0.08,-0.43
713,0,3.3,0.257,-18.09,0.09,-0.46
714,0,3.3,0.197,-18.09,0.09,-0.46
715,0,3.3,0.143,-18.09,0.09,-0.46
716,0,3.3,0.102,-18.13,0.09,-0.46
717,0,3.3,0.05,-18.13,0.09,-0.46
718,0,3.3,0.023,-18.13,0.08,-0.54
719,0,3.3,0.007,-18.13,0.08,-0.54
720,0,3.3,0.002,-18.13,0.08,-0.49
721,0,3.3,0.012,-18.13,0.08,-0.49
722,0,3.3,0.03,-18.11,0.09,-0.35
723,0,3.3,0.157,-18.11,0.09,-0.35
724,0,3.3,0.253,-18.09,0.09,-0.52
725,0,3.3,0.517,-18.099999999999998,0.1,-0.49
726,0,3.3,0.685,-18.099999999999998,0.1,-0.49
727,0,3.3,0.827,-18.099999999999998,0.1,-0.42
728,0,3.3,0.827,-18.099999999999998,0.1,-0.42
