time*0.5 [s],altitude [cm],rotation [rpm],airspeed [m/s],yaw [deg],pitch [deg],roll [deg]
1,0,3.3,0.0,-42.87,0.17,1.24
2,0,3.3,0.0,-42.9,0.18,1.33
3,0,3.3,0.0,-42.9,0.18,1.33
4,0,3.3,0.0,-42.89,0.16,1.18
5,0,3.3,0.0,-42.89,0.16,1.18
6,0,3.3,0.0,-42.86,0.15,1.28
7,0,3.3,0.0,-42.86,0.15,1.28
8,0,3.3,0.0,-42.86,0.15,1.19
9,0,3.3,0.0,-42.86,0.15,1.19
10,0,3.3,0.0,-42.86,0.14,1.12
11,0,3.3,0.0,-42.86,0.14,1.18
12,0,3.3,0.0,-42.86,0.14,1.18
13,0,3.3,0.0,-42.89,0.14,1.15
14,0,3.3,0.0,-42.89,0.14,1.15
15,0,3.3,0.0,-42.91,0.15,1.15
16,0,3.3,0.0,-42.91,0.15,1.15
17,0,3.3,0.0,-42.87,0.16,1.4
18,0,3.3,0.0,-42.87,0.16,1.4
19,0,3.3,0.0,-42.85,0.15,1.35
20,0,3.3,0.0,-42.85,0.15,1.33
21,0,3.3,0.0,-42.85,0.15,1.33
22,0,3.3,0.0,-42.84,0.16,1.36
23,0,3.3,0.0,-42.84,0.16,1.36
24,0,3.3,0.0,-42.83,0.16,1.44
25,0,3.3,0.0,-42.83,0.16,1.44
26,0,3.3,0.0,-42.83,0.17,1.36
27,0,3.3,0.0,-42.83,0.17,1.36
28,0,3.3,0.0,-42.81,0.16,1.33
29,0,3.3,0.0,-42.81,0.16,1.33
30,0,3.3,0.0,-42.8,0.17,1.37
31,0,3.3,0.0,-42.81,0.17,1.38
32,0,3.3,0.0,-42.81,0.17,1.38
33,0,3.3,0.0,-42.8,0.16,1.17
34,0,3.3,0.0,-42.8,0.16,1.17
35,0,3.3,0.0,-42.84,0.16,1.21
36,0,3.3,0.0,-42.84,0.16,1.21
37,0,3.3,0.0,-42.84,0.15,1.23
38,0,3.3,0.0,-42.84,0.15,1.23
39,0,3.3,0.0,-42.82,0.15,1.1
40,0,3.3,0.0,-42.82,0.15,1.1
41,0,3.3,0.0,-42.83,0.15,1.08
42,0,3.3,0.0,-42.84,0.16,1.06
43,0,3.3,0.0,-42.84,0.16,1.06
44,0,3.3,0.0,-42.85,0.15,0.97
45,0,3.3,0.0,-42.85,0.15,0.97
46,0,3.3,0.0,-42.84,0.16,1.03
47,0,3.3,0.0,-42.84,0.16,1.03
48,0,3.3,0.0,-42.86,0.16,0.9
49,0,3.3,0.0,-42.86,0.16,0.9
50,0,3.3,0.0,-42.88,0.17,0.94
51,0,3.3,0.0,-42.88,0.17,0.94
52,0,3.3,0.0,-42.91,0.18,0.87
53,0,3.3,0.0,-42.91,0.16,0.88
54,0,3.3,0.0,-42.91,0.16,0.88
55,0,3.3,0.0,-42.97,0.15,0.93
56,0,3.3,0.0,-42.97,0.15,0.93
57,0,3.3,0.0,-42.96,0.15,0.84
58,0,3.3,0.0,-42.96,0.15,0.84
59,0,3.3,0.0,-42.97,0.14,0.98
60,0,3.3,0.0,-42.97,0.14,0.98
61,0,3.3,0.0,-42.99,0.17,1.07
62,0,3.3,0.0,-42.99,0.17,1.07
63,0,3.3,0.0,-42.99,0.17,1.07
64,0,3.3,0.0,-43.0,0.17,1.25
65,0,3.3,0.0,-43.0,0.17,1.25
66,0,3.3,0.0,-43.02,0.17,1.32
67,0,3.3,0.0,-43.02,0.17,1.32
68,0,3.3,0.0,-43.04,0.16,1.33
69,0,3.3,0.0,-43.04,0.16,1.33
70,0,3.3,0.0,-43.06,0.17,1.28
71,0,3.3,0.0,-43.06,0.17,1.28
72,0,3.3,0.0,-43.08,0.16,1.29
73,0,3.3,0.0,-43.08,0.16,1.29
74,0,3.3,0.0,-43.13,0.17,1.31
75,0,3.3,0.0,-43.15,0.18,1.37
76,0,3.3,0.0,-43.15,0.18,1.37
77,0,3.3,0.0,-43.16,0.16,1.11
78,0,3.3,0.0,-43.16,0.16,1.11
79,0,3.3,0.0,-43.16,0.15,1.12
80,0,3.3,0.0,-43.16,0.15,1.12
81,0,3.3,0.0,-43.1,0.15,0.99
82,0,3.3,0.0,-43.1,0.15,0.99
83,0,3.3,0.0,-43.09,0.13,1.0
84,0,3.3,0.0,-43.09,0.14,0.95
85,0,3.3,0.0,-43.09,0.14,0.95
86,0,3.3,0.0,-43.07,0.13,1.08
87,0,3.3,0.0,-43.07,0.13,1.08
88,0,3.3,0.0,-43.04,0.13,1.07
89,0,3.3,0.0,-43.04,0.13,1.07
90,0,3.3,0.0,-43.03,0.14,1.15
91,0,3.3,0.0,-43.03,0.14,1.15
92,0,3.3,0.0,-43.02,0.15,1.08
93,0,3.3,0.0,-43.02,0.15,1.08
94,0,3.3,0.0,-43.02,0.15,1.08
95,0,3.3,0.0,-43.03,0.15,1.24
96,0,3.3,0.0,-43.03,0.15,1.24
97,0,3.3,0.0,-43.02,0.14,1.22
98,0,3.3,0.0,-43.02,0.14,1.22
99,0,3.3,0.0,-43.04,0.14,1.25
100,0,3.3,0.0,-43.04,0.14,1.25
101,0,3.3,0.0,-43.06,0.16,1.32
102,0,3.3,0.0,-43.06,0.16,1.32
103,0,3.3,0.0,-43.06,0.16,1.24
104,0,3.3,0.0,-43.06,0.16,1.24
105,0,3.3,0.0,-43.06,0.16,1.24
106,0,3.3,0.0,-43.06,0.16,1.32
107,0,3.3,0.0,-43.06,0.16,1.32
108,0,3.3,0.0,-43.06,0.16,1.39
109,0,3.3,0.0,-43.06,0.16,1.39
110,0,3.3,0.0,-43.06,0.16,1.28
111,0,3.3,0.0,-43.06,0.16,1.28
112,0,3.3,0.0,-43.06,0.15,1.35
113,0,3.3,0.0,-43.06,0.15,1.35
114,0,3.3,0.0,-43.06,0.16,1.39
115,0,3.3,0.0,-43.06,0.16,1.39
116,0,3.3,0.0,-43.06,0.16,1.39
117,0,3.3,0.0,-43.03,0.15,1.41
118,0,3.3,0.0,-43.03,0.15,1.41
119,0,3.3,0.0,-43.04,0.16,1.41
120,0,3.3,0.0,-43.04,0.16,1.41
121,0,3.3,0.0,-43.05,0.16,1.44
122,0,3.3,0.0,-43.05,0.16,1.44
123,0,3.3,0.0,-43.04,0.17,1.42
124,0,3.3,0.0,-43.04,0.17,1.42
125,0,3.3,0.0,-43.06,0.16,1.39
126,0,3.3,0.0,-43.05,0.16,1.42
127,0,3.3,0.0,-43.05,0.16,1.42
128,0,3.3,0.0,-43.07,0.15,1.42
129,0,3.3,0.0,-43.07,0.15,1.42
130,0,3.3,0.0,-43.07,0.16,1.44
131,0,3.3,0.0,-43.07,0.16,1.44
132,0,3.3,0.0,-43.07,0.15,1.42
133,0,3.3,0.0,-43.07,0.15,1.42
134,0,3.3,0.0,-43.09,0.16,1.43
135,0,3.3,0.0,-43.09,0.16,1.43
136,0,3.3,0.0,-43.1,0.15,1.43
137,0,3.3,0.0,-43.11,0.14,1.44
138,0,3.3,0.0,-43.11,0.14,1.44
139,0,3.3,0.0,-43.12,0.16,1.48
140,0,3.3,0.0,-43.12,0.16,1.48
141,0,3.3,0.0,-43.12,0.16,1.42
142,0,3.3,0.0,-43.12,0.16,1.42
143,0,3.3,0.0,-43.13,0.16,1.44
144,0,3.3,0.0,-43.13,0.16,1.44
145,0,3.3,0.0,-43.15,0.15,1.42
146,0,3.3,0.0,-43.15,0.16,1.46
147,0,3.3,0.0,-43.15,0.16,1.46
148,0,3.3,0.0,-43.15,0.16,1.38
149,0,3.3,0.0,-43.15,0.16,1.38
150,0,3.3,0.0,-43.16,0.16,1.4
151,0,3.3,0.0,-43.16,0.16,1.4
152,0,3.3,0.0,-43.16,0.16,1.41
153,0,3.3,0.0,-43.16,0.16,1.41
154,0,3.3,0.0,-43.17,0.14,1.34
155,0,3.3,0.0,-43.17,0.14,1.34
156,0,3.3,0.0,-43.19,0.11,1.21
157,0,3.3,0.0,-43.19,0.11,1.21
158,0,3.3,0.0,-43.19,0.11,1.21
159,0,3.3,0.0,-43.22,0.24,1.18
160,0,3.3,0.0,-43.22,0.24,1.18
161,0,3.3,0.0,-43.21,0.22,1.24
162,0,3.3,0.0,-43.21,0.22,1.24
163,0,3.3,0.0,-43.25,0.22,1.35
164,0,3.3,0.0,-43.25,0.22,1.35
165,0,3.3,0.0,-43.17,0.18,1.01
166,0,3.3,0.0,-43.17,0.18,1.01
167,0,3.3,0.0,-43.19,0.16,1.22
168,0,3.3,0.0,-43.17,0.18,1.31
169,0,3.3,0.0,-43.17,0.18,1.31
170,0,3.3,0.0,-43.16,0.18,1.18
171,0,3.3,0.0,-43.16,0.18,1.18
172,0,3.3,0.0,-43.19,0.18,1.38
173,0,3.3,0.0,-43.19,0.18,1.38
174,0,3.3,0.0,-43.21,0.18,1.35
175,0,3.3,0.0,-43.21,0.18,1.35
176,0,3.3,0.0,-43.25,0.15,1.29
177,0,3.3,0.0,-43.25,0.15,1.29
178,0,3.3,0.0,-43.25,0.17,1.33
179,0,3.3,0.0,-43.25,0.15,1.42
180,0,3.3,0.0,-43.25,0.15,1.42
181,0,3.3,0.0,-43.32,0.16,1.29
182,0,3.3,0.0,-43.32,0.16,1.29
183,0,3.3,0.0,-43.41,0.16,1.1
184,0,3.3,0.0,-43.41,0.16,1.1
185,0,3.3,0.0,-43.41,0.16,0.43
186,0,3.3,0.0,-43.41,0.16,0.43
187,0,3.3,0.0,-43.3,0.16,0.47
188,0,3.3,0.0,-43.3,0.16,0.47
189,0,3.3,0.0,-43.3,0.16,0.47
190,0,3.3,0.0,-43.25,0.14,0.22
191,0,3.3,0.0,-43.25,0.14,0.22
192,0,3.3,0.0,-43.22,0.15,0.39
193,0,3.3,0.0,-43.22,0.15,0.39
194,0,3.3,0.0,-43.23,0.15,0.26
195,0,3.3,0.0,-43.23,0.15,0.26
196,0,3.3,0.0,-43.2,0.14,0.3
197,0,3.3,0.0,-43.2,0.14,0.3
198,0,3.3,0.0,-43.18,0.15,0.53
199,0,3.3,0.0,-43.18,0.15,0.53
200,0,3.3,0.0,-43.18,0.15,0.53
201,0,3.3,0.0,-43.16,0.15,0.55
202,0,3.3,0.0,-43.16,0.15,0.55
203,0,3.3,0.0,-43.18,0.16,0.8
204,0,3.3,0.0,-43.18,0.16,0.8
205,0,3.3,0.0,-43.18,0.17,0.78
206,0,3.3,0.0,-43.18,0.17,0.78
207,0,3.3,0.0,-43.09,0.15,0.8
208,0,3.3,0.0,-43.09,0.15,0.8
209,0,3.3,0.0,-43.09,0.17,0.9
210,0,3.3,0.0,-43.09,0.15,0.88
211,0,3.3,0.0,-43.09,0.15,0.88
212,0,3.3,0.0,-43.09,0.15,0.77
213,0,3.3,0.0,-43.09,0.15,0.77
214,0,3.3,0.0,-43.09,0.16,0.8
215,0,3.3,0.0,-43.09,0.16,0.8
216,0,3.3,0.0,-43.15,0.17,0.81
217,0,3.3,0.0,-43.15,0.17,0.81
218,0,3.3,0.0,-43.1,0.13,0.57
219,0,3.3,0.0,-43.1,0.13,0.57
220,0,3.3,0.0,-43.08,0.15,0.67
221,0,3.3,0.0,-43.08,0.16,0.71
222,0,3.3,0.0,-43.08,0.16,0.71
223,0,3.3,0.0,-43.08,0.15,0.63
224,0,3.3,0.0,-43.08,0.15,0.63
225,0,3.3,0.0,-43.08,0.16,0.66
226,0,3.3,0.0,-43.08,0.16,0.66
227,0,3.3,0.0,-43.08,0.15,0.79
228,0,3.3,0.0,-43.08,0.15,0.79
229,0,3.3,0.0,-43.08,0.15,0.78
230,0,3.3,0.0,-43.08,0.15,0.78
231,0,3.3,0.0,-43.08,0.15,0.78
232,0,3.3,0.0,-43.08,0.15,0.79
233,0,3.3,0.0,-43.08,0.15,0.79
234,0,3.3,0.0,-43.11,0.13,0.81
235,0,3.3,0.0,-43.11,0.13,0.81
236,0,3.3,0.0,-43.12,0.15,0.9
237,0,3.3,0.0,-43.12,0.15,0.9
238,0,3.3,0.0,-43.12,0.16,0.75
239,0,3.3,0.0,-43.12,0.16,0.75
240,0,3.3,0.0,-43.14,0.15,0.81
241,0,3.3,0.0,-43.14,0.15,0.81
242,0,3.3,0.0,-43.14,0.15,0.81
243,0,3.3,0.0,-43.15,0.16,0.76
244,0,3.3,0.0,-43.15,0.16,0.65
245,0,3.3,0.0,-43.16,0.16,0.58
246,0,3.3,0.0,-43.16,0.16,0.58
247,0,3.3,0.0,-43.16,0.14,0.57
248,0,3.3,0.0,-43.16,0.14,0.57
249,0,3.3,0.0,-43.16,0.14,0.72
250,0,3.3,0.0,-43.16,0.14,0.72
251,0,3.3,0.0,-43.12,0.09,0.5
252,0,3.3,0.0,-43.12,0.19,0.6
253,0,3.3,0.0,-43.12,0.19,0.6
254,0,3.3,0.0,-43.1,0.14,0.76
255,0,3.3,0.0,-43.1,0.14,0.76
256,0,3.3,0.0,-43.11,0.12,0.96
257,0,3.3,0.0,-43.11,0.12,0.96
258,0,3.3,0.0,-43.09,0.15,1.14
259,0,3.3,0.0,-43.09,0.15,1.14
260,0,3.3,0.0,-43.16,0.13,0.93
261,0,3.3,0.0,-43.16,0.13,0.93
262,0,3.3,0.0,-43.12,0.14,0.85
263,0,3.3,0.0,-43.06,0.11,0.75
264,0,3.3,0.0,-43.06,0.11,0.75
265,0,3.3,0.0,-43.07,0.07,0.88
266,0,3.3,0.0,-43.07,0.07,0.88
267,0,3.3,0.0,-43.09,0.01,1.14
268,0,3.3,0.0,-43.09,0.01,1.14
269,0,3.3,0.0,-43.09,0.0,1.0
270,0,3.3,0.0,-43.09,0.0,1.0
271,0,3.3,0.0,-43.09,0.07,0.99
272,0,3.3,0.0,-43.09,0.07,0.99
273,0,3.3,0.0,-43.1,0.0,0.94
274,0,3.3,0.0,-43.1,0.06,0.99
275,0,3.3,0.0,-43.1,0.06,0.99
276,0,3.3,0.0,-43.07,0.0,0.88
277,0,3.3,0.0,-43.07,0.0,0.88
278,0,3.3,0.0,-43.07,0.46,0.68
279,0,3.3,0.0,-43.07,0.46,0.68
280,0,3.3,0.0,-43.06,0.75,0.93
281,0,3.3,0.0,-43.06,0.75,0.93
282,0,3.3,0.0,-43.5,2.1,1.97
283,0,3.3,0.0,-43.5,2.1,1.97
284,0,3.3,0.0,-43.5,2.1,1.97
285,0,3.3,0.0,-44.53,3.05,1.95
286,0,6.6,0.0,-44.53,3.05,1.95
287,0,6.6,0.0,-45.23,2.49,1.36
288,0,6.6,0.0,-45.23,2.49,1.36
289,0,3.3,0.0,-45.34,1.71,1.59
290,0,3.3,0.0,-45.34,1.71,1.59
291,0,3.3,0.0,-45.53,1.26,0.69
292,0,6.6,0.0,-45.53,1.26,0.69
293,0,3.3,0.0,-45.76,0.7,0.58
294,0,3.3,0.0,-45.84,0.54,1.04
295,0,6.6,0.0,-45.84,0.54,1.04
296,0,6.6,0.0,-46.17,0.37,0.98
297,0,3.3,0.0,-46.17,0.37,0.98
298,0,10.0,0.0,-46.05,1.55,2.09
299,0,6.6,0.0,-46.05,1.55,2.09
300,0,3.3,0.0,-45.59,1.31,2.65
301,0,3.3,0.0,-45.59,1.31,2.65
302,1,3.3,0.0,-45.59,1.31,2.65
303,1,3.3,0.0,-44.32,1.84,2.51
304,1,6.6,0.0,-44.32,1.84,2.51
305,1,6.6,0.0,-43.73,1.83,1.27
306,0,3.3,0.0,-43.73,1.83,1.27
307,0,6.6,0.0,-43.89,1.97,1.6
308,0,3.3,0.0,-43.89,1.97,1.6
309,0,6.6,0.0,-44.93,2.33,4.56
310,1,6.6,0.0,-44.93,2.33,4.56
311,1,3.3,0.0,-45.47,1.75,3.0
312,1,6.6,0.0,-45.47,1.75,3.0
313,0,6.6,0.0,-45.47,1.75,3.0
314,0,3.3,0.0,-45.47,1.75,3.0
315,0,6.6,0.0,-44.81,0.27,1.69
316,0,3.3,0.0,-44.75,-0.21,3.47
317,1,3.3,0.0,-44.75,-0.21,3.47
318,1,6.6,0.0,-44.53,0.35,5.24
319,1,6.6,0.0,-44.53,0.35,5.24
320,1,3.3,0.0,-44.8,0.66,6.1
321,0,6.6,0.0,-44.8,0.66,6.1
322,0,6.6,0.0,-45.13,0.67,4.6
323,0,3.3,0.0,-45.13,0.67,4.6
324,0,6.6,0.0,-45.43,0.11,4.3
325,0,3.3,0.0,-45.49,0.57,3.62
326,0,6.6,0.0,-45.49,0.57,3.62
327,0,10.0,0.0,-45.77,1.1,4.25
328,0,3.3,0.0,-45.77,1.1,4.25
329,0,6.6,0.0,-46.01,1.06,6.08
330,0,6.6,0.0,-46.01,1.06,6.08
331,0,3.3,0.0,-45.76,-0.09,5.38
332,0,6.6,0.0,-45.76,-0.09,5.38
333,0,6.6,0.0,-46.29,0.22,4.73
334,0,3.3,0.0,-46.29,0.22,4.73
335,0,6.6,0.0,-47.09,1.23,5.33
336,0,6.6,0.0,-47.12,1.11,5.23
337,0,3.3,0.0,-47.12,1.11,5.23
338,0,6.6,0.0,-47.84,1.47,5.12
339,0,6.6,0.0,-47.84,1.47,5.12
340,0,3.3,0.0,-47.01,0.84,4.82
341,0,6.6,0.0,-47.01,0.84,4.82
342,0,6.6,0.0,-44.62,1.15,1.43
343,0,3.3,0.0,-44.62,1.15,1.43
344,0,6.6,0.0,-43.59,0.65,2.0
345,0,3.3,0.0,-43.59,0.65,2.0
346,0,3.3,0.0,-43.59,0.65,2.0
347,0,6.6,0.0,-44.1,0.49,2.2
348,0,6.6,0.0,-44.1,0.49,2.2
349,0,6.6,0.0,-45.06,1.98,3.28
350,0,6.6,0.0,-45.06,1.98,3.28
351,0,6.6,0.0,-45.46,1.75,4.52
352,0,6.6,0.0,-45.46,1.75,4.52
353,0,6.6,0.0,-45.6,-0.69,3.8
354,1,6.6,0.0,-45.6,-0.69,3.8
355,1,6.6,0.0,-45.76,-1.76,2.26
356,0,6.6,0.0,-45.76,-1.76,2.26
357,0,6.6,0.0,-46.05,-2.34,1.91
358,0,6.6,0.0,-46.06,-2.3,1.58
359,0,6.6,0.0,-46.06,-2.3,1.58
360,0,6.6,0.0,-46.51,-2.58,1.65
361,0,6.6,0.0,-46.51,-2.58,1.65
362,0,6.6,0.0,-46.79,-3.18,0.83
363,0,6.6,0.0,-46.79,-3.18,0.83
364,0,6.6,0.0,-47.06,-2.72,1.34
365,0,6.6,0.0,-47.06,-2.72,1.34
366,0,6.6,0.0,-47.14,-2.58,1.44
367,0,6.6,0.0,-47.2,-2.31,1.68
368,0,6.6,0.0,-47.2,-2.31,1.68
369,0,6.6,0.0,-47.13,-1.79,1.14
370,0,6.6,0.0,-47.13,-1.79,1.14
371,0,6.6,0.0,-47.19,-1.09,1.16
372,0,6.6,0.0,-47.19,-1.09,1.16
373,0,6.6,0.0,-47.22,-0.64,1.27
374,0,6.6,0.0,-47.22,-0.64,1.27
375,0,6.6,0.0,-47.26,-0.46,0.83
376,0,6.6,0.0,-47.26,-0.46,0.83
377,0,6.6,0.0,-47.27,-0.4,0.62
378,0,6.6,0.0,-47.28,-0.4,0.44
379,0,6.6,0.0,-47.28,-0.4,0.44
380,0,6.6,0.0,-47.29,-0.42,0.53
381,0,6.6,0.0,-47.29,-0.42,0.53
382,0,6.6,0.0,-47.38,-0.4,0.7
383,0,6.6,0.0,-47.38,-0.4,0.7
384,0,6.6,0.0,-47.19,-0.37,0.09
385,0,6.6,0.0,-47.19,-0.37,0.09
386,0,6.6,0.0,-47.16,-0.37,0.57
387,0,6.6,0.0,-47.17,-0.35,0.53
388,0,6.6,0.0,-47.17,-0.35,0.53
389,0,6.6,0.0,-47.15,-0.35,0.61
390,0,6.6,0.0,-47.15,-0.35,0.61
391,1,6.6,0.0,-47.05,-0.37,0.76
392,1,6.6,0.0,-47.05,-0.37,0.76
393,0,6.6,0.0,-46.53,-1.54,0.69
394,0,6.6,0.0,-46.53,-1.54,0.69
395,0,6.6,0.0,-45.71,-2.05,0.4
396,1,6.6,0.0,-45.71,-2.05,0.4
397,1,6.6,0.0,-44.91,-1.93,0.26
398,1,6.6,0.0,-44.91,-1.93,0.26
399,0,6.6,0.0,-44.91,-1.93,0.26
400,0,6.6,0.0,-44.28,-1.79,1.09
401,0,6.6,0.0,-44.28,-1.79,1.09
402,0,6.6,0.0,-44.45,-0.91,1.66
403,0,6.6,0.0,-44.45,-0.91,1.66
404,0,6.6,0.0,-45.34,-0.43,1.26
405,0,6.6,0.0,-45.34,-0.43,1.26
406,0,6.6,0.0,-45.72,-0.72,0.15
407,0,6.6,0.0,-45.72,-0.72,0.15
408,0,6.6,0.0,-45.72,-0.72,0.15
409,0,6.6,0.0,-45.32,-0.86,1.25
410,0,6.6,0.0,-45.32,-0.86,1.25
411,0,6.6,0.0,-44.76,-0.67,1.64
412,1,6.6,0.0,-44.76,-0.67,1.64
413,1,6.6,0.0,-44.54,-0.91,1.44
414,0,6.6,0.0,-44.54,-0.91,1.44
415,0,6.6,0.0,-44.32,-1.31,2.26
416,0,6.6,0.0,-44.32,-1.31,2.26
417,0,6.6,0.0,-44.25,-1.0,2.6
418,0,6.6,0.0,-44.25,-1.0,2.6
419,0,6.6,0.0,-44.49,-0.28,2.71
420,0,6.6,0.0,-44.56,-0.04,2.43
421,0,6.6,0.0,-44.56,-0.04,2.43
422,0,6.6,0.0,-45.13,0.41,2.94
423,0,6.6,0.0,-45.13,0.41,2.94
424,0,6.6,0.0,-45.78,0.6,2.02
425,0,6.6,0.0,-45.78,0.6,2.02
426,0,6.6,0.0,-46.43,0.66,1.95
427,0,6.6,0.0,-46.43,0.66,1.95
428,0,6.6,0.0,-46.71,0.63,3.2
429,0,6.6,0.0,-46.71,0.63,3.2
430,0,6.6,0.0,-46.65,0.51,2.77
431,0,6.6,0.0,-46.5,0.63,1.69
432,0,6.6,0.0,-46.5,0.63,1.69
433,0,6.6,0.0,-46.58,0.7,1.7
434,0,6.6,0.0,-46.58,0.7,1.7
435,0,6.6,0.0,-46.45,1.31,1.44
436,0,6.6,0.0,-46.45,1.31,1.44
437,0,6.6,0.0,-46.01,1.34,1.82
438,0,6.6,0.0,-46.01,1.34,1.82
439,0,6.6,0.0,-46.16,1.08,1.78
440,0,6.6,0.0,-46.16,1.08,1.78
441,0,6.6,0.0,-46.16,1.08,1.78
442,0,6.6,0.0,-46.51,0.46,1.7
443,0,6.6,0.0,-46.51,0.46,1.7
444,0,6.6,0.0,-46.43,0.46,2.12
445,0,6.6,0.0,-46.43,0.46,2.12
446,0,6.6,0.0,-45.97,0.67,1.57
447,0,6.6,0.0,-45.97,0.67,1.57
448,0,6.6,0.0,-46.59,0.6,2.0
449,0,6.6,0.0,-46.59,0.6,2.0
450,0,6.6,0.0,-46.74,0.35,2.77
451,0,6.6,0.0,-46.81,0.63,2.42
452,0,6.6,0.0,-46.81,0.63,2.42
453,0,6.6,0.0,-47.05,0.65,2.02
454,0,6.6,0.0,-47.05,0.65,2.02
455,0,6.6,0.0,-47.65,0.14,1.34
456,0,6.6,0.0,-47.65,0.14,1.34
457,0,6.6,0.0,-47.86,-0.06,0.68
458,0,6.6,0.0,-47.86,-0.06,0.68
459,0,6.6,0.0,-48.2,-0.27,0.15
460,0,6.6,0.0,-48.2,-0.27,0.15
461,0,6.6,0.0,-48.29,-0.24,1.44
462,0,6.6,0.0,-48.43,-0.12,1.36
463,0,6.6,0.0,-48.43,-0.12,1.36
464,0,6.6,0.0,-48.6,0.4,1.46
465,0,6.6,0.0,-48.6,0.4,1.46
466,0,6.6,0.0,-48.12,0.5,2.27
467,0,6.6,0.0,-48.12,0.5,2.27
468,0,6.6,0.0,-47.57,0.46,1.98
469,0,6.6,0.0,-47.57,0.46,1.98
470,0,6.6,0.0,-46.96,0.12,1.41
471,0,6.6,0.0,-46.96,0.12,1.41
472,0,6.6,0.0,-46.86,0.21,0.97
473,0,6.6,0.0,-46.95,0.36,1.35
474,0,6.6,0.0,-46.95,0.36,1.35
475,0,6.6,0.0,-46.8,0.69,1.66
476,0,6.6,0.0,-46.8,0.69,1.66
477,0,6.6,0.0,-47.12,0.1,1.9
478,0,6.6,0.0,-47.12,0.1,1.9
479,0,6.6,0.0,-47.28,0.03,1.94
480,0,6.6,0.0,-47.28,0.03,1.94
481,0,6.6,0.0,-47.28,0.03,1.94
482,0,6.6,0.0,-47.44,0.44,2.21
483,0,6.6,0.0,-47.44,0.44,2.21
484,0,6.6,0.0,-47.05,0.66,2.55
485,0,6.6,0.0,-47.05,0.66,2.55
486,0,6.6,0.0,-47.04,0.04,2.23
487,0,6.6,0.0,-47.04,0.04,2.23
488,0,6.6,0.0,-47.46,0.31,2.51
489,0,6.6,0.0,-47.46,0.31,2.51
490,0,6.6,0.0,-48.0,0.29,2.27
491,0,6.6,0.0,-48.0,0.29,2.27
492,0,6.6,0.0,-48.31,0.55,1.42
493,0,6.6,0.0,-48.33,-0.01,1.81
494,0,6.6,0.0,-48.33,-0.01,1.81
495,1,6.6,0.0,-48.63,-0.01,1.48
496,1,6.6,0.0,-48.63,-0.01,1.48
497,0,6.6,0.0,-48.65,0.33,0.84
498,0,6.6,0.0,-48.65,0.33,0.84
499,0,6.6,0.0,-48.67,-0.26,0.36
500,0,6.6,0.0,-48.67,-0.26,0.36
501,0,6.6,0.0,-48.88,0.01,1.31
502,0,6.6,0.0,-48.93,0.26,2.06
503,0,6.6,0.0,-48.93,0.26,2.06
504,0,6.6,0.0,-48.54,0.5,2.42
505,0,6.6,0.0,-48.54,0.5,2.42
506,0,6.6,0.0,-48.53,0.68,1.19
507,0,6.6,0.0,-48.53,0.68,1.19
508,0,6.6,0.0,-48.4,0.29,1.45
509,0,6.6,0.0,-48.4,0.29,1.45
510,0,6.6,0.0,-48.32,0.68,2.14
511,0,6.6,0.0,-48.32,0.68,2.14
512,0,6.6,0.0,-48.29,0.17,1.57
513,0,6.6,0.0,-48.29,0.17,1.57
514,0,6.6,0.0,-48.29,0.17,1.57
515,0,6.6,0.0,-48.25,0.36,1.64
516,0,6.6,0.0,-48.25,0.36,1.64
517,0,6.6,0.0,-48.4,0.41,0.74
518,0,6.6,0.0,-48.4,0.41,0.74
519,0,6.6,0.0,-48.59,0.14,1.68
520,0,6.6,0.0,-48.59,0.14,1.68
521,0,6.6,0.0,-48.59,0.14,1.68
522,0,6.6,0.0,-48.67,0.14,2.52
523,0,6.6,0.0,-48.67,0.14,2.52
524,0,6.6,0.0,-48.66,0.55,0.79
525,0,6.6,0.0,-48.66,0.55,0.79
526,0,6.6,0.0,-48.47,0.79,2.33
527,0,6.6,0.0,-48.47,0.79,2.33
528,0,6.6,0.0,-48.38,0.66,2.47
529,0,6.6,0.0,-48.38,0.66,2.47
530,0,6.6,0.0,-48.36,0.41,1.73
531,0,6.6,0.0,-48.36,0.41,1.73
532,0,6.6,0.0,-48.36,0.41,1.73
533,0,6.6,0.0,-48.36,0.41,1.73
534,0,6.6,0.0,-48.76,0.47,1.18
535,0,6.6,0.0,-49.04,0.53,0.6
536,0,6.6,0.0,-49.04,0.53,0.6
537,0,6.6,0.0,-48.99,1.37,1.83
538,0,6.6,0.0,-48.99,1.37,1.83
539,0,6.6,0.0,-49.35,1.92,1.63
540,1,6.6,0.0,-49.35,1.92,1.63
541,1,6.6,0.0,-49.83,2.09,1.68
542,1,6.6,0.0,-49.83,2.09,1.68
543,1,6.6,0.0,-49.86,2.01,1.45
544,1,6.6,0.0,-49.86,2.01,1.45
545,0,6.6,0.0,-49.86,2.01,1.45
546,0,6.6,0.0,-49.41,1.39,1.13
547,0,6.6,0.0,-49.41,1.39,1.13
548,0,6.6,0.0,-48.42,0.2,0.77
549,0,6.6,0.0,-48.42,0.2,0.77
550,0,6.6,0.0,-48.39,0.36,1.04
551,0,6.6,0.0,-48.39,0.36,1.04
552,0,6.6,0.0,-48.39,0.38,0.56
553,0,6.6,0.0,-48.39,0.38,0.56
554,0,6.6,0.0,-48.38,0.29,0.46
555,0,6.6,0.0,-48.38,0.29,0.46
556,0,6.6,0.0,-48.38,0.29,0.46
557,0,6.6,0.0,-48.31,0.25,1.09
558,0,6.6,0.0,-48.31,0.25,1.09
559,0,6.6,0.0,-48.21,0.26,0.82
560,0,6.6,0.0,-48.21,0.26,0.82
561,0,6.6,0.0,-48.36,0.29,1.27
562,0,6.6,0.0,-48.36,0.29,1.27
563,0,6.6,0.0,-48.33,0.29,1.3
564,0,6.6,0.0,-48.33,0.29,1.3
565,0,6.6,0.0,-48.4,0.24,1.2
566,0,6.6,0.0,-48.42,0.28,1.14
567,0,6.6,0.0,-48.42,0.28,1.14
568,0,6.6,0.0,-48.42,0.25,0.88
569,0,6.6,0.0,-48.42,0.25,0.88
570,0,6.6,0.0,-48.48,0.25,0.92
571,0,6.6,0.0,-48.48,0.25,0.92
572,0,6.6,0.0,-48.55,0.26,0.9
573,0,6.6,0.0,-48.55,0.26,0.9
574,0,6.6,0.0,-48.57,0.25,0.71
575,0,6.6,0.0,-48.57,0.25,0.71
576,0,6.6,0.0,-48.65,0.28,0.39
577,0,6.6,0.0,-48.64,0.24,0.38
578,0,6.6,0.0,-48.64,0.24,0.38
579,0,6.6,0.0,-48.71,0.26,0.53
580,0,6.6,0.0,-48.71,0.26,0.53
581,0,6.6,0.0,-48.71,0.26,0.53
582,0,6.6,0.0,-48.71,0.26,0.53
583,0,6.6,0.0,-48.71,0.26,0.53
584,0,6.6,0.0,-48.71,0.26,0.53
585,0,6.6,0.0,-48.71,0.26,0.53
586,0,6.6,0.0,-48.71,0.26,0.53
587,0,6.6,0.0,-48.71,0.26,0.53
588,0,6.6,0.0,-48.62,0.25,0.73
589,0,6.6,0.0,-48.62,0.25,0.73
590,0,6.6,0.0,-48.64,0.24,0.72
591,0,6.6,0.0,-48.64,0.24,0.72
592,0,6.6,0.0,-48.63,0.25,0.64
593,0,6.6,0.0,-48.63,0.25,0.64
594,0,6.6,0.0,-48.61,0.26,0.47
595,0,6.6,0.0,-48.61,0.26,0.47
596,0,6.6,0.0,-48.61,0.25,0.64
597,0,6.6,0.0,-48.61,0.25,0.64
598,0,6.6,0.0,-48.61,0.25,0.64
599,0,6.6,0.0,-48.59,0.28,0.61
600,0,6.6,0.0,-48.59,0.28,0.61
601,0,6.6,0.0,-48.6,0.24,0.57
602,0,6.6,0.0,-48.6,0.24,0.57
603,0,6.6,0.0,-48.62,0.23,0.64
604,0,6.6,0.0,-48.62,0.23,0.64
605,0,6.6,0.0,-48.65,0.25,0.51
606,0,6.6,0.0,-48.65,0.25,0.51
607,0,6.6,0.0,-48.65,0.27,0.59
608,0,6.6,0.0,-48.68,0.26,0.64
609,0,6.6,0.0,-48.68,0.26,0.64
610,0,6.6,0.0,-48.66,0.26,0.5
611,0,6.6,0.0,-48.66,0.26,0.5
612,0,6.6,0.0,-48.64,0.25,0.49
613,0,6.6,0.0,-48.64,0.25,0.49
614,0,6.6,0.0,-48.65,0.25,0.67
615,0,6.6,0.0,-48.65,0.25,0.67
616,0,6.6,0.0,-48.66,0.25,0.7
617,0,6.6,0.0,-48.66,0.25,0.7
618,0,6.6,0.0,-48.66,0.25,0.73
619,0,6.6,0.0,-48.66,0.25,0.66
620,0,6.6,0.0,-48.66,0.25,0.66
621,0,6.6,0.0,-48.66,0.27,0.74
622,0,6.6,0.0,-48.66,0.27,0.74
623,0,6.6,0.0,-48.62,0.26,0.72
624,0,6.6,0.0,-48.62,0.26,0.72
625,0,6.6,0.0,-48.62,0.27,0.71
626,0,6.6,0.0,-48.62,0.27,0.71
627,0,6.6,0.0,-48.66,0.26,0.72
628,0,6.6,0.0,-48.66,0.26,0.72
629,0,6.6,0.0,-48.66,0.26,0.72
630,0,6.6,0.0,-48.66,0.23,0.82
631,0,6.6,0.0,-48.66,0.23,0.82
632,0,6.6,0.0,-48.68,0.27,0.83
633,0,6.6,0.0,-48.68,0.27,0.83
634,0,6.6,0.0,-48.68,0.25,0.89
635,0,6.6,0.0,-48.68,0.25,0.89
636,0,6.6,0.0,-48.68,0.25,0.89
637,0,6.6,0.0,-48.68,0.25,0.89
638,0,6.6,0.0,-48.68,0.25,0.89
639,0,6.6,0.0,-48.72,0.26,0.74
640,0,6.6,0.0,-48.72,0.26,0.74
641,0,6.6,0.0,-48.73,0.24,0.83
642,0,6.6,0.0,-48.73,0.24,0.83
643,0,6.6,0.0,-48.72,0.26,0.66
644,0,6.6,0.0,-48.72,0.26,0.66
645,0,6.6,0.0,-48.74,0.25,0.72
646,0,6.6,0.0,-48.74,0.25,0.72
647,0,6.6,0.0,-48.74,0.24,0.7
648,0,6.6,0.0,-48.74,0.24,0.7
649,0,6.6,0.0,-48.75,0.26,0.68
650,0,6.6,0.0,-48.74,0.27,0.72
651,0,6.6,0.0,-48.74,0.27,0.72
652,0,6.6,0.0,-48.74,0.26,0.77
653,0,6.6,0.0,-48.74,0.26,0.77
654,0,6.6,0.0,-48.73,0.25,0.79
655,0,6.6,0.0,-48.73,0.25,0.79
656,0,6.6,0.0,-48.74,0.25,0.78
657,0,6.6,0.0,-48.74,0.25,0.78
658,0,6.6,0.0,-48.76,0.24,0.74
659,0,6.6,0.0,-48.76,0.24,0.74
660,0,6.6,0.0,-48.76,0.24,0.74
661,0,6.6,0.0,-48.78,0.24,0.81
662,0,6.6,0.0,-48.78,0.24,0.81
663,0,6.6,0.0,-48.77,0.25,0.78
664,0,6.6,0.0,-48.77,0.25,0.78
665,0,6.6,0.0,-48.8,0.25,0.85
666,0,6.6,0.0,-48.8,0.25,0.85
667,0,6.6,0.0,-48.81,0.26,0.8
668,0,6.6,0.0,-48.81,0.26,0.8
669,0,6.6,0.0,-48.83,0.25,0.75
670,0,6.6,0.0,-48.83,0.25,0.75
671,0,6.6,0.0,-48.83,0.25,0.75
672,0,6.6,0.0,-48.83,0.27,0.79
673,0,6.6,0.0,-48.83,0.27,0.79
674,0,6.6,0.0,-48.83,0.26,0.72
675,0,6.6,0.0,-48.83,0.26,0.72
676,0,6.6,0.0,-48.85,0.26,0.7
677,0,6.6,0.0,-48.85,0.26,0.7
678,0,6.6,0.0,-48.83,0.25,0.77
679,0,6.6,0.0,-48.83,0.25,0.77
680,0,6.6,0.0,-48.84,0.24,0.65
681,0,6.6,0.0,-48.84,0.25,0.69
682,0,6.6,0.0,-48.84,0.25,0.69
683,0,6.6,0.0,-48.83,0.25,0.75
684,0,6.6,0.0,-48.83,0.25,0.75
685,0,6.6,0.0,-48.84,0.24,0.87
686,0,6.6,0.0,-48.84,0.24,0.87
687,0,6.6,0.0,-48.85,0.24,0.82
688,0,6.6,0.0,-48.85,0.24,0.82
689,0,6.6,0.0,-48.86,0.26,1.0
690,0,6.6,0.0,-48.86,0.26,1.0
