time*0.5 [s],altitude [cm],rotation [rpm],airspeed [m/s],yaw [deg],pitch [deg],roll [deg]
1,0,23.3,0.0,-50.19,0.17,0.22
2,0,23.3,0.0,-50.19,0.17,0.22
3,0,23.3,0.0,-50.21,0.17,0.48
4,0,23.3,0.0,-50.21,0.17,0.48
5,0,23.3,0.0,-50.2,0.16,0.09
6,0,23.3,0.0,-50.2,0.16,0.09
7,0,23.3,0.0,-50.21,0.17,-0.06
8,0,23.3,0.0,-50.21,0.17,-0.06
9,0,23.3,0.0,-50.22,0.16,-0.15
10,0,23.3,0.0,-50.22,0.16,-0.15
11,0,23.3,0.0,-50.24,0.17,-0.1
12,0,23.3,0.0,-50.24,0.17,-0.1
13,0,23.3,0.0,-50.24,0.17,-0.1
14,0,23.3,0.0,-50.25,0.17,-0.14
15,0,23.3,0.0,-50.25,0.17,-0.14
16,0,23.3,0.0,-50.25,0.18,-0.23
17,0,23.3,0.0,-50.25,0.18,-0.23
18,0,23.3,0.0,-50.26,0.16,-0.22
19,0,23.3,0.0,-50.26,0.16,-0.22
20,0,23.3,0.0,-50.26,0.16,-0.04
21,0,23.3,0.0,-50.26,0.16,-0.04
22,0,23.3,0.0,-50.27,0.18,-0.13
23,0,23.3,0.0,-50.27,0.18,-0.08
24,0,23.3,0.0,-50.27,0.18,-0.08
25,0,23.3,0.0,-50.28,0.16,-0.17
26,0,23.3,0.0,-50.28,0.16,-0.17
27,0,23.3,0.0,-50.3,0.16,0.0
28,0,23.3,0.0,-50.3,0.16,0.0
29,0,23.3,0.0,-50.27,0.17,0.0
30,0,23.3,0.0,-50.27,0.17,0.0
31,0,23.3,0.0,-50.27,0.16,-0.03
32,0,23.3,0.0,-50.27,0.16,-0.03
33,0,23.3,0.0,-50.27,0.16,0.07
34,0,23.3,0.0,-50.27,0.17,0.06
35,0,23.3,0.0,-50.27,0.17,0.06
36,0,23.3,0.0,-50.29,0.16,0.27
37,0,23.3,0.0,-50.29,0.16,0.27
38,0,23.3,0.0,-50.28,0.17,0.77
39,0,23.3,0.0,-50.28,0.17,0.77
40,0,23.3,0.0,-50.28,0.15,1.04
41,0,23.3,0.0,-50.28,0.15,1.04
42,0,23.3,0.0,-50.28,0.15,0.92
43,0,23.3,0.0,-50.28,0.14,1.01
44,0,23.3,0.0,-50.28,0.14,1.01
45,0,23.3,0.0,-50.29,0.14,0.97
46,0,23.3,0.0,-50.29,0.14,0.97
47,0,23.3,0.0,-50.3,0.16,1.01
48,0,23.3,0.0,-50.3,0.16,1.01
49,0,23.3,0.0,-50.3,0.17,1.01
50,0,23.3,0.0,-50.3,0.17,1.01
51,0,23.3,0.0,-50.3,0.17,1.09
52,0,23.3,0.0,-50.3,0.17,1.09
53,0,23.3,0.0,-50.31,0.17,0.85
54,0,23.3,0.0,-50.31,0.17,0.85
55,0,23.3,0.0,-50.31,0.17,0.85
56,0,23.3,0.0,-50.34,0.15,0.9
57,0,23.3,0.0,-50.34,0.15,0.9
58,0,23.3,0.0,-50.32,0.17,0.3
59,0,23.3,0.0,-50.32,0.17,0.3
60,0,23.3,0.0,-50.31,0.16,0.18
61,0,23.3,0.0,-50.31,0.16,0.18
62,0,23.3,0.0,-50.32,0.16,0.19
63,0,23.3,0.0,-50.32,0.16,0.19
64,0,23.3,0.0,-50.28,0.16,-0.19
65,0,23.3,0.0,-50.28,0.15,-0.13
66,0,23.3,0.0,-50.28,0.15,-0.13
67,0,23.3,0.0,-50.28,0.16,0.05
68,0,23.3,0.0,-50.28,0.16,0.05
69,0,23.3,0.0,-50.27,0.15,0.1
70,0,23.3,0.0,-50.27,0.15,0.1
71,0,23.3,0.0,-50.29,0.16,0.27
72,0,23.3,0.0,-50.29,0.16,0.27
73,0,23.3,0.0,-50.3,0.16,0.12
74,0,23.3,0.0,-50.3,0.16,0.12
75,0,23.3,0.0,-50.29,0.16,0.15
76,0,23.3,0.0,-50.3,0.16,0.15
77,0,23.3,0.0,-50.3,0.16,0.15
78,0,23.3,0.0,-50.3,0.16,0.09
79,0,23.3,0.0,-50.3,0.16,0.09
80,0,23.3,0.0,-50.31,0.17,-0.01
81,0,23.3,0.0,-50.31,0.17,-0.01
82,0,23.3,0.0,-50.3,0.17,0.03
83,0,23.3,0.0,-50.3,0.17,0.03
84,0,23.3,0.0,-50.31,0.17,0.04
85,0,23.3,0.0,-50.31,0.17,0.04
86,0,23.3,0.0,-50.31,0.17,0.04
87,0,23.3,0.0,-50.32,0.16,0.07
88,0,23.3,0.0,-50.32,0.16,0.07
89,0,23.3,0.0,-50.32,0.17,0.02
90,0,23.3,0.0,-50.32,0.17,0.02
91,0,23.3,0.0,-50.32,0.17,0.0
92,0,23.3,0.0,-50.32,0.17,0.0
93,0,23.3,0.0,-50.33,0.17,0.01
94,0,23.3,0.0,-50.33,0.17,0.01
95,0,23.3,0.0,-50.32,0.16,0.01
96,0,23.3,0.0,-50.32,0.16,0.01
97,0,23.3,0.0,-50.32,0.16,0.01
98,0,23.3,0.0,-50.3,0.15,0.0
99,0,23.3,0.0,-50.3,0.15,0.0
100,0,23.3,0.0,-50.32,0.16,0.02
101,0,23.3,0.0,-50.32,0.16,0.02
102,0,23.3,0.0,-50.34,0.16,0.01
103,0,23.3,0.0,-50.34,0.16,0.01
104,0,23.3,0.0,-50.34,0.17,0.01
105,0,23.3,0.0,-50.34,0.17,0.01
106,0,23.3,0.0,-50.36,0.18,0.0
107,0,23.3,0.0,-50.36,0.17,0.02
108,0,23.3,0.0,-50.36,0.17,0.02
109,0,23.3,0.0,-50.36,0.17,0.06
110,0,23.3,0.0,-50.36,0.17,0.06
111,0,23.3,0.0,-50.38,0.18,0.05
112,0,23.3,0.0,-50.38,0.18,0.05
113,0,23.3,0.0,-50.38,0.17,0.04
114,0,23.3,0.0,-50.38,0.17,0.04
115,0,23.3,0.0,-50.39,0.16,0.09
116,0,23.3,0.0,-50.39,0.16,0.09
117,0,23.3,0.0,-50.39,0.16,0.04
118,0,23.3,0.0,-50.38,0.17,0.04
119,0,23.3,0.0,-50.38,0.17,0.04
120,0,23.3,0.0,-50.38,0.16,0.02
121,0,23.3,0.0,-50.38,0.16,0.02
122,0,23.3,0.0,-50.38,0.18,-0.02
123,0,23.3,0.0,-50.38,0.18,-0.02
124,0,23.3,0.0,-50.37,0.18,0.19
125,0,23.3,0.0,-50.37,0.18,0.19
126,0,23.3,0.0,-50.36,0.17,0.07
127,0,23.3,0.0,-50.36,0.17,0.07
128,0,23.3,0.0,-50.36,0.17,0.07
129,0,23.3,0.0,-50.35,0.16,-0.03
130,0,23.3,0.0,-50.35,0.16,-0.03
131,0,23.3,0.0,-50.36,0.17,0.27
132,0,23.3,0.0,-50.36,0.17,0.27
133,0,23.3,0.0,-50.39,0.17,0.61
134,0,23.3,0.0,-50.39,0.17,0.61
135,0,23.3,0.0,-50.38,0.15,0.68
136,0,23.3,0.0,-50.38,0.15,0.68
137,0,23.3,0.0,-50.42,0.17,0.76
138,0,23.3,0.0,-50.42,0.16,0.74
139,0,23.3,0.0,-50.42,0.16,0.74
140,0,23.3,0.0,-50.43,0.17,0.85
141,0,23.3,0.0,-50.43,0.17,0.85
142,0,23.3,0.0,-50.46,0.18,0.66
143,0,23.3,0.0,-50.46,0.18,0.66
144,0,23.3,0.0,-50.47,0.17,0.36
145,0,23.3,0.0,-50.47,0.17,0.36
146,0,23.3,0.0,-50.5,0.16,0.4
147,0,23.3,0.0,-50.5,0.16,0.4
148,0,23.3,0.0,-50.47,0.16,0.15
149,0,23.3,0.0,-50.47,0.16,0.14
150,0,23.3,0.0,-50.47,0.16,0.14
151,0,23.3,0.0,-50.48,0.17,0.13
152,0,23.3,0.0,-50.48,0.17,0.13
153,0,23.3,0.0,-50.48,0.17,0.09
154,0,23.3,0.0,-50.48,0.17,0.09
155,0,23.3,0.0,-50.5,0.16,0.0
156,0,23.3,0.0,-50.5,0.16,0.0
157,0,23.3,0.0,-50.5,0.16,0.04
158,0,23.3,0.0,-50.5,0.15,0.1
159,0,23.3,0.0,-50.5,0.15,0.1
160,0,23.3,0.0,-50.5,0.16,0.0
161,0,23.3,0.0,-50.5,0.16,0.0
162,0,23.3,0.0,-50.5,0.17,0.03
163,0,23.3,0.0,-50.5,0.17,0.03
164,0,23.3,0.0,-50.49,0.17,0.01
165,0,23.3,0.0,-50.49,0.17,0.01
166,0,23.3,0.0,-50.5,0.16,-0.05
167,0,23.3,0.0,-50.5,0.16,-0.05
168,0,23.3,0.0,-50.5,0.16,0.12
169,0,23.3,0.0,-50.5,0.16,0.12
170,0,23.3,0.0,-50.5,0.16,0.12
171,0,23.3,0.0,-50.5,0.17,0.08
172,0,23.3,0.0,-50.5,0.17,0.08
173,0,23.3,0.0,-50.5,0.17,0.04
174,0,23.3,0.0,-50.5,0.17,0.04
175,0,23.3,0.0,-50.49,0.16,0.05
176,0,23.3,0.0,-50.49,0.16,0.05
177,0,23.3,0.0,-50.5,0.18,-0.04
178,0,23.3,0.0,-50.5,0.18,-0.04
179,0,23.3,0.0,-50.52,0.16,0.0
180,0,23.3,0.0,-50.52,0.16,-0.01
181,0,23.3,0.0,-50.52,0.16,-0.01
182,0,23.3,0.0,-50.53,0.16,0.01
183,0,23.3,0.0,-50.53,0.16,0.01
184,0,23.3,0.0,-50.56,0.15,0.1
185,0,23.3,0.0,-50.56,0.15,0.1
186,0,23.3,0.0,-50.58,0.17,-0.05
187,0,23.3,0.0,-50.58,0.17,-0.05
188,0,23.3,0.0,-50.6,0.17,0.01
189,0,23.3,0.0,-50.6,0.17,0.01
190,0,23.3,0.0,-50.61,0.16,-0.08
191,0,23.3,0.0,-50.61,0.18,-0.03
192,0,23.3,0.0,-50.61,0.18,-0.03
193,0,23.3,0.0,-50.59,0.17,-0.11
194,0,23.3,0.0,-50.59,0.17,-0.11
195,0,23.3,0.0,-50.58,0.16,-0.1
196,0,23.3,0.0,-50.58,0.16,-0.1
197,0,23.3,0.0,-50.59,0.15,-0.1
198,0,23.3,0.0,-50.59,0.15,-0.1
199,0,23.3,0.0,-50.58,0.15,-0.02
200,0,23.3,0.0,-50.58,0.13,-0.03
201,0,23.3,0.0,-50.58,0.13,-0.03
202,0,23.3,0.0,-50.59,0.14,-0.06
203,0,23.3,0.0,-50.59,0.14,-0.06
204,0,23.3,0.0,-50.59,0.13,-0.16
205,0,23.3,0.0,-50.59,0.13,-0.16
206,0,23.3,0.0,-50.6,0.15,-0.15
207,0,23.3,0.0,-50.6,0.15,-0.15
208,0,23.3,0.0,-50.61,0.15,-0.1
209,0,23.3,0.0,-50.61,0.15,-0.1
210,0,23.3,0.0,-50.6,0.14,-0.12
211,0,23.3,0.0,-50.6,0.14,-0.12
212,0,23.3,0.0,-50.57,0.14,-0.18
213,0,23.3,0.0,-50.59,0.15,-0.11
214,0,23.3,0.0,-50.59,0.15,-0.11
215,0,23.3,0.0,-50.58,0.15,0.04
216,0,23.3,0.0,-50.58,0.15,0.04
217,0,23.3,0.0,-50.57,0.14,0.0
218,0,23.3,0.0,-50.57,0.14,0.0
219,0,23.3,0.0,-50.55,0.14,0.04
220,0,23.3,0.0,-50.55,0.14,0.04
221,0,23.3,0.0,-50.56,0.15,0.17
222,0,23.3,0.0,-50.56,0.15,0.18
223,0,23.3,0.0,-50.56,0.15,0.18
224,0,23.3,0.0,-50.57,0.15,0.19
225,0,23.3,0.0,-50.57,0.15,0.19
226,0,23.3,0.0,-50.56,0.13,0.23
227,0,23.3,0.0,-50.56,0.13,0.23
228,0,23.3,0.0,-50.56,0.13,0.31
229,0,23.3,0.0,-50.56,0.13,0.31
230,0,23.3,0.0,-50.58,0.15,0.56
231,0,23.3,0.0,-50.58,0.15,0.56
232,0,23.3,0.0,-50.62,0.14,0.52
233,0,23.3,0.0,-50.62,0.13,0.41
234,0,23.3,0.0,-50.62,0.13,0.41
235,0,23.3,0.0,-50.63,0.15,0.52
236,0,23.3,0.0,-50.63,0.15,0.52
237,0,23.3,0.0,-50.65,0.15,0.41
238,0,23.3,0.0,-50.65,0.15,0.41
239,0,23.3,0.0,-50.62,0.14,0.17
240,0,23.3,0.0,-50.62,0.14,0.17
241,0,23.3,0.0,-50.61,0.15,0.15
242,0,23.3,0.0,-50.59,0.14,0.13
243,0,23.3,0.0,-50.59,0.14,0.13
244,0,23.3,0.0,-50.58,0.14,0.14
245,0,23.3,0.0,-50.58,0.14,0.14
246,0,23.3,0.0,-50.56,0.16,0.17
247,0,23.3,0.0,-50.56,0.16,0.17
248,0,23.3,0.0,-50.53,0.15,0.44
249,0,23.3,0.0,-50.53,0.15,0.44
250,0,23.3,0.0,-50.53,0.15,0.46
251,0,23.3,0.0,-50.53,0.15,0.46
252,0,23.3,0.0,-50.54,0.14,0.31
253,0,23.3,0.0,-50.54,0.14,0.31
254,0,23.3,0.0,-50.55,0.14,0.39
255,0,23.3,0.0,-50.55,0.13,0.42
256,0,23.3,0.0,-50.55,0.13,0.42
257,0,23.3,0.0,-50.56,0.15,0.44
258,0,23.3,0.0,-50.56,0.15,0.44
259,0,23.3,0.0,-50.53,0.14,0.6
260,0,23.3,0.0,-50.53,0.14,0.6
261,0,23.3,0.0,-50.54,0.14,0.51
262,0,23.3,0.0,-50.54,0.14,0.51
263,0,23.3,0.0,-50.53,0.12,0.53
264,0,23.3,0.0,-50.52,0.15,0.56
265,0,23.3,0.0,-50.52,0.15,0.56
266,0,23.3,0.0,-50.53,0.13,0.35
267,0,23.3,0.0,-50.53,0.13,0.35
268,0,23.3,0.0,-50.55,0.13,0.35
269,0,23.3,0.0,-50.56,0.15,0.31
270,0,23.3,0.0,-50.56,0.15,0.31
271,0,23.3,0.0,-50.56,0.15,0.31
272,0,23.3,0.0,-50.55,0.15,0.35
273,0,23.3,0.0,-50.55,0.15,0.35
274,0,23.3,0.0,-50.57,0.15,0.34
275,0,23.3,0.0,-50.58,0.14,0.32
276,0,23.3,0.0,-50.58,0.14,0.32
277,0,23.3,0.0,-50.61,0.15,0.21
278,0,23.3,0.0,-50.61,0.15,0.21
279,0,23.3,0.0,-50.61,0.15,0.17
280,0,23.3,0.0,-50.61,0.15,0.17
281,0,23.3,0.0,-50.63,0.13,0.16
282,0,23.3,0.0,-50.63,0.13,0.16
283,0,23.3,0.0,-50.64,0.13,0.16
284,0,23.3,0.0,-50.64,0.13,0.16
285,0,23.3,0.0,-50.64,0.13,0.16
286,0,23.3,0.0,-50.65,0.14,0.05
287,0,23.3,0.0,-50.65,0.14,0.05
288,0,23.3,0.0,-50.65,0.14,0.29
289,0,23.3,0.0,-50.65,0.14,0.29
290,0,23.3,0.0,-50.65,0.12,0.2
291,0,23.3,0.0,-50.65,0.12,0.2
292,0,23.3,0.0,-50.66,0.13,0.17
293,0,23.3,0.0,-50.66,0.13,0.17
294,0,23.3,0.0,-50.66,0.13,0.17
295,0,23.3,0.0,-50.66,0.13,0.17
296,0,23.3,0.0,-50.66,0.13,0.17
297,0,23.3,0.0,-50.68,0.13,0.02
298,0,23.3,0.0,-50.68,0.13,0.02
299,0,23.3,0.0,-50.67,0.13,0.14
300,0,23.3,0.0,-50.67,0.13,0.14
301,0,23.3,0.0,-50.69,0.15,0.26
302,0,23.3,0.0,-50.69,0.15,0.26
303,0,23.3,0.0,-50.68,0.15,0.57
304,0,23.3,0.0,-50.68,0.15,0.57
305,0,23.3,0.0,-50.67,0.13,0.45
306,0,23.3,0.0,-50.66,0.14,0.35
307,0,23.3,0.0,-50.66,0.14,0.35
308,0,23.3,0.0,-50.66,0.15,0.72
309,0,23.3,0.0,-50.66,0.15,0.72
310,0,23.3,0.0,-50.64,0.15,0.55
311,0,23.3,0.0,-50.64,0.15,0.55
312,0,23.3,0.0,-50.66,0.14,0.5
313,0,23.3,0.0,-50.65,0.14,0.45
314,0,23.3,0.0,-50.65,0.14,0.45
315,0,23.3,0.0,-50.65,0.14,0.45
316,0,23.3,0.0,-50.65,0.14,0.45
317,0,23.3,0.0,-50.63,0.13,0.45
318,0,23.3,0.0,-50.63,0.13,0.45
319,0,23.3,0.0,-50.64,0.14,0.43
320,0,23.3,0.0,-50.64,0.14,0.43
321,0,23.3,0.0,-50.64,0.15,0.55
322,0,23.3,0.0,-50.64,0.15,0.55
323,0,23.3,0.0,-50.63,0.14,0.32
324,0,23.3,0.0,-50.63,0.14,0.32
325,0,23.3,0.0,-50.64,0.14,0.26
326,0,23.3,0.0,-50.64,0.14,0.26
327,0,23.3,0.0,-50.64,0.14,0.26
328,0,23.3,0.0,-50.62,0.13,0.36
329,0,23.3,0.0,-50.62,0.13,0.36
330,0,23.3,0.0,-50.62,0.14,0.42
331,0,23.3,0.0,-50.62,0.14,0.42
332,0,23.3,0.0,-50.62,0.11,0.44
333,0,23.3,0.0,-50.62,0.11,0.44
334,0,23.3,0.0,-50.64,0.16,0.35
335,0,23.3,0.0,-50.64,0.16,0.35
336,0,23.3,0.0,-50.69,0.16,0.07
337,0,23.3,0.0,-50.69,0.16,0.07
338,0,23.3,0.0,-50.69,0.16,0.07
339,0,23.3,0.0,-50.75,0.17,0.35
340,0,23.3,0.0,-50.75,0.17,0.35
341,0,23.3,0.0,-50.73,0.17,0.34
342,0,23.3,0.0,-50.73,0.17,0.34
343,0,23.3,0.0,-50.76,0.17,0.32
344,0,23.3,0.0,-50.76,0.17,0.32
345,0,23.3,0.0,-50.8,0.16,0.18
346,0,23.3,0.0,-50.8,0.16,0.18
347,0,23.3,0.0,-50.75,0.16,0.07
348,0,23.3,0.0,-50.76,0.14,0.16
349,0,23.3,0.0,-50.76,0.14,0.16
350,0,23.3,0.0,-50.76,0.14,0.2
351,0,23.3,0.0,-50.76,0.14,0.2
352,0,23.3,0.0,-50.78,0.15,0.27
353,0,23.3,0.0,-50.78,0.15,0.27
354,0,23.3,0.0,-50.79,0.15,0.35
355,0,23.3,0.0,-50.79,0.15,0.35
356,0,23.3,0.0,-50.79,0.15,0.39
357,0,23.3,0.0,-50.79,0.15,0.39
358,0,23.3,0.0,-50.8,0.15,0.41
359,0,23.3,0.0,-50.8,0.16,0.41
360,0,23.3,0.0,-50.8,0.16,0.41
361,0,23.3,0.0,-50.8,0.17,0.35
362,0,23.3,0.0,-50.8,0.17,0.35
363,0,23.3,0.0,-50.81,0.16,0.39
364,0,23.3,0.0,-50.81,0.16,0.39
365,0,23.3,0.0,-50.81,0.16,0.6
366,0,23.3,0.0,-50.81,0.16,0.6
367,0,23.3,0.0,-50.79,0.15,0.34
368,0,23.3,0.0,-50.79,0.15,0.34
369,0,23.3,0.0,-50.79,0.15,0.34
370,0,23.3,0.0,-50.81,0.18,0.35
371,0,23.3,0.0,-50.81,0.18,0.35
372,0,23.3,0.0,-50.83,0.18,0.25
373,0,23.3,0.0,-50.83,0.18,0.25
374,0,23.3,0.0,-50.84,0.17,0.27
375,0,23.3,0.0,-50.84,0.17,0.27
376,0,23.3,0.0,-50.86,0.17,0.18
377,0,23.3,0.0,-50.86,0.17,0.18
378,0,23.3,0.0,-50.88,0.17,0.18
379,0,23.3,0.0,-50.88,0.17,0.18
380,0,23.3,0.0,-50.88,0.17,0.18
381,0,23.3,0.0,-50.9,0.16,0.04
382,0,23.3,0.0,-50.9,0.16,0.04
383,0,23.3,0.0,-50.9,0.14,0.29
384,0,23.3,0.0,-50.9,0.14,0.29
385,0,23.3,0.0,-50.92,0.17,0.31
386,0,23.3,0.0,-50.92,0.17,0.31
387,0,23.3,0.0,-50.92,0.18,0.49
388,0,23.3,0.0,-50.92,0.18,0.49
389,0,23.3,0.0,-50.9,0.18,0.29
390,0,23.3,0.0,-50.9,0.18,0.27
391,0,23.3,0.0,-50.9,0.18,0.27
392,0,23.3,0.0,-50.89,0.18,0.41
393,0,23.3,0.0,-50.89,0.18,0.41
394,0,23.3,0.0,-50.92,0.18,0.63
395,0,23.3,0.0,-50.92,0.18,0.63
396,0,23.3,0.0,-50.95,0.18,0.38
397,0,23.3,0.0,-50.95,0.18,0.38
398,0,23.3,0.0,-50.97,0.18,0.17
399,0,23.3,0.0,-50.99,0.17,0.32
400,0,23.3,0.0,-50.99,0.17,0.32
401,0,23.3,0.0,-51.02,0.16,0.16
402,0,23.3,0.0,-51.02,0.16,0.16
403,0,23.3,0.0,-51.02,0.16,0.15
404,0,23.3,0.0,-51.02,0.16,0.15
405,0,23.3,0.0,-51.02,0.16,0.32
406,0,23.3,0.0,-51.02,0.16,0.32
407,0,23.3,0.0,-51.03,0.18,0.45
408,0,23.3,0.0,-51.03,0.18,0.45
409,0,23.3,0.0,-51.04,0.18,0.62
410,0,23.3,0.0,-51.04,0.18,0.62
411,0,23.3,0.0,-51.04,0.18,0.62
412,0,23.3,0.0,-51.05,0.17,0.53
413,0,23.3,0.0,-51.05,0.17,0.53
414,0,23.3,0.0,-51.1,0.19,0.61
415,0,23.3,0.0,-51.1,0.19,0.61
416,0,23.3,0.0,-51.12,0.18,0.8
417,0,23.3,0.0,-51.12,0.18,0.8
418,0,23.3,0.0,-51.14,0.19,0.84
419,0,23.3,0.0,-51.14,0.19,0.84
420,0,23.3,0.0,-51.12,0.19,0.88
421,0,23.3,0.0,-51.12,0.19,0.92
422,0,23.3,0.0,-51.12,0.19,0.92
423,0,23.3,0.0,-51.11,0.18,0.36
424,0,23.3,0.0,-51.11,0.18,0.36
425,0,23.3,0.0,-51.14,0.17,0.33
426,0,23.3,0.0,-51.14,0.17,0.33
427,0,23.3,0.0,-51.13,0.18,0.14
428,0,23.3,0.0,-51.13,0.18,0.14
429,0,23.3,0.0,-51.17,0.16,0.24
430,0,23.3,0.0,-51.17,0.16,0.24
431,0,23.3,0.0,-51.15,0.17,0.18
432,0,23.3,0.0,-51.16,0.17,0.05
433,0,23.3,0.0,-51.16,0.17,0.05
434,0,23.3,0.0,-51.22,0.18,0.29
435,0,23.3,0.0,-51.22,0.18,0.29
436,0,23.3,0.0,-51.22,0.17,0.17
437,0,23.3,0.0,-51.22,0.17,0.17
438,0,23.3,0.0,-51.22,0.16,0.38
439,0,23.3,0.0,-51.22,0.16,0.38
440,0,23.3,0.0,-51.22,0.16,0.35
441,0,23.3,0.0,-51.22,0.16,0.35
442,0,23.3,0.0,-51.22,0.16,0.35
443,0,23.3,0.0,-51.22,0.18,0.5
444,0,23.3,0.0,-51.22,0.18,0.5
445,0,23.3,0.0,-51.19,0.18,0.35
446,0,23.3,0.0,-51.19,0.18,0.35
447,0,23.3,0.0,-51.2,0.17,0.35
448,0,23.3,0.0,-51.2,0.17,0.35
449,0,23.3,0.0,-51.21,0.18,0.24
450,0,23.3,0.0,-51.21,0.18,0.24
451,0,23.3,0.0,-51.19,0.18,0.31
452,0,23.3,0.0,-51.19,0.18,0.31
453,0,23.3,0.0,-51.19,0.18,0.31
454,0,23.3,0.0,-51.15,0.16,0.27
455,0,23.3,0.0,-51.15,0.16,0.27
456,0,23.3,0.0,-51.14,0.17,0.35
457,0,23.3,0.0,-51.14,0.17,0.35
458,0,23.3,0.0,-51.13,0.17,0.28
459,0,23.3,0.0,-51.13,0.17,0.28
460,0,23.3,0.0,-51.11,0.17,0.57
461,0,23.3,0.0,-51.11,0.17,0.57
462,0,23.3,0.0,-51.09,0.17,0.59
463,0,23.3,0.0,-51.1,0.17,0.55
464,0,23.3,0.0,-51.1,0.17,0.55
465,0,23.3,0.0,-51.11,0.18,0.55
466,0,23.3,0.0,-51.11,0.18,0.55
467,0,23.3,0.0,-51.1,0.16,0.33
468,0,23.3,0.0,-51.1,0.16,0.33
469,0,23.3,0.0,-51.11,0.17,0.51
470,0,23.3,0.0,-51.11,0.17,0.51
471,0,23.3,0.0,-51.13,0.17,0.51
472,0,23.3,0.0,-51.13,0.17,0.51
473,0,23.3,0.0,-51.13,0.17,0.51
474,0,23.3,0.0,-51.11,0.17,0.52
475,0,23.3,0.0,-51.11,0.17,0.52
476,0,23.3,0.0,-51.15,0.17,0.33
477,0,23.3,0.0,-51.15,0.17,0.33
478,0,23.3,0.0,-51.17,0.18,0.47
479,0,23.3,0.0,-51.17,0.18,0.47
480,0,23.3,0.0,-51.14,0.17,0.56
481,0,23.3,0.0,-51.14,0.17,0.56
482,0,23.3,0.0,-51.13,0.17,0.33
483,0,23.3,0.0,-51.13,0.17,0.33
484,0,23.3,0.0,-51.13,0.17,0.33
485,0,23.3,0.0,-51.14,0.17,0.02
486,0,23.3,0.0,-51.14,0.17,0.02
487,0,23.3,0.0,-51.16,0.16,0.16
488,0,23.3,0.0,-51.16,0.16,0.16
489,0,23.3,0.0,-51.18,0.17,0.39
490,0,23.3,0.0,-51.18,0.17,0.39
491,0,23.3,0.0,-51.21,0.16,0.32
492,0,23.3,0.0,-51.21,0.16,0.32
493,0,23.3,0.0,-51.24,0.16,0.39
494,0,23.3,0.0,-51.24,0.16,0.39
495,0,23.3,0.0,-51.25,0.16,0.34
496,0,23.3,0.0,-51.25,0.16,0.31
497,0,23.3,0.0,-51.25,0.16,0.31
498,0,23.3,0.0,-51.27,0.17,0.41
499,0,23.3,0.0,-51.27,0.17,0.41
500,0,23.3,0.0,-51.29,0.16,0.34
501,0,23.3,0.0,-51.29,0.16,0.34
502,0,23.3,0.0,-51.29,0.16,0.36
503,0,23.3,0.0,-51.29,0.16,0.36
504,0,23.3,0.0,-51.32,0.17,0.42
505,0,23.3,0.0,-51.33,0.16,0.44
506,0,23.3,0.0,-51.33,0.16,0.44
507,0,23.3,0.0,-51.39,0.18,0.62
508,0,23.3,0.0,-51.39,0.18,0.62
509,0,23.3,0.0,-51.36,0.17,0.06
510,0,23.3,0.0,-51.36,0.17,0.06
511,0,23.3,0.0,-51.42,0.15,0.08
512,0,23.3,0.0,-51.42,0.15,0.08
513,0,23.3,0.0,-51.45,0.14,-0.17
514,0,23.3,0.0,-51.45,0.14,-0.17
515,0,23.3,0.0,-51.45,0.14,-0.3
516,0,23.3,0.0,-51.45,0.14,-0.27
517,0,23.3,0.0,-51.45,0.14,-0.27
518,0,23.3,0.0,-51.38,0.15,0.05
519,0,23.3,0.0,-51.38,0.15,0.05
520,0,23.3,0.0,-51.42,0.16,-0.24
521,0,23.3,0.0,-51.42,0.16,-0.24
522,0,23.3,0.0,-51.39,0.14,-0.3
523,0,23.3,0.0,-51.39,0.14,-0.3
524,0,23.3,0.0,-51.34,0.13,-0.12
525,0,23.3,0.0,-51.35,0.13,0.14
526,0,23.3,0.0,-51.35,0.13,0.14
527,0,23.3,0.0,-51.32,0.14,0.09
528,0,23.3,0.0,-51.32,0.14,0.09
529,0,23.3,0.0,-51.31,0.12,-0.04
530,0,23.3,0.0,-51.31,0.12,-0.04
531,0,23.3,0.0,-51.31,0.14,0.11
532,0,23.3,0.0,-51.31,0.14,0.11
533,0,23.3,0.0,-51.33,0.14,0.13
534,0,23.3,0.0,-51.33,0.14,0.13
535,0,23.3,0.0,-51.33,0.13,0.11
536,0,23.3,0.0,-51.33,0.13,0.11
537,0,23.3,0.0,-51.33,0.13,0.11
538,0,23.3,0.0,-51.34,0.14,0.21
539,0,23.3,0.0,-51.34,0.14,0.21
540,0,23.3,0.0,-51.34,0.15,0.26
541,0,23.3,0.0,-51.34,0.15,0.26
542,0,23.3,0.0,-51.35,0.15,0.37
543,0,23.3,0.0,-51.35,0.15,0.37
544,0,23.3,0.0,-51.38,0.15,0.43
545,0,23.3,0.0,-51.38,0.15,0.43
546,0,23.3,0.0,-51.29,0.17,0.02
547,0,23.3,0.0,-51.3,0.12,0.05
548,0,23.3,0.0,-51.3,0.12,0.05
549,0,23.3,0.0,-51.32,0.18,0.38
550,0,23.3,0.0,-51.32,0.18,0.38
551,0,23.3,0.0,-51.33,0.2,0.52
552,0,23.3,0.0,-51.33,0.2,0.52
553,0,23.3,0.0,-51.34,-0.13,0.61
554,0,23.3,0.0,-51.34,-0.13,0.61
555,0,23.3,0.0,-51.34,0.05,0.64
556,0,23.3,0.0,-51.34,0.05,0.64
557,0,23.3,0.0,-51.32,0.0,0.62
558,0,23.3,0.0,-51.33,0.02,0.65
559,0,23.3,0.0,-51.33,0.02,0.65
560,0,23.3,0.0,-51.34,0.06,0.74
561,0,23.3,0.0,-51.34,0.06,0.74
562,0,23.3,0.0,-51.31,0.05,0.53
563,0,23.3,0.0,-51.31,0.05,0.53
564,0,23.3,0.0,-51.33,0.11,0.75
565,0,23.3,0.0,-51.33,0.11,0.75
566,0,23.3,0.0,-51.34,0.12,0.64
567,0,23.3,0.0,-51.34,0.12,0.64
568,0,23.3,0.0,-51.34,0.12,0.64
569,0,23.3,0.0,-51.31,0.15,0.43
570,0,23.3,0.0,-51.31,0.15,0.43
571,0,23.3,0.0,-51.29,0.18,0.76
572,0,23.3,0.0,-51.29,0.18,0.76
573,0,23.3,0.0,-51.3,0.29,0.53
574,0,23.3,0.0,-51.58,0.98,1.1
575,0,3.3,0.0,-51.58,0.98,1.1
576,0,3.3,0.0,-52.15,1.41,0.78
577,0,3.3,0.0,-52.15,1.41,0.78
578,0,3.3,0.0,-52.15,1.41,0.78
579,0,3.3,0.0,-52.15,1.41,0.78
580,0,3.3,0.0,-54.59,2.27,1.59
581,0,3.3,0.0,-54.59,2.27,1.59
582,0,3.3,0.0,-55.34,1.94,1.2
583,0,3.3,0.0,-55.34,1.94,1.2
584,0,3.3,0.0,-55.33,2.22,0.41
585,0,3.3,0.0,-55.33,2.22,0.41
586,0,3.3,0.0,-55.49,1.56,1.19
587,0,3.3,0.0,-55.49,1.56,1.19
588,0,3.3,0.0,-56.29,1.5,1.39
589,0,3.3,0.0,-56.24,1.97,1.38
590,0,6.6,0.0,-56.24,1.97,1.38
591,0,6.6,0.0,-57.26,1.46,1.77
592,0,3.3,0.0,-57.26,1.46,1.77
593,0,6.6,0.0,-58.32,1.83,1.64
594,0,6.6,0.0,-58.32,1.83,1.64
595,0,3.3,0.0,-59.69,1.79,2.03
596,0,3.3,0.0,-59.69,1.79,2.03
597,0,3.3,0.0,-60.87,0.86,0.57
598,0,6.6,0.0,-60.87,0.86,0.57
599,0,3.3,0.0,-62.55,1.38,0.02
600,0,6.6,0.0,-62.71,1.53,-0.1
601,0,10.0,0.0,-62.71,1.53,-0.1
602,0,6.6,0.0,-64.64,0.7,1.26
603,0,3.3,0.0,-64.64,0.7,1.26
604,1,6.6,0.0,-67.58,2.37,-0.7
605,1,3.3,0.0,-67.58,2.37,-0.7
606,0,3.3,0.0,-71.41,2.14,-0.07
607,0,3.3,0.0,-71.41,2.14,-0.07
608,0,3.3,0.0,-75.93,-0.18,0.54
609,0,3.3,0.0,-75.93,-0.18,0.54
610,0,3.3,0.0,-75.93,-0.18,0.54
611,1,3.3,0.0,-81.0,-1.44,0.37
612,1,3.3,0.0,-81.0,-1.44,0.37
613,0,3.3,0.0,-84.6,-1.54,0.54
614,0,3.3,0.0,-84.6,-1.54,0.54
615,0,3.3,0.0,-86.83,-1.84,0.84
616,0,3.3,0.0,-86.83,-1.84,0.84
617,2,3.3,0.0,-87.0,-1.84,0.75
618,2,3.3,0.0,-87.0,-1.84,0.75
619,2,3.3,0.0,-86.61,-2.07,1.19
620,1,3.3,0.0,-86.61,-2.07,1.19
621,1,3.3,0.0,-86.61,-2.07,1.19
622,1,3.3,0.0,-86.6,-0.59,1.56
623,1,3.3,0.0,-86.6,-0.59,1.56
624,1,3.3,0.0,-86.68,-0.13,1.07
625,1,3.3,0.0,-86.68,-0.13,1.07
626,1,3.3,0.0,-86.68,0.08,1.45
627,1,3.3,0.0,-86.68,0.08,1.45
628,1,3.3,0.0,-86.74,0.16,1.69
629,1,3.3,0.0,-86.74,0.16,1.69
630,1,3.3,0.0,-86.71,0.15,1.17
631,1,3.3,0.0,-86.71,0.11,1.19
632,0,3.3,0.0,-86.71,0.11,1.19
633,0,3.3,0.0,-86.71,0.2,1.45
634,0,3.3,0.0,-86.69,0.13,1.66
635,0,3.3,0.0,-86.68,-0.05,1.79
636,1,3.3,0.0,-86.68,-0.05,1.79
637,1,3.3,0.0,-86.59,-0.08,1.71
638,0,3.3,0.0,-86.59,-0.08,1.71
639,0,3.3,0.0,-86.92,0.01,1.9
640,0,3.3,0.0,-86.92,0.01,1.9
641,0,3.3,0.0,-86.99,0.61,1.21
642,0,3.3,0.0,-86.96,0.49,1.08
643,0,3.3,0.0,-86.96,0.49,1.08
644,0,3.3,0.0,-86.8,0.32,1.29
645,0,3.3,0.0,-86.8,0.32,1.29
646,0,3.3,0.0,-86.59,0.21,1.37
647,0,3.3,0.0,-86.59,0.21,1.37
648,0,3.3,0.0,-86.48,0.17,1.59
649,0,3.3,0.0,-86.48,0.17,1.59
650,0,3.3,0.0,-86.37,-0.31,1.27
651,0,3.3,0.0,-86.37,-0.31,1.27
652,1,3.3,0.0,-86.13,-0.6,1.1
653,1,3.3,0.0,-86.11,-0.99,1.5
654,1,3.3,0.0,-86.11,-0.99,1.5
655,1,3.3,0.0,-85.45,-1.11,0.97
656,1,3.3,0.0,-85.45,-1.11,0.97
657,0,3.3,0.0,-84.18,-0.47,1.03
658,0,3.3,0.0,-84.18,-0.47,1.03
659,0,3.3,0.0,-83.96,-0.48,1.41
660,0,3.3,0.0,-83.96,-0.48,1.41
661,0,3.3,0.0,-83.55,-0.18,1.35
662,0,3.3,0.0,-83.55,-0.18,1.35
663,0,3.3,0.0,-83.55,-0.18,1.35
664,0,3.3,0.0,-83.32,0.0,0.62
665,0,3.3,0.0,-83.32,0.0,0.62
666,1,3.3,0.0,-82.82,-0.23,0.97
667,1,3.3,0.0,-82.82,-0.23,0.97
668,0,3.3,0.0,-82.07,-0.18,1.49
669,0,3.3,0.0,-82.07,-0.18,1.49
670,0,3.3,0.0,-80.99,0.39,2.27
671,0,3.3,0.0,-80.99,0.39,2.27
672,0,3.3,0.0,-80.21,0.21,1.68
673,0,3.3,0.0,-80.12,-0.03,1.39
674,0,3.3,0.0,-80.12,-0.03,1.39
675,0,3.3,0.0,-79.56,0.14,1.86
676,0,3.3,0.0,-79.56,0.14,1.86
677,1,3.3,0.0,-78.36,0.35,2.06
678,1,3.3,0.0,-78.36,0.35,2.06
679,1,3.3,0.0,-76.85,0.35,2.2
680,1,3.3,0.0,-76.85,0.35,2.2
681,0,3.3,0.0,-75.35,1.31,1.33
682,0,3.3,0.0,-75.35,1.31,1.33
683,0,3.3,0.0,-73.87,1.22,1.57
684,1,3.3,0.0,-73.74,0.92,1.39
685,1,3.3,0.0,-73.74,0.92,1.39
686,1,3.3,0.0,-73.66,0.88,1.28
687,0,3.3,0.0,-73.66,0.88,1.28
688,0,3.3,0.0,-73.32,0.27,1.4
689,0,3.3,0.0,-73.32,0.27,1.4
690,0,3.3,0.0,-73.08,0.1,1.87
691,0,3.3,0.0,-73.08,0.1,1.87
692,0,3.3,0.0,-73.03,0.01,1.68
693,0,3.3,0.0,-73.03,0.01,1.68
694,0,3.3,0.0,-73.0,0.08,1.58
695,0,3.3,0.0,-72.98,0.01,1.96
696,1,3.3,0.0,-72.98,0.01,1.96
697,1,3.3,0.0,-72.2,0.01,1.49
698,1,3.3,0.0,-72.2,0.01,1.49
699,1,3.3,0.0,-68.83,-0.07,1.71
700,0,3.3,0.0,-68.83,-0.07,1.71
701,0,3.3,0.0,-63.5,-0.95,1.18
702,1,3.3,0.0,-63.5,-0.95,1.18
703,1,3.3,0.0,-57.28,-1.58,0.95
704,1,3.3,0.0,-56.08,-1.61,1.02
705,1,3.3,0.0,-56.08,-1.61,1.02
706,1,3.3,0.0,-51.15,-1.62,1.03
707,1,3.3,0.0,-51.15,-1.62,1.03
708,1,3.3,0.0,-48.16,-1.45,1.72
709,0,3.3,0.0,-48.16,-1.45,1.72
710,0,3.3,0.0,-47.51,-1.17,1.03
711,1,3.3,0.0,-47.51,-1.17,1.03
712,1,3.3,0.0,-47.44,-0.35,0.95
713,1,3.3,0.0,-47.44,-0.35,0.95
714,1,3.3,0.0,-47.27,0.01,0.81
715,1,3.3,0.0,-47.21,0.03,0.82
716,1,3.3,0.0,-47.21,0.03,0.82
717,1,3.3,0.0,-47.08,0.18,0.99
718,1,3.3,0.0,-47.08,0.18,0.99
719,0,3.3,0.0,-46.81,-1.29,1.32
720,0,3.3,0.0,-46.81,-1.29,1.32
721,0,3.3,0.0,-46.12,-1.45,0.65
722,0,3.3,0.0,-46.12,-1.45,0.65
723,0,3.3,0.0,-45.56,-0.87,0.49
724,0,3.3,0.0,-45.56,-0.87,0.49
725,0,3.3,0.0,-45.56,-0.87,0.49
726,0,3.3,0.0,-46.29,-0.48,2.06
727,0,3.3,0.0,-46.29,-0.48,2.06
728,0,3.3,0.0,-46.69,0.2,1.17
729,0,3.3,0.0,-46.69,0.2,1.17
730,0,3.3,0.0,-47.04,0.31,1.37
731,0,3.3,0.0,-47.04,0.31,1.37
732,2,3.3,0.0,-46.95,0.36,1.15
733,2,3.3,0.0,-46.95,0.36,1.15
734,2,3.3,0.0,-47.08,0.65,1.34
735,0,3.3,0.0,-47.08,0.65,1.34
736,0,3.3,0.0,-47.1,0.06,1.56
737,1,3.3,0.0,-46.94,0.53,1.13
738,1,3.3,0.0,-46.94,0.53,1.13
739,0,3.3,0.0,-46.86,0.0,1.27
740,0,3.3,0.0,-46.86,0.0,1.27
741,0,3.3,0.0,-46.54,-0.13,1.49
742,0,3.3,0.0,-46.54,-0.13,1.49
743,0,3.3,0.0,-46.2,-0.23,0.88
744,0,3.3,0.0,-46.0,0.47,1.11
745,0,3.3,0.0,-46.0,0.47,1.11
746,0,3.3,0.0,-45.23,0.12,1.37
747,0,3.3,0.0,-45.23,0.12,1.37
748,0,3.3,0.0,-45.17,0.2,1.67
749,1,3.3,0.0,-45.17,0.2,1.67
750,1,3.3,0.0,-45.24,-0.04,1.62
751,0,3.3,0.0,-45.24,-0.04,1.62
752,0,3.3,0.0,-45.26,-0.03,1.74
753,0,3.3,0.0,-45.26,-0.03,1.74
754,0,3.3,0.0,-45.24,0.24,2.41
755,0,3.3,0.0,-45.24,0.24,2.41
756,0,3.3,0.0,-44.99,-0.02,1.56
757,0,3.3,0.0,-44.97,0.03,1.71
758,0,3.3,0.0,-44.97,0.03,1.71
759,0,3.3,0.0,-44.86,0.13,1.17
760,0,3.3,0.0,-44.86,0.13,1.17
761,0,3.3,0.0,-44.25,0.91,1.36
762,1,3.3,0.0,-44.25,0.91,1.36
763,1,3.3,0.0,-43.63,1.48,1.46
764,0,3.3,0.0,-43.63,1.48,1.46
765,0,3.3,0.0,-43.26,1.66,1.29
766,0,3.3,0.0,-43.26,1.66,1.29
767,0,3.3,0.0,-43.26,1.66,1.29
768,0,3.3,0.0,-43.17,1.06,1.24
769,0,3.3,0.0,-43.17,1.06,1.24
770,0,3.3,0.0,-42.99,0.61,1.16
771,0,3.3,0.0,-42.99,0.61,1.16
772,0,3.3,0.0,-42.87,0.37,1.23
773,0,3.3,0.0,-42.87,0.37,1.23
774,0,3.3,0.0,-42.79,0.23,1.12
775,0,3.3,0.0,-42.79,0.23,1.12
776,0,3.3,0.0,-42.69,0.19,0.87
777,0,3.3,0.0,-42.69,0.19,0.87
778,0,3.3,0.0,-42.57,0.16,0.9
779,0,3.3,0.0,-42.55,0.17,0.75
780,0,3.3,0.0,-42.55,0.17,0.75
781,0,3.3,0.0,-42.59,0.14,0.95
782,0,3.3,0.0,-42.59,0.14,0.95
783,0,3.3,0.0,-42.6,0.17,0.79
784,0,3.3,0.0,-42.6,0.17,0.79
785,0,3.3,0.0,-42.57,0.16,0.91
786,0,3.3,0.0,-42.57,0.16,0.91
787,0,3.3,0.0,-42.61,0.16,0.87
788,0,3.3,0.0,-42.6,0.17,0.84
789,0,3.3,0.0,-42.6,0.17,0.84
790,0,3.3,0.0,-42.59,0.14,0.81
791,0,3.3,0.0,-42.59,0.14,0.81
792,0,3.3,0.0,-42.61,0.14,0.86
793,0,3.3,0.0,-42.61,0.14,0.86
794,0,3.3,0.0,-42.61,0.15,0.88
795,0,3.3,0.0,-42.61,0.15,0.88
796,0,3.3,0.0,-42.63,0.17,1.0
797,0,3.3,0.0,-42.63,0.17,1.0
798,0,3.3,0.0,-42.63,0.16,1.12
799,0,3.3,0.0,-42.64,0.14,1.09
800,0,3.3,0.0,-42.64,0.14,1.09
801,0,3.3,0.0,-42.66,0.16,0.93
802,0,3.3,0.0,-42.66,0.16,0.93
803,0,3.3,0.0,-42.62,0.15,1.03
804,0,3.3,0.0,-42.62,0.15,1.03
805,0,3.3,0.0,-42.63,0.15,1.04
806,0,3.3,0.0,-42.63,0.15,1.04
807,0,3.3,0.0,-42.61,0.16,1.0
808,0,3.3,0.0,-42.61,0.16,1.0
809,0,3.3,0.0,-42.61,0.16,1.0
810,0,3.3,0.0,-42.65,0.16,1.02
811,0,3.3,0.0,-42.65,0.16,1.02
812,0,3.3,0.0,-42.65,0.16,0.93
813,0,3.3,0.0,-42.65,0.16,0.93
814,0,3.3,0.0,-42.65,0.17,0.96
815,0,3.3,0.0,-42.65,0.17,0.96
816,0,3.3,0.0,-42.66,0.15,0.96
817,0,3.3,0.0,-42.66,0.15,0.96
818,0,3.3,0.0,-42.66,0.16,1.05
819,0,3.3,0.0,-42.66,0.16,1.05
820,0,3.3,0.0,-42.66,0.16,1.05
821,0,3.3,0.0,-42.64,0.16,1.1
822,0,3.3,0.0,-42.66,0.16,1.07
823,0,3.3,0.0,-42.63,0.17,1.02
824,0,3.3,0.0,-42.63,0.17,1.02
825,0,3.3,0.0,-42.63,0.14,1.26
826,0,3.3,0.0,-42.63,0.14,1.26
827,0,3.3,0.0,-42.64,0.15,1.11
828,0,3.3,0.0,-42.64,0.15,1.11
829,0,3.3,0.0,-42.64,0.16,1.15
830,0,3.3,0.0,-42.65,0.16,1.19
831,0,3.3,0.0,-42.65,0.16,1.19
832,0,3.3,0.0,-42.7,0.16,1.09
833,0,3.3,0.0,-42.7,0.16,1.09
834,0,3.3,0.0,-42.72,0.17,0.89
835,0,3.3,0.0,-42.72,0.17,0.89
836,0,3.3,0.0,-42.74,0.17,0.97
837,0,3.3,0.0,-42.74,0.17,0.97
838,0,3.3,0.0,-42.75,0.17,0.81
839,0,3.3,0.0,-42.75,0.17,0.81
840,0,3.3,0.0,-42.77,0.17,0.9
841,0,3.3,0.0,-42.76,0.18,0.94
842,0,3.3,0.0,-42.76,0.18,0.94
843,0,3.3,0.0,-42.76,0.17,0.91
844,0,3.3,0.0,-42.76,0.17,0.91
845,0,3.3,0.0,-42.77,0.14,0.91
846,0,3.3,0.0,-42.77,0.14,0.91
847,0,3.3,0.0,-42.77,0.16,1.11
848,0,3.3,0.0,-42.77,0.16,1.11
849,0,3.3,0.0,-42.77,0.14,1.16
850,0,3.3,0.0,-42.77,0.14,1.16
851,0,3.3,0.0,-42.77,0.14,1.16
