time*0.5 [s],altitude [cm],rotation [rpm],airspeed [m/s],yaw [deg],pitch [deg],roll [deg]
1,0,6.6,0.0,0.0,0.01,0.28
2,0,6.6,0.0,0.019999999999999574,0.02,0.18
3,0,6.6,0.0,0.019999999999999574,0.02,0.18
4,0,6.6,0.0,0.040000000000000036,0.01,0.21
5,0,6.6,0.0,0.040000000000000036,0.01,0.21
6,0,6.6,0.0,0.07000000000000028,0.02,0.16
7,0,6.6,0.0,0.07000000000000028,0.02,0.16
8,0,6.6,0.0,0.08000000000000007,0.0,0.16
9,0,6.6,0.0,0.08000000000000007,0.0,0.04
10,0,6.6,0.0,0.08000000000000007,0.0,0.04
11,0,6.6,0.0,0.09999999999999964,0.02,0.27
12,0,6.6,0.0,0.1299999999999999,0.02,0.17
13,0,6.6,0.0,0.08000000000000007,0.0,0.3
14,0,6.6,0.0,0.08000000000000007,0.0,0.3
15,0,6.6,0.0,0.08000000000000007,0.03,0.56
16,0,6.6,0.0,0.08000000000000007,0.03,0.56
17,0,6.6,0.0,0.07000000000000028,0.03,0.52
18,0,6.6,0.0,0.07000000000000028,0.03,0.52
19,0,6.6,0.0,0.16000000000000014,0.02,0.47
20,0,6.6,0.0,0.15000000000000036,0.03,0.49
21,0,6.6,0.0,0.15000000000000036,0.03,0.49
22,0,6.6,0.0,0.1299999999999999,0.01,0.48
23,0,6.6,0.0,0.1299999999999999,0.01,0.48
24,0,6.6,0.0,0.17999999999999972,0.05,0.62
25,0,6.6,0.0,0.17999999999999972,0.05,0.62
26,0,6.6,2.624,0.11000000000000032,0.01,-0.11
27,0,6.6,2.624,0.11000000000000032,0.01,-0.11
28,0,6.6,2.624,0.17999999999999972,0.0,-0.19
29,0,6.6,2.624,0.17999999999999972,0.0,-0.19
30,0,6.6,2.624,0.17999999999999972,0.0,-0.19
31,0,6.6,2.624,0.16000000000000014,-0.04,-0.22
32,0,6.6,2.624,0.16000000000000014,-0.04,-0.22
33,0,6.6,2.624,0.1900000000000004,-0.05,-0.17
34,0,6.6,2.53,0.1900000000000004,-0.05,-0.17
35,0,6.6,2.53,0.17999999999999972,-0.05,-0.03
36,0,6.6,2.53,0.17999999999999972,-0.05,-0.03
37,0,6.6,2.53,0.22999999999999954,-0.06,-0.18
38,0,6.6,2.53,0.22999999999999954,-0.06,-0.18
39,0,6.6,2.53,0.2400000000000002,-0.07,-0.15
40,0,6.6,2.53,0.2400000000000002,-0.07,-0.15
41,0,6.6,2.53,0.2400000000000002,-0.07,-0.15
42,0,6.6,2.53,0.21999999999999975,-0.05,0.03
43,0,6.6,2.53,0.21999999999999975,-0.05,0.03
44,0,6.6,2.53,0.20999999999999996,-0.06,0.19
45,0,6.6,0.0,0.20999999999999996,-0.06,0.19
46,0,6.6,0.0,0.1900000000000004,-0.07,0.05
47,0,6.6,0.0,0.1900000000000004,-0.07,0.05
48,0,6.6,0.0,0.1900000000000004,-0.07,0.39
49,0,6.6,0.0,0.1900000000000004,-0.07,0.39
50,0,6.6,0.0,0.20000000000000018,-0.06,0.13
51,0,6.6,0.0,0.20000000000000018,-0.06,0.06
52,0,6.6,0.0,0.20000000000000018,-0.06,0.06
53,0,6.6,0.0,0.17999999999999972,-0.06,0.11
54,0,6.6,0.0,0.17999999999999972,-0.06,0.11
55,0,6.6,0.0,0.16999999999999993,-0.06,0.0
56,0,6.6,0.0,0.16999999999999993,-0.06,0.0
57,0,6.6,0.0,0.1900000000000004,-0.05,0.4
58,0,6.6,0.0,0.1900000000000004,-0.05,0.4
59,0,6.6,0.0,0.20000000000000018,-0.06,0.32
60,0,6.6,0.0,0.20000000000000018,-0.06,0.32
61,0,6.6,0.0,0.20999999999999996,-0.07,0.36
62,0,6.6,0.0,0.20999999999999996,-0.07,0.45
63,0,6.6,2.737,0.20999999999999996,-0.07,0.45
64,0,6.6,2.072,0.20999999999999996,-0.07,0.45
65,0,6.6,2.072,0.20999999999999996,-0.07,0.45
66,0,6.6,2.072,0.22999999999999954,-0.06,0.47
67,0,6.6,2.072,0.22999999999999954,-0.06,0.47
68,0,6.6,2.072,0.2400000000000002,-0.07,0.6
69,0,6.6,1.549,0.2400000000000002,-0.07,0.6
70,0,6.6,2.0,0.2699999999999996,-0.05,0.54
71,0,6.6,2.604,0.2699999999999996,-0.05,0.54
72,0,6.6,2.604,0.2699999999999996,-0.04,0.42
73,0,6.6,2.938,0.25,-0.05,0.4
74,0,6.6,2.938,0.25,-0.05,0.4
75,0,3.3,2.938,0.29000000000000004,-0.04,0.33
76,0,3.3,2.938,0.29000000000000004,-0.04,0.33
77,0,3.3,2.938,0.2699999999999996,-0.03,0.38
78,0,3.3,2.938,0.2699999999999996,-0.03,0.38
79,0,3.3,2.022,0.29000000000000004,-0.04,0.32
80,0,3.3,2.022,0.29000000000000004,-0.04,0.32
81,0,3.3,2.684,0.33999999999999986,-0.04,0.54
82,0,3.3,2.684,0.33999999999999986,-0.04,0.54
83,0,3.3,2.684,0.33999999999999986,-0.04,0.54
84,0,3.3,1.813,0.3099999999999996,-0.02,0.56
85,0,3.3,1.277,0.3099999999999996,-0.02,0.56
86,0,3.3,0.647,0.2999999999999998,0.02,0.11
87,0,3.3,0.175,0.2999999999999998,0.02,0.11
88,0,3.3,0.175,0.34999999999999964,-0.11,0.34
89,0,3.3,0.225,0.34999999999999964,-0.11,0.34
90,0,3.3,0.248,0.34999999999999964,-0.13,0.29
91,0,3.3,0.577,0.34999999999999964,-0.13,0.29
92,0,3.3,2.005,0.34999999999999964,-0.13,0.29
93,0,3.3,0.313,0.34999999999999964,-0.13,0.29
94,0,3.3,0.324,0.34999999999999964,-0.13,0.29
95,0,3.3,0.324,0.3799999999999999,-0.1,0.05
96,0,3.3,0.324,0.3799999999999999,-0.1,0.05
97,0,3.3,0.324,0.40000000000000036,-0.11,-0.05
98,0,3.3,0.38,0.40000000000000036,-0.11,-0.05
99,0,3.3,0.38,0.4400000000000004,-0.09,-0.12
100,0,3.3,2.291,0.4400000000000004,-0.09,-0.12
101,0,13.3,1.724,0.40000000000000036,-0.04,0.1
102,0,30.0,1.724,0.3899999999999997,-0.09,-0.1
103,0,40.0,1.724,0.3899999999999997,-0.09,-0.1
104,0,46.6,1.434,0.34999999999999964,0.22,-0.35
105,0,56.6,1.434,0.34999999999999964,0.22,-0.35
106,0,63.3,1.66,0.4299999999999997,0.04,0.11
107,0,63.3,3.005,0.4299999999999997,0.04,0.11
108,0,66.6,3.005,0.41999999999999993,0.21,0.5
109,0,70.0,0.0,0.41999999999999993,0.21,0.5
110,0,63.3,0.0,0.33999999999999986,2.61,0.38
111,0,66.6,0.0,0.33999999999999986,2.61,0.38
112,0,70.0,0.0,0.2599999999999998,2.44,0.47
113,1,70.0,0.0,0.2599999999999998,2.44,0.47
114,1,70.0,1.348,-0.4800000000000004,2.48,-0.27
115,1,53.3,0.847,-0.71,2.22,-0.98
116,0,63.3,0.881,-0.71,2.22,-0.98
117,0,73.3,1.248,-2.02,3.33,-1.75
118,0,53.3,1.583,-2.02,3.33,-1.75
119,0,60.0,2.005,-2.02,3.33,-1.75
120,0,70.0,2.235,-1.4500000000000002,2.98,-0.09
121,0,60.0,2.38,-1.4500000000000002,2.98,-0.09
122,0,66.6,2.495,0.8099999999999996,2.02,2.55
123,0,73.3,2.614,0.8099999999999996,2.02,2.55
124,0,60.0,2.684,0.7800000000000002,0.28,3.0
125,0,66.6,2.77,0.7800000000000002,0.28,3.0
126,0,76.6,2.839,0.54,0.28,2.73
127,0,66.6,2.991,0.54,0.28,2.73
128,0,63.3,3.137,-0.8200000000000003,1.66,1.01
129,0,83.3,3.2,-0.8200000000000003,1.66,1.01
130,0,83.3,3.286,-0.9100000000000001,1.64,1.01
131,0,63.3,3.34,-0.9100000000000001,1.64,1.01
132,0,73.3,3.544,-0.79,2.43,0.3
133,0,86.6,3.971,-0.79,2.43,0.3
134,0,86.6,4.004,-0.45999999999999996,2.5,0.85
135,0,86.6,3.738,-0.45999999999999996,2.5,0.85
136,0,86.6,3.286,-0.45999999999999996,2.5,0.85
137,0,86.6,3.566,-0.9500000000000002,0.84,0.31
138,0,66.6,3.792,-0.9500000000000002,0.84,0.31
139,0,66.6,3.971,-2.48,-0.2,-2.72
140,0,86.6,3.971,-2.48,-0.2,-2.72
141,0,66.6,4.224,-2.73,1.23,-4.6
142,0,70.0,4.265,-2.4,2.78,-3.61
143,0,80.0,4.445,-2.4,2.78,-3.61
144,0,76.6,4.184,-1.7000000000000002,4.18,-1.04
145,0,66.6,4.601,-1.7000000000000002,4.18,-1.04
146,0,83.3,4.658,-1.31,1.96,-1.59
147,0,93.3,4.658,-1.31,1.96,-1.59
148,0,80.0,4.397,-0.9800000000000004,0.8,-2.09
149,0,73.3,4.445,-0.9800000000000004,0.8,-2.09
150,1,73.3,5.258,-1.0099999999999998,0.8,-1.26
151,0,76.6,5.077,-0.08999999999999986,2.08,-2.04
152,0,76.6,5.164,-0.08999999999999986,2.08,-2.04
153,0,93.3,4.445,0.47999999999999954,0.87,-0.31
154,0,83.3,4.073,0.47999999999999954,0.87,-0.31
155,1,80.0,4.265,-2.37,0.23,-3.0
156,1,83.3,4.601,-2.37,0.23,-3.0
157,0,83.3,4.445,-4.76,3.04,-3.53
158,0,76.6,4.658,-4.76,3.04,-3.53
159,0,60.0,4.397,-5.43,0.97,-4.84
160,0,76.6,4.495,-5.43,0.97,-4.84
161,0,76.6,5.258,-3.73,1.01,-3.81
162,1,60.0,4.996,-2.99,1.9,-1.95
163,1,76.6,4.307,-2.99,1.9,-1.95
164,0,80.0,4.351,-1.2800000000000002,1.98,-0.26
165,0,73.3,4.719,-1.2800000000000002,1.98,-0.26
166,0,70.0,5.077,-1.2800000000000002,1.98,-0.26
167,0,66.6,4.445,-0.3600000000000003,-1.73,-1.16
168,0,63.3,4.109,0.1299999999999999,-2.78,-0.37
169,1,60.0,3.544,0.1299999999999999,-2.78,-0.37
170,1,60.0,3.792,0.8799999999999999,-3.64,-1.65
171,1,53.3,3.792,0.8799999999999999,-3.64,-1.65
172,0,50.0,3.792,1.6799999999999997,-1.66,-2.04
173,0,50.0,3.792,1.6799999999999997,-1.66,-2.04
174,0,50.0,3.792,1.92,-1.4,-2.59
175,0,50.0,3.792,1.92,-1.4,-2.59
176,0,50.0,3.792,2.4799999999999995,-1.95,-3.27
177,0,50.0,3.792,2.4799999999999995,-1.95,-3.27
178,1,50.0,3.792,2.4799999999999995,-1.95,-3.27
179,1,36.6,3.792,3.5599999999999996,-1.96,-2.48
180,1,30.0,2.436,3.5599999999999996,-1.96,-2.48
181,0,26.6,2.327,4.3,-1.42,-2.81
182,0,23.3,2.176,4.3,-1.42,-2.81
183,0,26.6,2.049,5.159999999999999,-1.34,-2.8
184,0,23.3,1.912,5.159999999999999,-1.34,-2.8
185,0,10.0,1.809,5.159999999999999,-1.34,-2.8
186,0,10.0,1.691,5.2299999999999995,-1.7,-2.36
187,0,3.3,1.573,5.2299999999999995,-1.7,-2.36
188,0,3.3,1.39,4.89,-1.44,-1.48
189,0,3.3,1.255,4.89,-1.44,-1.48
190,0,3.3,1.126,4.840000000000001,-1.76,-0.56
191,0,3.3,1.005,4.840000000000001,-1.76,-0.56
192,0,3.3,0.901,4.840000000000001,-1.15,-0.77
193,0,3.3,0.763,4.840000000000001,-1.15,-0.77
194,0,3.3,0.682,4.79,-0.47,-0.59
195,0,3.3,0.617,4.8,-0.18,-0.31
196,0,3.3,0.564,4.8,-0.18,-0.31
197,0,3.3,0.485,4.8,-0.18,-0.31
198,0,3.3,0.44,4.840000000000001,-0.04,-0.67
199,0,3.3,0.404,4.7700000000000005,0.05,-0.66
200,1,3.3,0.381,4.7700000000000005,0.05,-0.66
201,1,3.3,0.353,4.749999999999999,0.06,-0.39
202,0,3.3,0.318,4.78,-0.02,-0.42
203,0,3.3,0.3,4.78,-0.02,-0.42
204,0,3.3,0.271,4.78,-0.02,-0.42
205,0,3.3,0.239,4.78,-0.02,-0.42
206,0,3.3,0.207,4.78,-0.02,-0.42
207,0,3.3,0.17,4.78,-0.02,-0.42
208,0,3.3,0.138,4.78,-0.02,-0.42
209,0,3.3,0.108,4.78,-0.02,-0.42
210,0,3.3,0.078,3.3899999999999997,-0.57,-0.74
211,0,3.3,0.054,3.3899999999999997,-0.57,-0.74
212,0,3.3,0.054,3.0300000000000002,-0.7,-0.58
213,0,3.3,0.054,3.0300000000000002,-0.7,-0.58
214,0,3.3,0.054,1.8600000000000003,-0.6,-1.11
215,0,3.3,0.054,1.8600000000000003,-0.6,-1.11
216,0,3.3,0.054,1.0599999999999996,-0.92,-0.86
217,0,3.3,0.054,1.0599999999999996,-0.92,-0.86
218,0,3.3,0.054,0.6900000000000004,-1.16,0.14
219,0,3.3,1.245,0.6900000000000004,-1.16,0.14
220,0,3.3,1.543,0.6900000000000004,-1.16,0.14
221,0,3.3,0.803,0.8200000000000003,-0.37,0.91
222,0,3.3,0.803,0.8200000000000003,-0.37,0.91
223,0,3.3,0.003,0.6699999999999999,-0.49,-0.05
224,0,3.3,0.206,0.6699999999999999,-0.49,-0.05
225,2,3.3,0.0,0.7199999999999998,-0.62,-0.14
226,2,3.3,0.0,0.7199999999999998,-0.62,-0.14
227,2,3.3,0.0,0.7400000000000002,-0.64,-0.41
228,0,3.3,0.0,0.7400000000000002,-0.64,-0.41
229,0,3.3,0.0,1.1600000000000001,-0.25,-0.98
230,1,3.3,0.004,1.1900000000000004,0.3,-0.86
231,1,3.3,0.69,1.1900000000000004,0.3,-0.86
232,0,3.3,2.376,1.08,-0.19,-0.57
233,0,3.3,2.073,1.08,-0.19,-0.57
234,0,3.3,3.032,1.2599999999999998,-0.32,-0.49
235,0,3.3,0.919,1.2599999999999998,-0.32,-0.49
236,0,3.3,0.69,1.5199999999999996,0.11,-0.38
237,0,3.3,0.031,1.5199999999999996,0.11,-0.38
238,0,3.3,0.915,2.0199999999999996,-0.03,0.04
239,0,3.3,0.915,2.0199999999999996,-0.03,0.04
240,0,3.3,0.067,2.26,0.14,0.34
241,0,3.3,2.461,2.29,-0.01,-0.28
242,0,3.3,2.461,2.29,-0.01,-0.28
243,0,3.3,0.0,2.3200000000000003,-0.34,-0.2
244,0,3.3,0.095,2.3200000000000003,-0.34,-0.2
245,0,3.3,1.005,2.66,-0.25,-0.93
246,0,3.3,1.08,2.66,-0.25,-0.93
247,0,3.3,0.618,2.88,0.02,0.62
248,0,3.3,1.134,2.88,0.02,0.62
249,0,3.3,0.801,2.63,-0.06,-0.38
250,0,3.3,0.359,2.63,-0.06,-0.38
251,0,3.3,0.395,2.63,-0.06,-0.38
252,0,3.3,2.202,3.05,-0.34,-0.01
253,0,3.3,0.024,3.05,-0.34,-0.01
254,0,3.3,0.251,3.1499999999999995,-0.08,-0.28
255,0,3.3,0.861,3.1499999999999995,-0.08,-0.28
256,0,3.3,1.59,3.2800000000000002,-0.64,0.16
257,0,3.3,0.816,3.2399999999999993,-0.29,0.2
258,0,3.3,0.525,3.2399999999999993,-0.29,0.2
259,0,3.3,0.029,3.6000000000000005,-0.18,-0.24
260,0,3.3,0.536,3.6000000000000005,-0.18,-0.24
261,0,3.3,0.925,3.6000000000000005,-0.18,-0.24
262,0,3.3,0.273,4.420000000000001,-0.75,-0.09
263,0,3.3,0.138,4.55,0.21,-0.23
264,0,3.3,0.235,4.55,0.21,-0.23
265,0,3.3,0.002,4.78,-0.25,-0.24
266,0,3.3,0.004,4.78,-0.25,-0.24
267,0,3.3,0.024,4.78,-0.25,-0.24
268,0,3.3,0.24,4.829999999999999,-0.21,-0.3
269,0,3.3,0.291,4.829999999999999,-0.21,-0.3
270,0,3.3,0.005,5.03,-0.88,0.19
271,0,3.3,0.223,5.03,-0.88,0.19
272,0,3.3,0.716,4.8500000000000005,-0.65,-0.68
273,0,3.3,0.317,4.8500000000000005,-0.65,-0.68
274,0,3.3,0.108,5.12,0.01,-0.55
275,0,3.3,0.164,5.12,0.01,-0.55
276,0,3.3,0.19,5.81,-0.03,-0.72
277,0,3.3,0.106,5.81,-0.03,-0.72
278,0,3.3,0.026,6.329999999999999,-0.07,-0.02
279,0,3.3,0.003,6.329999999999999,-0.07,-0.02
280,0,3.3,2.396,6.590000000000001,0.35,-0.73
281,0,3.3,1.559,6.840000000000001,0.92,-0.65
282,0,3.3,1.559,6.840000000000001,0.92,-0.65
283,0,3.3,0.864,6.94,1.01,-0.97
284,0,3.3,0.007,6.94,1.01,-0.97
285,0,3.3,0.064,6.999999999999999,0.53,-1.17
286,0,3.3,0.05,6.999999999999999,0.53,-1.17
287,0,3.3,0.386,6.329999999999999,0.65,-1.87
288,0,3.3,0.726,6.329999999999999,0.65,-1.87
289,0,3.3,0.237,5.659999999999999,0.6,-1.63
290,0,3.3,0.02,5.659999999999999,0.6,-1.63
291,0,3.3,0.046,5.680000000000001,0.41,-0.15
292,0,3.3,0.236,5.760000000000001,0.54,0.04
293,0,3.3,0.075,5.760000000000001,0.54,0.04
294,0,3.3,0.004,6.06,1.15,-0.47
295,0,3.3,0.08,6.06,1.15,-0.47
296,0,3.3,0.021,6.53,0.9,-1.64
297,0,3.3,0.005,6.53,0.9,-1.64
298,0,3.3,0.018,6.53,0.9,-1.64
299,0,3.3,0.201,7.569999999999999,0.19,-0.62
300,0,3.3,0.242,7.569999999999999,0.19,-0.62
301,0,3.3,0.015,8.350000000000001,0.54,-0.36
302,0,3.3,0.249,8.350000000000001,0.54,-0.36
303,0,3.3,0.005,8.350000000000001,0.54,-0.36
304,0,3.3,0.094,8.350000000000001,0.54,-0.36
305,0,3.3,0.024,9.71,0.3,-0.83
306,0,3.3,0.234,9.71,0.3,-0.83
307,0,3.3,0.079,10.170000000000002,-0.02,-0.24
308,0,3.3,0.345,10.170000000000002,-0.02,-0.24
309,0,3.3,0.361,10.71,0.32,0.01
310,0,3.3,0.045,10.71,0.32,0.01
311,0,3.3,0.206,10.870000000000001,0.71,0.5
312,0,3.3,0.692,10.870000000000001,0.71,0.5
313,0,3.3,0.024,10.41,0.59,-1.28
314,0,3.3,0.004,10.370000000000001,0.5,-1.67
315,0,3.3,0.049,10.370000000000001,0.5,-1.67
316,0,3.3,0.053,9.969999999999999,0.61,-0.39
317,0,3.3,0.102,9.969999999999999,0.61,-0.39
318,0,6.6,0.409,9.91,0.51,-0.77
319,0,3.3,0.974,9.91,0.51,-0.77
320,0,3.3,0.973,10.120000000000001,-0.28,-0.45
321,0,3.3,0.726,10.21,0.37,-0.32
322,0,3.3,1.138,10.21,0.37,-0.32
323,0,10.0,0.457,10.79,0.49,-0.12
324,0,6.6,0.381,10.79,0.49,-0.12
325,0,6.6,0.5,11.02,-0.25,-0.62
326,0,6.6,0.477,11.02,-0.25,-0.62
327,0,6.6,0.36,11.170000000000002,-0.01,-0.56
328,0,3.3,0.233,11.170000000000002,-0.01,-0.56
329,1,3.3,0.071,11.170000000000002,0.13,0.32
330,1,3.3,0.025,11.170000000000002,0.13,0.32
331,1,3.3,0.137,11.170000000000002,0.13,0.32
332,0,3.3,0.457,11.2,0.4,0.59
333,0,3.3,0.947,11.2,0.4,0.59
334,0,3.3,1.114,11.370000000000001,-0.2,0.53
335,0,3.3,0.289,11.370000000000001,-0.2,0.53
336,0,3.3,0.319,11.32,0.15,-0.12
337,0,3.3,0.728,11.32,0.15,-0.12
338,0,3.3,0.388,11.350000000000001,-0.04,0.06
339,0,3.3,0.113,11.370000000000001,0.85,0.65
340,0,3.3,0.124,11.370000000000001,0.85,0.65
341,0,3.3,0.412,11.350000000000001,1.43,-0.17
342,0,3.3,0.803,11.350000000000001,1.43,-0.17
343,0,3.3,0.238,11.130000000000003,1.11,-0.68
344,0,3.3,0.549,11.130000000000003,1.11,-0.68
345,0,3.3,0.497,11.130000000000003,1.11,-0.68
346,0,3.3,0.359,11.73,0.88,0.15
347,0,3.3,0.236,12.400000000000002,0.93,-0.29
348,0,3.3,0.092,12.400000000000002,0.93,-0.29
349,0,3.3,0.065,12.870000000000001,-0.63,-0.94
350,0,3.3,0.006,12.870000000000001,-0.63,-0.94
351,0,3.3,0.126,12.57,-0.87,-0.47
352,0,3.3,0.096,12.57,-0.87,-0.47
353,0,3.3,0.917,12.61,-0.58,-0.03
354,0,3.3,1.679,12.61,-0.58,-0.03
355,0,3.3,0.913,12.73,-0.05,-0.13
356,0,3.3,0.119,12.73,-0.05,-0.13
357,0,3.3,0.638,12.73,-0.05,-0.13
358,0,3.3,0.519,12.8,-0.35,-0.31
